[{"Id":1208817781,"CityName":"Fanø Vesterhavsbad","CityNameAscii":"Fano Vesterhavsbad","CityNameAlt":["Fanö Badested"],"Latitude":55.4350,"Longitude":8.3679,"Country":"Denmark","CountryCodeIso2":"DK","CountryCodeIso3":"DNK","AdminName":"Syddanmark","AdminNameAscii":"Syddanmark","AdminCode":"DK-83","AdminType":"region","Capital":"","Density":844.0,"Population":null,"PopulationProper":null,"Ranking":4,"TimeZone":"Europe/Copenhagen","SameName":false},{"Id":1208380914,"CityName":"Rindby","CityNameAscii":"Rindby","CityNameAlt":[""],"Latitude":55.4238,"Longitude":8.4004,"Country":"Denmark","CountryCodeIso2":"DK","CountryCodeIso3":"DNK","AdminName":"Syddanmark","AdminNameAscii":"Syddanmark","AdminCode":"DK-83","AdminType":"region","Capital":"","Density":844.0,"Population":null,"PopulationProper":null,"Ranking":4,"TimeZone":"Europe/Copenhagen","SameName":false},{"Id":1208348577,"CityName":"Nørby","CityNameAscii":"Norby","CityNameAlt":[""],"Latitude":55.4381,"Longitude":8.3953,"Country":"Denmark","CountryCodeIso2":"DK","CountryCodeIso3":"DNK","AdminName":"Syddanmark","AdminNameAscii":"Syddanmark","AdminCode":"DK-83","AdminType":"region","Capital":"","Density":844.0,"Population":null,"PopulationProper":null,"Ranking":4,"TimeZone":"Europe/Copenhagen","SameName":false},{"Id":1208625228,"CityName":"Nordby","CityNameAscii":"Nordby","CityNameAlt":["Odden"],"Latitude":55.4460,"Longitude":8.3979,"Country":"Denmark","CountryCodeIso2":"DK","CountryCodeIso3":"DNK","AdminName":"Syddanmark","AdminNameAscii":"Syddanmark","AdminCode":"DK-83","AdminType":"region","Capital":"","Density":844.0,"Population":null,"PopulationProper":null,"Ranking":4,"TimeZone":"Europe/Copenhagen","SameName":false},{"Id":1208138651,"CityName":"Sjælborg","CityNameAscii":"Sjaelborg","CityNameAlt":["Sjelborg"],"Latitude":55.5409,"Longitude":8.3478,"Country":"Denmark","CountryCodeIso2":"DK","CountryCodeIso3":"DNK","AdminName":"Syddanmark","AdminNameAscii":"Syddanmark","AdminCode":"DK-83","AdminType":"region","Capital":"","Density":5202.0,"Population":null,"PopulationProper":null,"Ranking":3,"TimeZone":"Europe/Copenhagen","SameName":false},{"Id":1208470851,"CityName":"Ådal","CityNameAscii":"Adal","CityNameAlt":[""],"Latitude":55.5000,"Longitude":8.3833,"Country":"Denmark","CountryCodeIso2":"DK","CountryCodeIso3":"DNK","AdminName":"Syddanmark","AdminNameAscii":"Syddanmark","AdminCode":"DK-83","AdminType":"region","Capital":"","Density":0.0,"Population":null,"PopulationProper":null,"Ranking":5,"TimeZone":"Europe/Copenhagen","SameName":true},{"Id":1208908605,"CityName":"Hjerting","CityNameAscii":"Hjerting","CityNameAlt":[""],"Latitude":55.5258,"Longitude":8.3575,"Country":"Denmark","CountryCodeIso2":"DK","CountryCodeIso3":"DNK","AdminName":"Syddanmark","AdminNameAscii":"Syddanmark","AdminCode":"DK-83","AdminType":"region","Capital":"","Density":5202.0,"Population":null,"PopulationProper":null,"Ranking":3,"TimeZone":"Europe/Copenhagen","SameName":false},{"Id":1208902192,"CityName":"Tobøl","CityNameAscii":"Tobol","CityNameAlt":[""],"Latitude":55.5352,"Longitude":8.3796,"Country":"Denmark","CountryCodeIso2":"DK","CountryCodeIso3":"DNK","AdminName":"Syddanmark","AdminNameAscii":"Syddanmark","AdminCode":"DK-83","AdminType":"region","Capital":"","Density":5202.0,"Population":null,"PopulationProper":null,"Ranking":3,"TimeZone":"Europe/Copenhagen","SameName":false}]