"city","lat","lng","population", "country"
"Rafaela","-31.2667","-61.4833","92945","Argentina"
"San Antonio de los Cobres","-24.2256","-66.3192","5482","Argentina"
"Veintiocho de Noviembre","-51.5840","-72.2143","6145","Argentina"
"San Agustin","-31.9833","-64.3833","3317","Argentina"
"Los Blancos","-23.5996","-62.6000","1145","Argentina"
"Don Bosco","-34.7000","-58.2833","20876","Argentina"
"San Nicolas de los Arroyos","-33.3333","-60.2167","160000","Argentina"
"Uspallata","-32.5931","-69.3460","2390","Argentina"
"Aristobulo del Valle","-27.0952","-54.8970","38000","Argentina"
"San Miguel de Tucuman","-26.8167","-65.2167","605767","Argentina"
"Gobernador Gregores","-48.7509","-70.2485","4497","Argentina"
"Necochea","-38.5500","-58.7333","80478","Argentina"
"Catamarca","-28.4686","-65.7792","159139","Argentina"
"Perugorria","-29.3414","-58.6106","5685","Argentina"
"Alto Rio Senguer","-45.0419","-70.8234","1570","Argentina"
"Posadas","-27.3667","-55.8969","275988","Argentina"
"Zapala","-38.9028","-70.0650","32097","Argentina"
"Joaquin V. Gonzalez","-25.1171","-64.1247","13376","Argentina"
"Peguaho","-27.7033","-58.7672","707","Argentina"
"San Justo","-30.7833","-60.5833","21624","Argentina"
"San Justo","-34.6833","-58.5500","136604","Argentina"
"Concepcion del Uruguay","-32.4833","-58.2333","72528","Argentina"
"Laboulaye","-34.1267","-63.3911","20534","Argentina"
"Rio Cuarto","-33.1230","-64.3478","158298","Argentina"
"Pinamar","-37.1000","-56.8500","45000","Argentina"
"San Francisco","-31.4356","-62.0714","62000","Argentina"
"Coronel Dorrego","-38.7187","-61.2873","11510","Argentina"
"Veinticinco de Mayo","-35.4167","-60.1667","23408","Argentina"
"Veinticinco de Mayo","-37.7710","-67.7173","17430","Argentina"
"Villa La Angostura","-40.7616","-71.6448","11063","Argentina"
"Santa Elena","-30.9500","-59.8000","17791","Argentina"
"Villa Maria","-32.4103","-63.2314","79356","Argentina"
"Parana","-31.7444","-60.5175","247863","Argentina"
"Picun Leufu","-39.5235","-69.2797","3144","Argentina"
"Bahia Blanca","-38.7167","-62.2667","299101","Argentina"
"Sierra Colorada","-40.5875","-67.7583","1542","Argentina"
"Veinte de Junio","-34.7750","-58.7250","1597","Argentina"
"Jose Maria Ezeiza","-34.8333","-58.5167","160219","Argentina"
"Piedra del Aguila","-40.0500","-70.0778","3669","Argentina"
"San Miguel","-34.5333","-58.7167","157532","Argentina"
"Mercedes","-34.6500","-59.4333","52949","Argentina"
"Mercedes","-29.2000","-58.0833","30649","Argentina"
"Carhue","-37.1667","-62.7333","7190","Argentina"
"Villaguay","-31.8500","-59.0167","49445","Argentina"
"Zarate","-34.0833","-59.0333","98522","Argentina"
"Justiniano Posse","-32.8833","-62.6667","8499","Argentina"
"Villa Constitucion","-33.2333","-60.3333","47374","Argentina"
"Esquel","-42.9000","-71.3167","36687","Argentina"
"Buenos Aires","-34.5997","-58.3819","16157000","Argentina"
"Monte Cristo","-31.3431","-63.9444","9254","Argentina"
"Goya","-29.1333","-59.2500","72304","Argentina"
"Rio Gallegos","-51.6333","-69.2333","95796","Argentina"
"Puerto Santa Cruz","-50.0192","-68.5231","4431","Argentina"
"Lobos","-35.1864","-59.0961","18278","Argentina"
"Coronel Suarez","-37.4547","-61.9334","23621","Argentina"
"Villa Paranacito","-33.7000","-58.6833","15321","Argentina"
"Rosario del Tala","-32.3008","-59.1389","12801","Argentina"
"Ushuaia","-54.8072","-68.3044","56956","Argentina"
"La Falda","-31.0833","-64.5000","16335","Argentina"
"Villa Tulumba","-30.4000","-64.1167","1474","Argentina"
"Federacion","-30.9833","-57.9167","16658","Argentina"
"Jose C. Paz","-34.5167","-58.7667","216637","Argentina"
"Riachuelo","-27.5828","-58.7444","1965","Argentina"
"Gualeguay","-33.1500","-59.3167","43009","Argentina"
"Santa Rosa de Rio Primero","-31.1500","-63.3833","7761","Argentina"
"Mendoza","-32.8833","-68.8333","114822","Argentina"
"Avellaneda","-29.1175","-59.6583","23341","Argentina"
"Avellaneda","-34.6625","-58.3678","24313","Argentina"
"Munro","-34.5333","-58.5167","35844","Argentina"
"Perito Moreno","-46.5900","-70.9297","4617","Argentina"
"Cafayate","-26.0700","-65.9800","11785","Argentina"
"Campana","-34.1667","-58.9167","86860","Argentina"
"Las Plumas","-43.7167","-67.2500","480","Argentina"
"Lomas del Mirador","-34.6667","-58.5297","71479","Argentina"
"Villa Dominico","-34.6917","-58.3333","62315","Argentina"
"Villa Celina","-34.7006","-58.4825","30000","Argentina"
"La Paz","-33.4661","-67.5500","4400","Argentina"
"Casilda","-33.0442","-61.1681","35058","Argentina"
"Comandante Fontana","-25.3333","-59.6833","4277","Argentina"
"Quilmes","-34.7167","-58.2667","230810","Argentina"
"Santo Tome","-31.6667","-60.7667","65684","Argentina"
"Firmat","-33.4500","-61.4833","25757","Argentina"
"Frias","-28.6496","-65.1500","13594","Argentina"
"Villa Cura Brochero","-31.7100","-65.0200","6351","Argentina"
"Villa Huidobro","-34.8333","-64.5833","5658","Argentina"
"Garayalde","-44.6667","-66.6667","18","Argentina"
"Anelo","-38.3500","-68.7833","2449","Argentina"
"Los Polvorines","-34.5000","-58.7000","60867","Argentina"
"San Martin","-33.0806","-68.4706","117399","Argentina"
"Corrientes","-27.4833","-58.8167","352646","Argentina"
"Comodoro Rivadavia","-45.8667","-67.5000","730266","Argentina"
"Valcheta","-40.7000","-66.1500","3867","Argentina"
"Neuquen","-38.9573","-68.0455","231198","Argentina"
"Plaza Huincul","-38.9338","-69.1987","13172","Argentina"
"San Cristobal","-30.3105","-61.2372","14389","Argentina"
"Carcarana","-32.8500","-61.1500","16277","Argentina"
"Buta Ranquil","-37.0515","-69.8779","2443","Argentina"
"Ezpeleta","-34.7517","-58.2344","79557","Argentina"
"Choele Choel","-39.2858","-65.6542","10146","Argentina"
"Puerto San Martin","-32.7167","-60.7333","13243","Argentina"
"Rodeo","-30.2156","-69.1400","701","Argentina"
"San Rafael","-34.6175","-68.3356","107997","Argentina"
"Las Coloradas","-39.5500","-70.5833","873","Argentina"
"Senillosa","-39.0000","-68.4167","7542","Argentina"
"Rio Segundo","-31.6501","-63.9116","19713","Argentina"
"El Huecu","-37.6449","-70.5812","1391","Argentina"
"Alta Gracia","-31.6667","-64.4333","48140","Argentina"
"Chilecito","-29.1667","-67.5000","33724","Argentina"
"Merlo","-34.6653","-58.7275","244168","Argentina"
"Lanus","-34.7000","-58.4000","459263","Argentina"
"Tafi del Valle","-26.8667","-65.6833","3403","Argentina"
"Chivilcoy","-34.9000","-60.0167","54514","Argentina"
"Cutral-Co","-38.9333","-69.2333","35465","Argentina"
"Charata","-27.2144","-61.1881","18297","Argentina"
"Ingeniero Jacobacci","-41.3000","-69.5833","6261","Argentina"
"Castelar","-34.6500","-58.6500","107786","Argentina"
"Lujan","-34.5703","-59.1050","81749","Argentina"
"Mar del Plata","-38.0000","-57.5500","593337","Argentina"
"Bernal","-34.7000","-58.2833","109914","Argentina"
"Villa Rumipal","-32.1895","-64.4792","1269","Argentina"
"Santa Maria","-31.2611","-64.4639","9526","Argentina"
"La Reja","-34.6394","-58.8283","47839","Argentina"
"Obera","-27.4833","-55.1333","66112","Argentina"
"Sierra Grande","-41.6061","-65.3558","7404","Argentina"
"Jesus Maria","-30.9817","-64.0942","31602","Argentina"
"San Jose de Feliciano","-30.3833","-58.7500","10282","Argentina"
"Pico Truncado","-46.8000","-67.9667","20889","Argentina"
"Tartagal","-22.5000","-63.8333","60819","Argentina"
"Ingeniero Luis A. Huergo","-39.0833","-67.2333","6227","Argentina"
"Canada de Gomez","-32.8167","-61.4000","29205","Argentina"
"Dolavon","-43.3000","-65.7000","2887","Argentina"
"San Francisco Solano","-34.7667","-58.3167","91322","Argentina"
"Cerrillos","-24.9000","-65.4833","11498","Argentina"
"Gonzalez Catan","-34.7708","-58.6464","238067","Argentina"
"Sarmiento","-45.6000","-69.0833","10858","Argentina"
"Sarmiento","-30.7739","-64.1081","1455","Argentina"
"Oliva","-32.0416","-63.5698","11672","Argentina"
"Villalonga","-39.8829","-62.5833","2838","Argentina"
"Lago Puelo","-42.0667","-71.6167","3129","Argentina"
"Monte Chingolo","-34.7333","-58.3500","85060","Argentina"
"Gobernador Costa","-44.0667","-70.5833","2251","Argentina"
"Dock Sur","-34.6417","-58.3478","35897","Argentina"
"San Antonio Oeste","-40.7333","-64.9500","16265","Argentina"
"Villa Luzuriaga","-34.6667","-58.5833","94403","Argentina"
"Burzaco","-34.8167","-58.3667","98859","Argentina"
"Temperley","-34.7667","-58.3833","121451","Argentina"
"Trelew","-43.2533","-65.3094","93442","Argentina"
"Telsen","-42.3833","-66.9500","544","Argentina"
"Villa del Rosario","-31.5833","-63.5333","15394","Argentina"
"Las Lajas","-38.5208","-70.3667","1218","Argentina"
"Chichinales","-39.1000","-66.9333","3057","Argentina"
"Capitan Bermudez","-32.8167","-60.7167","29218","Argentina"
"Rafael Calzada","-34.7833","-58.3667","57351","Argentina"
"La Rioja","-29.4131","-66.8558","180995","Argentina"
"General Cabrera","-32.8000","-63.8667","100","Argentina"
"Gastre","-42.2667","-69.2167","602","Argentina"
"Rafael Castillo","-34.7167","-58.6167","147965","Argentina"
"Godoy Cruz","-32.9167","-68.8333","191299","Argentina"
"Centenario","-38.8167","-68.1333","34421","Argentina"
"Villa Regina","-39.1000","-67.0667","30028","Argentina"
"El Maiten","-42.0500","-71.1667","4011","Argentina"
"Castelli","-25.9500","-60.6167","9421","Argentina"
"Maquinchao","-41.2500","-68.7020","2494","Argentina"
"Mar de Ajo","-36.7162","-56.6766","13610","Argentina"
"San Javier","-30.5833","-59.9500","13604","Argentina"
"Granadero Baigorria","-32.8500","-60.7000","36994","Argentina"
"Lincoln","-34.8500","-61.5167","24798","Argentina"
"San Isidro","-34.4667","-58.5167","43595","Argentina"
"Chacabuco","-34.6500","-60.4900","34587","Argentina"
"Pueblo Libertador","-30.2200","-59.3900","932","Argentina"
"Rio Mayo","-45.6870","-70.2600","2791","Argentina"
"Paso de Indios","-43.9000","-69.0667","1264","Argentina"
"Helvecia","-31.1000","-60.0833","7994","Argentina"
"Haedo","-34.6500","-58.6000","37745","Argentina"
"San Martin de los Andes","-40.1667","-71.3500","27956","Argentina"
"Vera","-29.4667","-60.2167","19185","Argentina"
"San Carlos de Bariloche","-41.1500","-71.3000","112887","Argentina"
"Pilcaniyeu","-41.1233","-70.7200","757","Argentina"
"Tecka","-43.4926","-70.8108","1237","Argentina"
"Embalse","-32.1833","-64.4167","9107","Argentina"
"General Fernandez Oro","-38.9500","-67.9167","6772","Argentina"
"Florencio Varela","-34.8167","-58.2833","426005","Argentina"
"Florencio Varela","-34.8167","-58.3833","146704","Argentina"
"San Ramon de la Nueva Oran","-23.1361","-64.3222","74059","Argentina"
"Punta Alta","-38.8800","-62.0750","58315","Argentina"
"Ingeniero Guillermo N. Juarez","-23.9000","-61.8500","6453","Argentina"
"Ituzaingo","-34.6582","-58.6672","135275","Argentina"
"Adrogue","-34.8000","-58.3833","28265","Argentina"
"Lamarque","-39.4236","-65.7000","7686","Argentina"
"Belen","-27.6496","-67.0333","11359","Argentina"
"Aldo Bonzi","-34.7083","-58.5181","18175","Argentina"
"Villa Carlos Paz","-31.4000","-64.5167","62423","Argentina"
"Tapiales","-34.7058","-58.5047","23586","Argentina"
"Libertador General San Martin","-23.8000","-64.7833","49267","Argentina"
"Banfield","-34.7500","-58.3833","223898","Argentina"
"Malargue","-35.4745","-69.5853","11847","Argentina"
"Marcos Juarez","-32.7000","-62.1000","27004","Argentina"
"Cinco Saltos","-38.8167","-68.0667","22790","Argentina"
"Gualeguaychu","-33.0078","-58.5111","109461","Argentina"
"San Pedro","-24.2196","-64.8700","58430","Argentina"
"San Pedro","-33.6794","-59.6669","47452","Argentina"
"Las Parejas","-32.6833","-61.5333","12375","Argentina"
"Rawson","-43.3000","-65.1000","31787","Argentina"
"Rio Colorado","-38.9908","-64.0958","11733","Argentina"
"Tres Lagos","-49.5981","-71.4465","341","Argentina"
"El Talar de Pacheco","-34.4719","-58.6550","50426","Argentina"
"Salta","-24.7883","-65.4106","535303","Argentina"
"Tinogasta","-28.0667","-67.5667","587","Argentina"
"Plottier","-38.9500","-68.2333","32390","Argentina"
"La Plata","-34.9333","-57.9500","193144","Argentina"
"General Levalle","-34.0167","-63.9167","5697","Argentina"
"San Salvador de Jujuy","-24.1856","-65.2994","321789","Argentina"
"Trancas","-26.2308","-65.2781","1599","Argentina"
"Corral de Bustos","-33.2833","-62.2000","10407","Argentina"
"Brandsen","-35.1667","-58.2167","19877","Argentina"
"Trevelin","-43.0833","-71.4667","6353","Argentina"
"Junin","-34.5939","-60.9464","85007","Argentina"
"Loncopue","-38.0667","-70.6167","4877","Argentina"
"Laguna Paiva","-31.3163","-60.6573","12334","Argentina"
"Ramos Mejia","-34.6500","-58.5667","120346","Argentina"
"Ciudad General Belgrano","-34.7261","-58.5289","92957","Argentina"
"Santa Maria","-26.6833","-66.0333","17030","Argentina"
"Buen Pasto","-45.0833","-69.4667","105","Argentina"
"Bragado","-35.1167","-60.5000","33222","Argentina"
"Villa Allende","-31.2944","-64.2953","28374","Argentina"
"Olavarria","-36.9000","-60.3333","86320","Argentina"
"Bialet Masse","-31.3214","-64.4694","5425","Argentina"
"San Lorenzo","-28.1200","-58.7700","47626","Argentina"
"Monte Quemado","-25.8072","-62.8278","11387","Argentina"
"Rufino","-34.2683","-62.7125","18727","Argentina"
"Rio Grande","-53.7914","-67.6990","31095","Argentina"
"Pampa del Infierno","-26.5167","-61.1667","2921","Argentina"
"Isidro Casanova","-34.7000","-58.5833","190696","Argentina"
"Chajari","-30.7667","-57.9833","60000","Argentina"
"Abra Pampa","-22.7167","-65.7000","4480","Argentina"
"Esteban Echeverria","-34.8167","-58.4667","109644","Argentina"
"Bella Vista","-34.5333","-58.6667","72000","Argentina"
"San Luis","-33.2994","-66.3392","169947","Argentina"
"El Calafate","-50.3395","-72.2649","21132","Argentina"
"Leones","-32.6617","-62.2967","10391","Argentina"
"Villa Angela","-27.5833","-60.7167","30051","Argentina"
"Melincue","-33.6500","-61.4500","2139","Argentina"
"Junin de los Andes","-39.9167","-71.0667","12621","Argentina"
"Los Antiguos","-46.5500","-71.6167","3363","Argentina"
"Formosa","-26.1847","-58.1758","222226","Argentina"
"Santa Coloma","-34.0619","-59.5569","203","Argentina"
"Ayacucho","-37.1525","-58.4882","17364","Argentina"
"Villa Alsina","-34.6667","-58.4167","41155","Argentina"
"Sarandi","-34.6833","-58.3333","60752","Argentina"
"La Quiaca","-22.1056","-65.6000","13761","Argentina"
"Chascomus","-35.5750","-58.0089","21054","Argentina"
"Victorica","-36.2167","-65.4340","4458","Argentina"
"Lopez","-31.9053","-61.2814","1535","Argentina"
"Villa General Belgrano","-31.9667","-64.5667","7795","Argentina"
"Moises Ville","-30.7167","-61.4833","2425","Argentina"
"Puerto Madryn","-42.7730","-65.0366","115353","Argentina"
"Gobernador Castro","-33.6586","-59.8683","2607","Argentina"
"Berazategui","-34.7679","-58.2133","180523","Argentina"
"Resistencia","-27.4514","-58.9867","291720","Argentina"
"Caleta Olivia","-46.4333","-67.5333","51733","Argentina"
"Pedro Luro","-39.5000","-62.6833","9494","Argentina"
"Pilar","-34.4588","-58.9142","81120","Argentina"
"Victoria","-32.6167","-60.1667","30623","Argentina"
"San Salvador","-31.6167","-58.5000","12733","Argentina"
"Chamical","-30.3592","-66.3133","8989","Argentina"
"San Julian","-49.3070","-67.7298","7894","Argentina"
"Laguna Larga","-31.7767","-63.8025","7437","Argentina"
"Villa Gesell","-37.2556","-56.9681","29593","Argentina"
"Rosario","-32.9575","-60.6394","1193605","Argentina"
"Jesus Nazareno","-32.9111","-68.7900","6875","Argentina"
"Susques","-23.4006","-66.3672","1093","Argentina"
"Cayasta","-31.2000","-60.1667","3367","Argentina"
"Bell Ville","-32.6333","-62.6833","33835","Argentina"
"Las Lomitas","-24.7072","-60.5944","7683","Argentina"
"Balcarce","-37.8464","-58.2556","38823","Argentina"
"La Calera","-31.3439","-64.3353","32227","Argentina"
"Reconquista","-29.1443","-59.6438","70549","Argentina"
"Vicente Lopez","-34.5333","-58.4750","22419","Argentina"
"Oncativo","-31.9134","-63.6818","13180","Argentina"
"Dolores","-36.3132","-57.6792","25940","Argentina"
"General Juan Madariaga","-37.0167","-57.1333","18089","Argentina"
"Esperanza","-31.4167","-60.9333","43300","Argentina"
"Jose de San Martin","-44.0167","-70.4667","1612","Argentina"
"Salsacate","-31.3167","-65.0667","1275","Argentina"
"Villa Sarmiento","-34.6333","-58.5667","17481","Argentina"
"Fray Luis A. Beltran","-32.7833","-60.7333","15176","Argentina"
"Rio Primero","-31.3333","-63.6167","7044","Argentina"
"Baradero","-33.8000","-59.5167","28537","Argentina"
"Los Menucos","-40.8424","-68.0896","5187","Argentina"
"Longchamps","-34.8596","-58.3870","47622","Argentina"
"Berisso","-34.8667","-57.8667","101123","Argentina"
"Puerto Deseado","-47.7500","-65.9167","14183","Argentina"
"Mina Clavero","-31.7239","-65.0050","8487","Argentina"
"Coronda","-31.9667","-60.9167","18115","Argentina"
"Concepcion","-28.3930","-57.8868","4022","Argentina"
"San Juan","-31.5375","-68.5364","471389","Argentina"
"Tres Capones","-28.0042","-55.6096","485","Argentina"
"General Deheza","-32.7564","-63.7889","18000","Argentina"
"Venado Tuerto","-33.7500","-61.9667","76432","Argentina"
"Capilla del Monte","-30.8500","-64.5167","11181","Argentina"
"Las Heras","-46.5500","-68.9500","17821","Argentina"
"Santiago del Estero","-27.7844","-64.2669","252192","Argentina"
"Las Heras","-32.8250","-68.8017","66663","Argentina"
"Remedios de Escalada","-34.7167","-58.4000","81465","Argentina"
"Unquillo","-31.2333","-64.3167","18483","Argentina"
"Darregueira","-37.6996","-63.1666","3412","Argentina"
"Allen","-38.9772","-67.8272","22859","Argentina"
"Santa Rosa","-28.2631","-58.1189","7143","Argentina"
"Santa Rosa","-36.6203","-64.2906","103860","Argentina"
"Macachin","-37.1377","-63.6620","5465","Argentina"
"Comallo","-41.0333","-70.2667","741","Argentina"
"Rio Tercero","-32.1768","-64.1130","46421","Argentina"
"Tandil","-37.3167","-59.1333","116917","Argentina"
"General Conesa","-40.1000","-64.4333","5484","Argentina"
"Anatuya","-28.4667","-62.8333","14133","Argentina"
"San Francisco del Chanar","-29.7873","-63.9423","2256","Argentina"
"General Roca","-39.0333","-67.5833","81534","Argentina"
"Caseros","-34.6167","-58.5333","95785","Argentina"
"Humahuaca","-23.2054","-65.3505","11369","Argentina"
"Carmen de Areco","-34.3833","-59.8167","14692","Argentina"
"Colon","-32.2241","-58.1419","24835","Argentina"
"Dean Funes","-30.4333","-64.3500","21518","Argentina"
"Cordoba","-31.4167","-64.1833","1329604","Argentina"
"Libertad","-34.6833","-58.6833","100324","Argentina"
"Catriel","-37.8778","-67.7917","17584","Argentina"
"Comandante Luis Piedra Buena","-49.9830","-68.9100","6405","Argentina"
"Chumbicha","-28.8666","-66.2333","2572","Argentina"
"Wilde","-34.7000","-58.3167","65881","Argentina"
"Villa Adelina","-34.5175","-58.5475","35307","Argentina"
"Jose Marmol","-34.7833","-58.3667","41109","Argentina"
"Concordia","-31.3922","-58.0169","149450","Argentina"
"Alumine","-39.2369","-70.9197","4591","Argentina"
"Sunchales","-30.9442","-61.5614","20537","Argentina"
"Rada Tilly","-45.9257","-67.5526","9098","Argentina"
"Pergamino","-33.8836","-60.5669","87652","Argentina"
"General Martin Miguel de Guemes","-24.6667","-65.0500","19828","Argentina"
"General Pico","-35.6587","-63.7577","57029","Argentina"
"Azul","-36.7833","-59.8500","55728","Argentina"
"Nueve de Julio","-35.4500","-60.8833","36494","Argentina"
"Yacimiento Rio Turbio","-51.5333","-72.3000","8814","Argentina"
"Cazadores Correntinos","-29.9808","-58.2997","456","Argentina"
"General Enrique Godoy","-39.0833","-67.1500","3112","Argentina"
"Presidencia Roque Saenz Pena","-26.7833","-60.4500","81879","Argentina"
"La Carlota","-33.4179","-63.2935","12537","Argentina"
"Villa Mercedes","-33.6667","-65.4667","111391","Argentina"
"Malvinas Argentinas","-31.3697","-64.0531","12187","Argentina"
"Fiambala","-27.6833","-67.6333","4693","Argentina"
"Gobernador Galvez","-33.0251","-60.6337","80769","Argentina"
"Lomas de Zamora","-34.7667","-58.4000","112580","Argentina"
"Rinconada","-22.4403","-66.1672","6692","Argentina"
"San Carlos","-31.1775","-65.1025","1311","Argentina"
"Ibicuy","-33.7333","-59.1833","4520","Argentina"
"Ireneo Portela","-33.9667","-59.6667","379","Argentina"
"Benito Juarez","-37.6833","-59.8000","10609","Argentina"
"Laguna Alsina","-36.8667","-62.1167","2524","Argentina"
"Santa Fe","-31.6333","-60.7000","405683","Argentina"
"Viedma","-40.8000","-63.0000","59122","Argentina"
"Tunuyan","-33.5667","-69.0167","22834","Argentina"
"La Banda","-27.7333","-64.2500","106441","Argentina"
"Eldorado","-26.4000","-54.6333","17365","Argentina"
"Cruz del Eje","-30.7333","-64.8000","52172","Argentina"
"Armstrong","-32.7819","-61.6019","11181","Argentina"
"Oriente","-38.7417","-60.6133","1778","Argentina"
"Chepes","-31.3500","-66.6000","6020","Argentina"
"Ceres","-29.8833","-61.9500","14499","Argentina"
"Frontera","-31.4278","-62.0619","10520","Argentina"
"Moron","-34.6500","-58.6167","99066","Argentina"
"Chos Malal","-37.3833","-70.2667","13092","Argentina"
"Tres Arroyos","-38.3667","-60.2667","47136","Argentina"
