"city","lat","lng","population","country"
"Roshchino","53.1039","30.3628","12","Belarus"
"Trosnoye","54.2456","30.5522","12","Belarus"
"Shestovichi","52.0900","28.6569","85","Belarus"
"Maloye Zapotoch'ye","53.7000","29.8478","2","Belarus"
"Nekrashevka","51.7000","29.0333","83","Belarus"
"Staraya Dubrova","52.6625","28.8833","392","Belarus"
"Sloboda","53.1764","30.3750","159","Belarus"
"Sloboda","52.2838","31.6109","124","Belarus"
"Balichi","53.4254","24.0111","17","Belarus"
"Sedeyki","53.3000","24.1667","6","Belarus"
"Novy Svyerzhan'","53.4500","26.7333","1982","Belarus"
"Dzyetkavichy","53.1164","25.6956","14","Belarus"
"Shalayewka","53.5066","29.7363","138","Belarus"
"Raduchi","53.9618","31.0210","11","Belarus"
"Kustovitsa","53.0500","30.4078","25","Belarus"
"Sushchev","53.5625","30.1232","51","Belarus"
"Ahdemyer","52.1667","25.3167","208","Belarus"
"Ragozinka","53.9467","30.9322","31","Belarus"
"Lutishche","53.7980","31.2480","3","Belarus"
"Lyuta","52.2972","23.4842","123","Belarus"
"Pod'yasenka","53.2311","29.0170","22","Belarus"
"Vileyka","53.7999","30.8933","52","Belarus"
"Hayshyn","53.3467","30.9919","92","Belarus"
"Novaya Koshara","53.0833","29.8089","39","Belarus"
"Tishkovtsy","53.2206","26.3003","24","Belarus"
"Dvor-Peresika","54.4478","29.0653","14","Belarus"
"Zatitova Sloboda","53.5158","28.2664","519","Belarus"
"Yasenovets","53.4064","30.9553","8","Belarus"
"Poblin","52.8819","28.8100","56","Belarus"
"Klyapinichi","54.1333","29.9167","142","Belarus"
"Dikalovka","52.1167","31.0833","64","Belarus"
"Makarychy","52.1078","28.4217","608","Belarus"
"Vyhanashchy","52.6133","25.9186","408","Belarus"
"Malyye Zimovishchi","52.0247","29.0319","339","Belarus"
"Larishchevo","52.3911","31.2169","255","Belarus"
"Staryya Dzyatlavichy","52.2181","30.8667","284","Belarus"
"Doroshevichi","52.1175","28.2139","154","Belarus"
"Tsyalyakava","53.5164","27.3853","185","Belarus"
"Klimawka","52.2922","31.0919","876","Belarus"
"Plesovichskaya Slobodka","52.8333","29.7500","314","Belarus"
"Kovalichi","53.4878","23.9394","42","Belarus"
"Chepchin","52.2864","29.5500","64","Belarus"
"Nakhaw","52.2311","29.7233","429","Belarus"
"Brody","54.6439","28.2242","56","Belarus"
"Brody","53.7798","30.8862","30","Belarus"
"Brody","52.8828","28.6139","12","Belarus"
"Shutovka","52.2031","31.0192","12","Belarus"
"Stakhovshchina","53.6398","30.0161","26","Belarus"
"Korablishche","52.8522","30.7128","57","Belarus"
"Aynarovichi","54.2911","27.6781","71","Belarus"
"Pruzhinishchi","52.6000","29.2667","74","Belarus"
"Svecha","51.6206","29.2006","66","Belarus"
"Ruchytsa","54.4553","26.6675","37","Belarus"
"Dublin","51.7333","30.3333","260","Belarus"
"Zhabintsy","53.2910","25.9159","19","Belarus"
"Chupry","54.6405","27.8876","3","Belarus"
"Luk'yanovka","52.1692","31.5853","30","Belarus"
"Kupely","54.0297","30.3203","231","Belarus"
"Lubeniki","51.9428","30.3233","163","Belarus"
"Novaya Yatskovshchina","52.9614","30.7942","93","Belarus"
"Vygoda","53.4664","30.1097","2","Belarus"
"Ukhvatovka","52.9819","29.8597","22","Belarus"
"Panasyuki","52.5664","23.6075","16","Belarus"
"Stuzhitsa","53.7550","30.5314","29","Belarus"
"Uzda","53.4661","27.2244","10781","Belarus"
"Koptsevichi","52.4178","28.7886","137","Belarus"
"Hats'","52.6000","28.9667","414","Belarus"
"Akhrimovtsy","53.5876","24.3494","34","Belarus"
"Fundaminka","52.9989","30.5158","170","Belarus"
"Nasytsk","53.3819","28.3053","16","Belarus"
"Polatsk","55.4833","28.8000","80795","Belarus"
"Dudy","53.9131","25.8592","88","Belarus"
"Rekotka","54.1686","30.9342","65","Belarus"
"Krasyavichy","53.2703","25.9582","5","Belarus"
"Mayshchina","53.8261","29.8214","20","Belarus"
"Dymniki","52.3928","24.0978","65","Belarus"
"Skidal'","53.5833","24.2500","10168","Belarus"
"Obech","52.4333","24.6667","82","Belarus"
"Borshchevka","52.9108","30.2425","9","Belarus"
"Staryy Mokrets","51.8000","30.4333","10","Belarus"
"Kravtsovka","52.1122","31.0619","278","Belarus"
"Rudenka","52.7833","30.2500","45","Belarus"
"Lozy","52.0144","23.9168","9","Belarus"
"Lozy","53.3367","25.9346","5","Belarus"
"Darinpol'ye","52.8783","31.2811","17","Belarus"
"Rakovichi","52.6833","29.3500","77","Belarus"
"Kuz'mishki","54.5197","26.7178","5","Belarus"
"Ferma","54.2875","30.6144","11","Belarus"
"Yesipava Rudnya","52.1994","29.4794","131","Belarus"
"Kruglitsa","54.4544","29.0419","12","Belarus"
"Kalininskiy","51.7000","30.3500","9","Belarus"
"Yastrebka","52.0133","30.5322","60","Belarus"
"Derazhnya","52.3631","30.2853","48","Belarus"
"Lotva","54.9811","26.8911","292","Belarus"
"Rubcha","52.1353","28.3519","129","Belarus"
"Radeyevo","52.6517","30.7303","381","Belarus"
"Kuchin","53.6780","29.9610","81","Belarus"
"Mikhaylovka","53.5468","24.1362","58","Belarus"
"Bukhnovichi","54.2989","27.6558","7","Belarus"
"Dvizhki","51.8333","29.0422","499","Belarus"
"Krapivnya","52.5347","30.0764","8","Belarus"
"Krasnyy Osovets","53.6416","30.5797","78","Belarus"
"Novalukoml'","54.6658","29.1547","12439","Belarus"
"Martynovichi","52.4308","29.4014","50","Belarus"
"Surtsiny","53.8954","26.9287","14","Belarus"
"Khatyni","52.3939","29.7950","14","Belarus"
"Malyye Strelki","52.9964","30.3964","57","Belarus"
"Sysoyevo","54.4322","31.1247","9","Belarus"
"Kobryn","52.2167","24.3667","52843","Belarus"
"Vanyuzhichi","52.3889","28.5981","150","Belarus"
"Kremyanka","53.4333","31.0667","2","Belarus"
"Serkuli","53.7618","26.7448","6","Belarus"
"Zanevichi","53.4477","24.0229","76","Belarus"
"Slabazhany","53.3236","25.9083","18","Belarus"
"Mashtalery","53.6355","24.1633","43","Belarus"
"Buda-Petritskaya","51.9364","30.4392","29","Belarus"
"Izbyn'","52.1111","30.0172","53","Belarus"
"Konyukhi","54.3472","31.1064","11","Belarus"
"Luchezhevichi","52.0933","29.1572","295","Belarus"
"Voroshilki","54.8942","26.4214","105","Belarus"
"Pinsk","52.1153","26.1031","125900","Belarus"
"Drokovka","53.7090","31.0617","30","Belarus"
"Kotra","53.5857","24.1889","220","Belarus"
"Marozavichy","52.6722","30.5322","389","Belarus"
"Luzhok","53.7468","30.7104","8","Belarus"
"Rudnya-Koshelevskaya","52.7417","30.6311","49","Belarus"
"Nizhnyaya Alba","52.6214","30.2347","168","Belarus"
"Vyalikaya Palonka","53.4251","25.5547","52","Belarus"
"Bryantsevo","54.4667","30.2328","4","Belarus"
"Vikov","53.0608","30.1097","371","Belarus"
"Dubrovitsa","52.0506","30.1072","211","Belarus"
"Selivonovka","52.8667","30.3453","39","Belarus"
"Mol'cha","52.6528","29.5644","80","Belarus"
"Astravyets","54.6136","25.9553","14147","Belarus"
"Lukomskiye Poplavy","52.7981","30.9058","3","Belarus"
"Krugliki","53.4339","23.9139","50","Belarus"
"Zabalatstsye","53.1813","25.8361","338","Belarus"
"Abramovshchina Pervaya","54.6014","26.5333","25","Belarus"
"Zhornovka","53.4380","23.8152","33","Belarus"
"Valozhyn","54.0833","26.5167","10012","Belarus"
"Zal'ye","52.5725","29.4519","125","Belarus"
"Konotop","51.7600","29.5700","157","Belarus"
"Palki","53.3929","30.4991","142","Belarus"
"Sinichino","52.6128","30.4386","182","Belarus"
"Kazazayevka","52.3425","30.4389","796","Belarus"
"Sinsk","51.8833","30.6500","41","Belarus"
"Stan","54.2433","30.9097","217","Belarus"
"Plavushcheye Galoye","54.2944","28.9272","75","Belarus"
"Nasyeyki","53.3627","25.9573","5","Belarus"
"Bobruyki","51.8133","29.2628","81","Belarus"
"Boltichi","53.3602","26.0353","11","Belarus"
"Leshcha","54.3892","30.4214","10","Belarus"
"Ramyazy","51.8217","28.9500","522","Belarus"
"Lichitsy","53.1981","24.4256","66","Belarus"
"Vyalikiya Chuchavichy","52.5833","26.8500","2048","Belarus"
"Kubel'niki","53.3428","24.0025","11","Belarus"
"Lyudvinovo","52.1319","25.1725","78","Belarus"
"Chernotskoye","52.1086","28.5969","46","Belarus"
"Podkalenda","52.8928","28.6503","9","Belarus"
"Zvonka","52.9126","26.4841","76","Belarus"
"Krugovets","52.7800","30.3075","249","Belarus"
"Tseperka","53.0497","26.7214","37","Belarus"
"Khon'kavichy","53.9846","30.8492","56","Belarus"
"Rudnya-Zhurawlyova","51.9333","30.3333","189","Belarus"
"Mlynok","51.9061","28.9708","28","Belarus"
"Mlynok","52.2167","28.7736","55","Belarus"
"Mlynok","52.3344","28.5358","30","Belarus"
"Barsuki","54.2867","27.5100","9","Belarus"
"Barsuki","54.3008","30.6903","2","Belarus"
"Khomenki","53.7007","30.8335","47","Belarus"
"Krynki","52.3497","30.0753","348","Belarus"
"Maladusha","52.1561","30.2406","272","Belarus"
"Staryy Dovsk","53.1931","30.4464","174","Belarus"
"Utro","53.8761","30.5938","21","Belarus"
"Besedy","52.4150","28.7397","24","Belarus"
"Mezhnaya Sloboda","52.9471","26.5998","152","Belarus"
"Lustichi","54.6249","27.9903","26","Belarus"
"Provtyuki","51.9142","29.3711","31","Belarus"
"Dzisna","55.5628","28.2258","1492","Belarus"
"Zalav'ye","52.8500","30.8333","82","Belarus"
"Staroye Selo","54.9683","27.5274","23","Belarus"
"Zgoda","52.8319","28.8022","22","Belarus"
"Polyana","53.0542","28.6653","31","Belarus"
"Nyestsyary","53.3159","25.9602","13","Belarus"
"Pyakalichy","52.8833","29.4667","66","Belarus"
"Yavterishki","55.6647","27.3511","11","Belarus"
"Zayachen'ye","53.4394","30.2704","41","Belarus"
"Budka-Shibenka","52.4047","30.0825","28","Belarus"
"Chachevichy","53.5155","29.8371","296","Belarus"
"Korma","52.3014","29.6325","108","Belarus"
"Korma","51.7133","28.6250","104","Belarus"
"Korma","52.6333","29.3167","17","Belarus"
"Korma","51.7667","27.6156","12","Belarus"
"Khutor-Borok","53.6039","26.5697","34","Belarus"
"Vysokaye","52.3667","23.3667","4859","Belarus"
"Kanyushowshchyna","53.3539","25.9784","16","Belarus"
"Leskovichi","55.2493","29.6380","207","Belarus"
"Yazvin","52.6564","29.4494","18","Belarus"
"Pozharki","51.8553","30.2147","6","Belarus"
"Navasyolki","53.2701","25.9992","45","Belarus"
"Toshchitsa","53.3056","30.1316","95","Belarus"
"Shalypy","52.2228","29.3583","180","Belarus"
"Lenpol'ye","54.1900","31.1839","5","Belarus"
"Vetkhin'","52.1769","30.5089","175","Belarus"
"Novobelitsa","53.8450","29.8747","11","Belarus"
"Bakharevichi","53.6061","27.6133","49","Belarus"
"Staraya Boyarshchina","53.4689","30.1439","7","Belarus"
"Tarkany","52.3108","29.3972","95","Belarus"
"Makovichi","52.9797","28.6025","164","Belarus"
"Slonim","53.0833","25.3167","49830","Belarus"
"Iskan'","53.3183","30.4878","201","Belarus"
"Stankyevichy","53.2984","25.9784","42","Belarus"
"Usokhi","52.1300","31.6583","93","Belarus"
"Lyakhi","54.3719","27.4725","6","Belarus"
"Novoandreyevka","52.8181","28.5842","44","Belarus"
"Rekta","52.9667","29.9333","757","Belarus"
"Roh","52.2408","28.7153","285","Belarus"
"Manchitsy","51.9167","28.4631","156","Belarus"
"Stalitsa","55.4377","27.7903","237","Belarus"
"Brodok","52.2333","24.9333","37","Belarus"
"Khil'kovichi","53.9732","30.8196","34","Belarus"
"Balsuny","53.0456","31.2897","264","Belarus"
"Pervomaysk","52.0442","30.7861","68","Belarus"
"Dukhanovka","52.0964","30.3450","74","Belarus"
"Sukachi","52.2647","24.8733","72","Belarus"
"Shuty","51.5684","28.7102","15","Belarus"
"Novaya Sloboda","52.8400","30.3375","13","Belarus"
"Nadezhdino","52.9572","30.4508","58","Belarus"
"Pochtovaya Glinka","53.2861","30.9967","25","Belarus"
"Buda-Krasnovskaya","51.4842","29.3583","33","Belarus"
"Zavodnyy Ostrov","51.8383","28.8622","48","Belarus"
"Svistelki","54.4833","30.4667","166","Belarus"
"Tsishowka","53.8909","30.2513","1052","Belarus"
"Staraya Lutava","51.7333","30.5833","47","Belarus"
"Mishuty","54.5366","26.6321","20","Belarus"
"Navozy","52.8961","29.5283","22","Belarus"
"Rudnishche","51.6367","28.1339","72","Belarus"
"Kvachi","54.0029","25.6763","15","Belarus"
"Vishen'ka","52.9733","30.3019","74","Belarus"
"Panyshevshchina","54.1097","27.7231","33","Belarus"
"Chapayevo","52.7036","28.4819","24","Belarus"
"Latkoloniya","53.5924","30.4745","21","Belarus"
"Pasynki","53.3078","24.2944","18","Belarus"
"Novyye Konoplitsy","53.1825","29.9628","14","Belarus"
"Moshok","53.8488","30.8210","35","Belarus"
"Anosovichi","52.4047","28.5897","24","Belarus"
"Yanovka","53.1639","30.7108","42","Belarus"
"Druzhba","53.3204","30.4507","55","Belarus"
"Vasyuki","54.5131","26.2419","116","Belarus"
"Kiyevets","54.4964","29.3297","144","Belarus"
"Kasyanichy","54.5883","29.4517","171","Belarus"
"Lyuban'","52.9333","30.4833","58","Belarus"
"Kazansk","52.4028","29.3733","306","Belarus"
"Novoaleksandrovka","53.7861","31.1231","17","Belarus"
"Zaymishche","52.1500","31.3000","57","Belarus"
"Kazyaluzhzha","51.8983","29.8989","586","Belarus"
"Rekord","52.0775","30.6769","48","Belarus"
"Novaya Dubovaya","53.4569","23.7904","66","Belarus"
"Chernovshchina","51.9006","29.5708","61","Belarus"
"Sadok","54.1969","31.2011","3","Belarus"
"Novyye Dyatlovichi","52.1928","30.9106","176","Belarus"
"Azarki-Staryye","54.8361","26.9906","26","Belarus"
"Svyetlahorsk","52.6333","29.7333","64989","Belarus"
"Proletariy","53.3815","30.4415","19","Belarus"
"Baratino","53.3526","26.3538","18","Belarus"
"Kastrychnik","52.9189","28.9147","3","Belarus"
"Karlovka","51.4167","30.5167","140","Belarus"
"Kozentsy","54.0188","25.7148","30","Belarus"
"Mokryanskiye Khutora","53.5849","30.1882","26","Belarus"
"Vysokoye","52.9775","30.2689","461","Belarus"
"Slobozhanka","51.9147","29.7383","432","Belarus"
"Dzyahili","54.9242","27.0853","282","Belarus"
"Slavnya","53.3000","30.7833","158","Belarus"
"Zorka","52.9333","30.4847","77","Belarus"
"Sen'kovichi","54.0426","25.7514","7","Belarus"
"Porosl'","52.5750","30.4911","33","Belarus"
"Vidlin","53.8167","30.8457","9","Belarus"
"Bokhany","53.5468","26.8178","75","Belarus"
"Kosakovka","52.7111","29.9939","358","Belarus"
"Dvorishche","54.3831","29.3181","53","Belarus"
"Kustyn","52.2736","23.4933","181","Belarus"
"Voshchanki","53.2125","30.7758","164","Belarus"
"Malyy Gryazivets","53.6219","30.6840","2","Belarus"
"Staryya Khrakovichy","51.6636","30.4386","490","Belarus"
"Seryye","51.5167","28.7275","10","Belarus"
"Zlobovshchina","53.3039","24.1339","61","Belarus"
"Bervenovka","52.4719","30.4761","35","Belarus"
"Kawshy","53.2413","25.9239","7","Belarus"
"Poroyevka","53.6505","30.8856","10","Belarus"
"Kruki","52.8239","29.1261","74","Belarus"
"Ruden'ka","52.2411","29.4525","104","Belarus"
"Luki","52.3544","29.7519","410","Belarus"
"Luki","52.9633","29.9708","281","Belarus"
"Kozerogi","51.9653","30.7164","190","Belarus"
"Kononovshchina","51.9461","30.1961","176","Belarus"
"Varvarino","52.9692","30.4761","20","Belarus"
"Byalavichy","52.7134","25.1119","226","Belarus"
"Novyye Ogarevichi","52.7481","26.5397","98","Belarus"
"Yakimovskaya Sloboda","52.6222","29.8286","1057","Belarus"
"Nach","52.8428","26.6732","224","Belarus"
"Novaya Papina","52.1362","25.1136","136","Belarus"
"Krasnobel'","54.7181","30.5700","2","Belarus"
"Khomno","52.4358","24.3881","6","Belarus"
"Hintsavichy","53.0778","25.9044","130","Belarus"
"Peredel","52.8167","26.5167","33","Belarus"
"Stowbtsy","53.4833","26.7333","17420","Belarus"
"Malaya Kavalewshchyna","55.6462","27.8235","84","Belarus"
"Yazviny","52.1291","25.2487","34","Belarus"
"Smarhon'","54.4836","26.4000","36202","Belarus"
"Rozlevichi","52.8517","28.8025","32","Belarus"
"Rudnya","53.9224","29.8804","27","Belarus"
"Rudnya","53.0925","28.6708","22","Belarus"
"Rudnya","54.1925","31.3086","2","Belarus"
"Rudnya","54.2072","27.9150","37","Belarus"
"Denisy","53.8176","26.7113","95","Belarus"
"Malyye Belevichi","53.8356","29.8375","55","Belarus"
"Klin","54.2867","30.5633","24","Belarus"
"Zblyany","53.6114","25.2533","118","Belarus"
"Zabegi","54.8336","27.4728","51","Belarus"
"Sel'tsy","52.9894","28.6194","72","Belarus"
"Pozhikhar","52.4325","29.7703","31","Belarus"
"Korchemka","51.8817","30.5283","40","Belarus"
"Istopki","52.7506","29.0697","1","Belarus"
"Gritsevichi","53.0897","23.9931","96","Belarus"
"Lyady","52.6500","29.9500","95","Belarus"
"Kozyenki","52.0208","29.1881","3862","Belarus"
"Bol'shiye Korchitsy","52.1096","24.3777","408","Belarus"
"Bonda","54.7383","27.0017","12","Belarus"
"Savolyewka","53.5739","24.1328","230","Belarus"
"Kowchytsy Drugiya","52.8325","29.1897","248","Belarus"
"Dyatlik","51.4203","29.3800","12","Belarus"
"Zastsyenki","54.6798","30.9251","174","Belarus"
"Moshkovo","54.1406","30.9078","31","Belarus"
"Vyerkhnyaya Toshchytsa","53.2955","30.1979","81","Belarus"
"Akalova","54.4919","27.8550","101","Belarus"
"Rusinovka","53.8595","31.0343","8","Belarus"
"Aleksichi","51.9333","29.7000","93","Belarus"
"Dudichi","53.5853","27.6628","259","Belarus"
"Buda-Lyushawskaya","52.8475","30.4192","625","Belarus"
"Novoye Zaymishche","54.1081","30.6769","17","Belarus"
"Komotovo","53.5751","24.0362","46","Belarus"
"Fizinki","51.7733","29.4856","115","Belarus"
"Kamyanyets","52.4028","23.8083","8349","Belarus"
"Sidaravichy","53.0378","31.1508","340","Belarus"
"Lesnoye","52.1661","30.1500","17","Belarus"
"Zhelezinka","53.5167","30.8167","12","Belarus"
"Popovtsy","53.0533","29.7461","67","Belarus"
"Novyy Krivsk","53.0750","30.5197","237","Belarus"
"Skoki","52.1558","23.6375","945","Belarus"
"Uzgorsk","53.5833","30.9000","6","Belarus"
"Vyalikiya Lyepyasy","52.2500","24.3667","1613","Belarus"
"Yanawshchyna","54.5900","29.1389","118","Belarus"
"Mikalayewshchyna","53.4072","26.8372","652","Belarus"
"Lugomovichi","53.8950","25.9594","111","Belarus"
"Lisuny","54.4558","30.1358","499","Belarus"
"Rakutino","53.1208","30.3456","12","Belarus"
"Areshkavichy","53.3969","28.3681","166","Belarus"
"Makhnavichy","51.8831","28.7972","752","Belarus"
"Bashitsa","52.9744","30.5772","60","Belarus"
"Vilyakhovka","53.2596","30.2941","120","Belarus"
"Novyy Svet","53.4557","30.5432","77","Belarus"
"Mikhalevka","52.6736","30.8753","57","Belarus"
"Mikhalevka","53.0058","30.7300","59","Belarus"
"Yartsevka","54.1631","31.2453","16","Belarus"
"Mashuki","52.8862","26.5170","129","Belarus"
"Krasnovka","54.3000","29.3475","10","Belarus"
"Kamenpol'ye","55.6151","27.5407","140","Belarus"
"Kozly","51.5058","28.7092","51","Belarus"
"Kazimirovskaya Slobodka","52.9333","29.8000","69","Belarus"
"Novaya Yolcha","51.4833","30.5333","119","Belarus"
"Lyubany","53.6600","31.0933","75","Belarus"
"Skolodin","52.0317","28.5897","50","Belarus"
"Konstanpol'ye","54.5237","26.6441","7","Belarus"
"Kazatskiya Balsuny","52.9247","31.3497","272","Belarus"
"Malinovka","53.2039","30.4758","8","Belarus"
"Kristopovshchina","54.3728","28.8908","6","Belarus"
"Yachnoye","52.2467","29.1333","10","Belarus"
"Vawkavysk","53.1667","24.4667","42746","Belarus"
"Belyy Pereyezd","52.4500","28.3219","20","Belarus"
"Tulenka","53.5776","26.6813","91","Belarus"
"Plesy","52.4500","31.0650","46","Belarus"
"Novaya Lutava","51.7572","30.5650","20","Belarus"
"Vishar","52.1925","29.4419","10","Belarus"
"Kuty","54.4081","29.3142","16","Belarus"
"Velikiy Les","51.9025","30.1775","12","Belarus"
"Zherdz'","52.5564","29.6128","26","Belarus"
"Kopani","53.0847","26.0639","51","Belarus"
"Bresskiye","54.9267","26.7783","35","Belarus"
"Timokhovka","53.8601","30.9124","26","Belarus"
"Staraya Mysh","53.1961","25.8944","25","Belarus"
"Vydritsa","52.9750","30.5339","13","Belarus"
"Srednyaya Rudnya","52.1953","28.5558","160","Belarus"
"Ivanovichi","53.9219","30.7165","21","Belarus"
"Demidy","51.6000","28.8725","25","Belarus"
"Staraya Koshara","53.0753","29.8214","47","Belarus"
"Polovinnyy Log","53.9058","30.4056","311","Belarus"
"Bakhani","53.8719","29.6071","75","Belarus"
"Putchyna","53.7972","27.0258","43","Belarus"
"Dubrowna","54.5667","30.6833","6951","Belarus"
"Chabatovichy","52.5686","30.4517","383","Belarus"
"Taymanava","53.4006","30.2850","349","Belarus"
"Khatmil'ye","53.5440","30.3861","32","Belarus"
"Rabovichi","53.5500","30.9500","194","Belarus"
"Shapchitsy","53.2262","30.3560","494","Belarus"
"Strupino","53.5935","24.1264","12","Belarus"
"Bowki","53.5472","30.6515","25","Belarus"
"Vyazynka","54.0994","27.1919","341","Belarus"
"Sirotsina","55.3744","29.6244","269","Belarus"
"Stolin","51.8897","26.8507","13038","Belarus"
"Dostizheniye","52.8867","28.6772","75","Belarus"
"Khodasavichy","53.0211","30.1192","102","Belarus"
"Babrovichy","52.2917","29.3728","2338","Belarus"
"Zavrutki","54.9392","27.2869","56","Belarus"
"Fanipal'","53.7500","27.3333","17507","Belarus"
"Podluki","52.3692","29.7097","81","Belarus"
"Tolstyki","52.6000","30.0167","11","Belarus"
"Dednya","53.9227","31.1666","26","Belarus"
"Sychi","52.2156","23.4678","43","Belarus"
"Salotin","52.9500","29.6500","54","Belarus"
"Starosely","53.8148","31.0840","6","Belarus"
"Dakudava","53.8064","25.5100","283","Belarus"
"Budki","51.7219","29.2575","196","Belarus"
"Kardon","54.5175","26.7247","4","Belarus"
"Byaroza","52.5500","24.9667","28619","Belarus"
"Nemtsevo","55.7408","30.2411","14","Belarus"
"Podyavy","55.6649","27.3849","12","Belarus"
"Borki","52.4458","28.4956","62","Belarus"
"Borki","52.5992","30.9922","14","Belarus"
"Zamost'ye","52.4706","28.3417","8","Belarus"
"Chernyye Brody","52.8000","29.0500","21","Belarus"
"Zhyhalki","53.3344","26.7661","123","Belarus"
"Vereteya","54.7583","30.6306","7","Belarus"
"Slavinsk","52.1225","28.2500","53","Belarus"
"Kurgan","52.7256","29.8978","37","Belarus"
"Staraya Aleshnya","53.2242","30.6797","257","Belarus"
"Studenka","53.5849","30.0319","32","Belarus"
"Studenka","53.9572","29.8369","1","Belarus"
"Proskurni","52.8075","30.0850","567","Belarus"
"Khoroshki","53.9570","30.7485","93","Belarus"
"Kuz'kovichi","53.5537","30.4372","247","Belarus"
"Novyye Tereshkovichi","52.2283","30.9500","182","Belarus"
"Kublik","52.0560","25.1411","210","Belarus"
"Puts'ki","53.8438","31.0761","293","Belarus"
"Shaparnya","52.9033","30.2708","37","Belarus"
"Stupnichevo","52.4233","23.8239","27","Belarus"
"Koromka","52.8489","30.6692","96","Belarus"
"Dukhovlyany","53.3197","24.1756","62","Belarus"
"Aleksandrovo","53.6184","24.0099","53","Belarus"
"Krasnaya Sloboda","52.9742","29.8369","13","Belarus"
"Krychaw","53.7194","31.7139","24170","Belarus"
"Rebyatki","53.8232","31.2281","13","Belarus"
"Sugaki","51.4989","28.7511","48","Belarus"
"Krupki","54.3250","29.1361","8540","Belarus"
"Podlyadichi","51.8272","28.7508","36","Belarus"
"Malaya Lyudvinovka","52.5119","29.5194","71","Belarus"
"Malyavki","55.6382","27.4071","56","Belarus"
"Novaya Greblya","51.6833","30.3500","44","Belarus"
"Selyuki","53.5223","24.0733","15","Belarus"
"Shareyki","52.0008","29.4544","63","Belarus"
"Som","52.0136","28.6036","9","Belarus"
"Haybuty","53.3444","25.7732","19","Belarus"
"Vitlin","53.0039","29.7156","43","Belarus"
"Pil'shychy","53.7849","29.7545","69","Belarus"
"Nasilava","54.3094","26.7789","1279","Belarus"
"Prilepy","54.0717","27.8336","477","Belarus"
"Russkoye Selo","55.6846","27.5887","1","Belarus"
"Zhuravy","54.4617","29.3103","102","Belarus"
"Pyetrykaw","52.1333","28.5000","9986","Belarus"
"Vyaz'ma","53.3786","29.9207","113","Belarus"
"Pyaredzyelka","52.0439","30.7181","444","Belarus"
"Pirevichi","52.7167","29.9333","2","Belarus"
"Tristivka","53.3383","30.5035","12","Belarus"
"Puzhichi","53.5635","24.0638","8","Belarus"
"Sukhaya Dalina","53.4642","24.0167","80","Belarus"
"Riminka","53.7016","31.1033","31","Belarus"
"Vil'cha","52.9950","28.8553","47","Belarus"
"Kontakuzovka","52.3200","31.1236","79","Belarus"
"Novaya Mysh","53.1333","25.9000","1370","Belarus"
"Krasnogorka","53.2250","30.5253","29","Belarus"
"Myerviny","52.9453","26.7186","228","Belarus"
"Karolina","53.6557","26.7936","16","Belarus"
"Drachkovo","53.8649","30.7519","15","Belarus"
"Zauzhel'","52.1469","30.6414","38","Belarus"
"Turaw","52.0692","27.7361","2772","Belarus"
"Dubrova","51.7742","28.7556","366","Belarus"
"Dubrova","53.0472","30.2614","40","Belarus"
"Dubrova","52.4153","28.6756","35","Belarus"
"Strikili","54.2811","30.5936","9","Belarus"
"Sakalovichy","53.2554","25.9252","13","Belarus"
"Dzyatlava","53.4500","25.4000","8061","Belarus"
"Maloye Khonovo","53.7729","29.9952","28","Belarus"
"Bryli","53.9082","30.5621","353","Belarus"
"Rudnya Antonovskaya","52.1583","29.2544","242","Belarus"
"Nivnoye","52.5667","29.0208","20","Belarus"
"Malyye Litvinovichi","52.5125","29.2486","22","Belarus"
"Novy Dvor","53.8000","24.5500","794","Belarus"
"Ragozino","54.6528","30.5167","12","Belarus"
"Vyetka","52.5592","31.1808","8426","Belarus"
"Asarevichy","51.6167","30.5000","394","Belarus"
"Shat'ki","54.4142","29.2156","6","Belarus"
"Syalyavichy","53.2981","25.9444","10","Belarus"
"Novyya Halowchytsy","52.4822","28.6133","375","Belarus"
"Novyy Kuchin","53.6667","29.9815","41","Belarus"
"Chernyy Les","54.1917","27.8850","99","Belarus"
"Mikhaylovskoye","52.4733","29.0681","98","Belarus"
"Dubovy Loh","52.5256","31.3653","304","Belarus"
"Shatilovka","54.2850","30.6722","5","Belarus"
"Tury","52.0684","27.1685","975","Belarus"
"Turtsevichi","52.1833","29.2333","501","Belarus"
"Komanov","51.8833","30.3333","58","Belarus"
"Tramets","52.4792","29.0903","25","Belarus"
"Unoritsa","52.4619","30.3333","95","Belarus"
"Zagal'ye","51.9081","29.8075","43","Belarus"
"Malimony","52.8697","29.2836","19","Belarus"
"Zvenyatskoye","51.8311","30.1058","166","Belarus"
"Filatovka","52.4600","28.6611","10","Belarus"
"Budniki","53.9824","29.5030","5","Belarus"
"Litvinkovo","54.1261","27.7253","3","Belarus"
"Naliwki","52.9175","25.5528","218","Belarus"
"Navinki","53.2893","25.8813","5","Belarus"
"Yazvintsy","52.8925","29.1547","32","Belarus"
"Zhabchitsy","52.1303","25.9717","646","Belarus"
"Privol'ye","53.3833","30.8167","11","Belarus"
"Mar''ina Horka","53.5167","28.1417","20592","Belarus"
"Knyshi","53.0169","28.7911","10","Belarus"
"Poruchin","53.3643","26.0026","43","Belarus"
"Aranchytsy","52.4638","24.5385","803","Belarus"
"Bardily","53.9424","30.8546","38","Belarus"
"Zabolot'ye","53.9256","29.5398","46","Belarus"
"Dobrovol'shcha","52.8167","29.5500","102","Belarus"
"Pankratovka","54.2200","30.9506","69","Belarus"
"Horval'","52.5694","30.1911","161","Belarus"
"Shunyevichy","55.0958","27.7031","391","Belarus"
"Lisichnik","53.6543","30.6326","24","Belarus"
"Zaglinnoye","53.6178","31.0358","14","Belarus"
"Nyadashava","53.7658","30.4900","83","Belarus"
"Skoklevo","53.6596","30.9223","36","Belarus"
"Stalka","53.7414","30.7022","82","Belarus"
"Malyn","52.6967","28.8533","33","Belarus"
"Vazhhinty","53.1544","25.7591","3","Belarus"
"Zamen-Rin'ya","52.8000","29.6000","17","Belarus"
"Krasnawka","52.8722","29.3311","212","Belarus"
"Shugaley","51.8231","28.0572","3","Belarus"
"Skartyn'","52.9844","30.8156","20","Belarus"
"Bobrovichi","52.7300","28.6492","55","Belarus"
"Pogorki","53.3692","30.4641","4","Belarus"
"Andryukhi","54.3633","31.0586","8","Belarus"
"Budcha","52.7589","26.8433","767","Belarus"
"Ivanki","51.4333","30.4333","78","Belarus"
"Yanushevka","54.9767","27.1564","2","Belarus"
"Byalyayewka","52.9597","31.0142","404","Belarus"
"Chapyalinka","54.2647","30.8336","65","Belarus"
"Prityka","52.6533","29.3664","7","Belarus"
"Luskaly","52.4011","23.6361","17","Belarus"
"Vul'ka-Lawskaya","52.4056","26.0292","68","Belarus"
"Khimy","52.9347","30.3922","131","Belarus"
"Rakit'ye","53.5877","24.1279","37","Belarus"
"Hadylyova","53.6087","30.3673","960","Belarus"
"Moskali","52.4800","30.2017","14","Belarus"
"Kruhlaye","54.2479","29.7966","7530","Belarus"
"Studenets","53.2267","30.9169","17","Belarus"
"Andrushi","53.2839","24.3119","14","Belarus"
"Lyudgardovka","52.8667","29.6314","42","Belarus"
"Zub-Buda","52.7167","29.0667","7","Belarus"
"Ignato-Fabianovka","52.0217","29.4597","68","Belarus"
"Prudok","52.0139","29.5231","312","Belarus"
"Myslotino","52.9214","28.6253","100","Belarus"
"Peretok","52.4044","29.6000","77","Belarus"
"Zlomnoye","52.6781","30.0483","114","Belarus"
"Kudayevo","54.5622","30.5297","9","Belarus"
"Kulakovka","53.9689","29.4835","20","Belarus"
"Makov'ye","52.1569","31.2550","469","Belarus"
"Mahilyow","53.9089","30.3430","357100","Belarus"
"Zdudichi","52.7322","29.5803","222","Belarus"
"Dovzhani","54.7617","27.1103","65","Belarus"
"Losevka","53.3190","30.5182","20","Belarus"
"Korchevoye","51.9231","30.0536","116","Belarus"
"Khalamyerye","55.7451","29.7111","315","Belarus"
"Velikoye Pole","52.3861","28.7867","46","Belarus"
"Pryvalki","53.9458","23.9219","206","Belarus"
"Maslenka","54.3525","29.1100","102","Belarus"
"Lyasyets","52.4928","29.2936","348","Belarus"
"Khvatovka","54.0679","29.5597","4","Belarus"
"Vytreski","54.7497","27.2061","55","Belarus"
"Mashetskaya Sloboda","53.5702","30.7509","7","Belarus"
"Slobodka","52.8733","28.4811","17","Belarus"
"Yazhevichi","53.0669","26.5578","107","Belarus"
"Ekiman'","55.4847","28.7311","296","Belarus"
"Novaya Borshchovka","51.9833","30.5000","270","Belarus"
"Uza","52.6006","30.8178","1257","Belarus"
"Shalomeya","53.0397","30.6786","6","Belarus"
"Lisno","56.0273","28.4132","25","Belarus"
"Novaya Trasna","53.4621","30.4958","1","Belarus"
"Khomichi","52.3703","29.6369","305","Belarus"
"Khomichi","53.1389","29.9603","82","Belarus"
"Krasnaya","53.6306","25.2580","91","Belarus"
"Budovlya","53.5864","24.0765","39","Belarus"
"Vetochka","52.9533","30.2767","159","Belarus"
"Ratmirovichi","52.7731","28.9267","48","Belarus"
"Machulishche","52.7200","30.6542","32","Belarus"
"Smol'niki","52.3914","24.0406","10","Belarus"
"Neznan'ye","52.8928","28.9814","2","Belarus"
"Khvatynka","54.5242","29.4258","12","Belarus"
"Khlyaby","52.0436","26.3130","47","Belarus"
"Rakshyn","52.7011","29.5453","62","Belarus"
"Markowskaye","51.7269","28.2028","365","Belarus"
"Mikhaylovsk","53.8128","29.8089","24","Belarus"
"Dzyarzhynsk","51.5000","29.3500","89","Belarus"
"Akhremawtsy","55.5808","27.1078","1312","Belarus"
"Al'zhutki","54.7506","27.3533","25","Belarus"
"Vyalikaya Vosava","54.4622","28.7900","135","Belarus"
"Noviki","52.0175","29.3144","370","Belarus"
"Noviki","52.9000","29.9333","64","Belarus"
"Noviki","52.5167","29.0944","11","Belarus"
"Ivanishchevichi","52.6417","29.1561","1","Belarus"
"Sudibor","52.0481","28.2644","3","Belarus"
"Lukavtsy","53.0886","26.5972","136","Belarus"
"Rudnya-Viktorinskaya","52.7856","30.5706","39","Belarus"
"Kalyadzichy","53.2953","24.5236","110","Belarus"
"Spachynak","53.1199","25.8242","22","Belarus"
"Dzyemyakhi","52.3264","30.2086","291","Belarus"
"Halowchytsy","52.1500","24.8667","398","Belarus"
"Lyatsyahi","53.6083","30.9633","86","Belarus"
"Khomichki","52.0728","29.0475","272","Belarus"
"Prybudak","52.6208","30.0719","378","Belarus"
"Aktsyabrova","53.2667","30.7667","565","Belarus"
"Danilyevichy","51.7711","27.9833","137","Belarus"
"Valawskaya Rudnya","51.6833","28.8833","195","Belarus"
"Belyaki","51.6000","28.9119","93","Belarus"
"Dubovitsa","52.9939","30.7386","423","Belarus"
"Dubovitsa","52.6833","30.7500","43","Belarus"
"Vorotyn'-Kaplicheskiy","52.3297","29.0247","48","Belarus"
"Staryye Zavaleny","52.6719","28.8594","3","Belarus"
"Zen'chiki","53.2542","24.3973","6","Belarus"
"Derbichi","52.8914","30.6669","604","Belarus"
"Bystrik","53.7992","30.4956","51","Belarus"
"Mikhnichi","54.3767","26.3264","12","Belarus"
"Khatskovichi Pervyye","53.7454","30.6238","221","Belarus"
"Novaya Kamenka","52.7333","30.0500","7","Belarus"
"Khoronevo","53.6083","30.9061","27","Belarus"
"Komarishki","54.5100","26.7228","7","Belarus"
"Drozdy","52.0550","29.1833","393","Belarus"
"Sinichenka","54.4144","29.2422","15","Belarus"
"Syewruki","53.1309","25.8068","544","Belarus"
"Zavod","52.8000","30.2089","50","Belarus"
"Begeni","53.1819","24.2011","61","Belarus"
"Radutin","52.6833","30.0833","5","Belarus"
"Veragi","54.1750","27.7972","9","Belarus"
"Malyye Motykaly","52.1983","23.6064","69","Belarus"
"Krasnitsa","54.4483","26.6633","14","Belarus"
"Podvetka","52.5922","29.0369","7","Belarus"
"Rukhovichi","52.0832","24.4361","180","Belarus"
"Demenka","52.5167","28.7572","98","Belarus"
"Karmanovka","54.0692","29.5044","17","Belarus"
"Rogozna","51.8272","23.7894","226","Belarus"
"Kamyenka","53.1867","30.6722","158","Belarus"
"Vyets","53.2941","30.4071","164","Belarus"
"Rudnya-Bartolomeyevskaya","53.0497","31.1861","94","Belarus"
"Deniski","54.2647","27.4978","10","Belarus"
"Mikulichi","53.6278","27.0942","92","Belarus"
"Briksichi","53.3331","26.0033","59","Belarus"
"Zaton","52.7681","30.1086","116","Belarus"
"Petkuny","55.6527","27.3745","19","Belarus"
"Narowlya","51.8000","29.5000","8364","Belarus"
"Agolitskaya Rudnya","52.2131","28.4411","110","Belarus"
"Slinki","52.1728","28.6367","48","Belarus"
"Korzhevka","52.2114","28.5956","41","Belarus"
"Sitnyaki","52.3617","30.5800","52","Belarus"
"Starokrasnoye","52.3925","30.1456","177","Belarus"
"Pil'kovshchina","54.8103","27.1022","92","Belarus"
"Malashkovichi","53.1117","30.4392","150","Belarus"
"Dubovka","53.4478","30.2208","9","Belarus"
"Strakovichi","52.5667","29.6833","349","Belarus"
"Prokisel'","52.1236","30.5639","462","Belarus"
"Vol'na","53.2947","26.2397","678","Belarus"
"Volokhovshchina","51.7389","30.2722","32","Belarus"
"Rezki","53.5744","29.9535","15","Belarus"
"Al'binki","53.1283","25.7409","17","Belarus"
"Yushki","52.2272","29.3808","307","Belarus"
"Sedich","53.5701","30.2598","177","Belarus"
"Troytsa","54.2770","30.1068","111","Belarus"
"Dubrawka","52.1756","31.5503","223","Belarus"
"Staroye Selo","52.9633","28.8936","173","Belarus"
"Staroye Selo","53.3405","30.4555","14","Belarus"
"Zaazyornaya","51.6773","23.9192","156","Belarus"
"Podzamsha","52.8828","28.6928","75","Belarus"
"Kazlovichy","52.3817","29.3478","470","Belarus"
"Dubrovnoye","51.8000","30.1167","29","Belarus"
"Chyrvonabyarezhzha","51.8761","28.4369","397","Belarus"
"Koniki","54.7075","27.1889","30","Belarus"
"Dashki","54.2461","27.4753","9","Belarus"
"Kabanovka","52.6333","29.8333","342","Belarus"
"Kabanovka","52.9500","29.9333","175","Belarus"
"Koski","53.6675","27.2440","20","Belarus"
"Dabrahoshcha","52.7000","29.8667","543","Belarus"
"Aleksandrovka","51.8556","28.9486","88","Belarus"
"Aleksandrovka","52.4833","30.7444","11","Belarus"
"Aleksandrovka","51.4153","30.5239","14","Belarus"
"Prokhody","52.5036","28.6294","85","Belarus"
"Smagorin","52.1658","30.3444","189","Belarus"
"Rabkovichi","53.3088","26.2559","63","Belarus"
"Kutovets","54.4247","29.3344","1","Belarus"
"Drazhnya","52.8864","29.4886","13","Belarus"
"Malyya Anikavichy","54.2692","30.5944","159","Belarus"
"Sapyezhinka","53.5430","30.2394","197","Belarus"
"Alyaksyeyewka","51.7443","30.4350","256","Belarus"
"Palyanichytsy","53.2167","25.9833","180","Belarus"
"Syakyerychy","52.4631","28.9228","219","Belarus"
"Sychkava","53.2000","29.1000","341","Belarus"
"Vostochnaya","53.6065","30.1031","202","Belarus"
"Nestanovichi","52.5333","29.0833","52","Belarus"
"Klichaw","53.4828","29.3411","7308","Belarus"
"Korotkiye","53.5147","29.8747","12","Belarus"
"Kuntsy","53.9960","29.4925","39","Belarus"
"Byarozawka","53.7167","25.5000","10081","Belarus"
"Derbin","52.5333","29.1569","332","Belarus"
"Lozki","52.5500","30.6078","30","Belarus"
"Nyavyeravichy","53.2567","24.5506","81","Belarus"
"Borovishche","52.9736","28.5072","5","Belarus"
"Syamyonawka","52.1314","30.3936","134","Belarus"
"Druzhnaya","54.4614","31.2111","4","Belarus"
"Votnya","53.3056","30.3562","37","Belarus"
"Polna","53.6594","30.3698","78","Belarus"
"Byalynichy","53.9956","29.7096","9913","Belarus"
"Krasnoberezhskaya Slobodka","52.9444","29.7983","19","Belarus"
"Vysokaya","53.0481","30.8553","347","Belarus"
"Zubovka","53.9974","31.1557","3","Belarus"
"Padlyasyeyki","53.1778","26.2542","379","Belarus"
"Zublishche","52.4264","28.8947","63","Belarus"
"Kutnya","53.7039","30.6310","98","Belarus"
"Kazimirovka","51.9986","28.8686","1","Belarus"
"Kazimirovka","51.4922","28.7517","23","Belarus"
"Tel'man","51.8117","30.2861","177","Belarus"
"Tumarovka","52.8503","29.2689","53","Belarus"
"Mulishche","54.1319","28.8611","10","Belarus"
"Navilawka","52.8297","31.1114","22","Belarus"
"Bronnitsa","52.8256","30.5411","204","Belarus"
"Pren'ki","52.0908","29.1797","125","Belarus"
"Khusnoye","52.2175","28.8269","118","Belarus"
"Turbinka","52.0053","28.7500","10","Belarus"
"Petukhovka","53.7064","30.9735","62","Belarus"
"Nezhkovka","53.8390","31.2768","23","Belarus"
"Droboty","52.2381","25.3250","103","Belarus"
"Karpovtsy","53.2833","24.4656","45","Belarus"
"Usushak","53.6640","30.7752","62","Belarus"
"Kovali","55.1236","27.8319","40","Belarus"
"Burnevo","53.3283","24.1475","23","Belarus"
"Smol'noye","53.0967","29.7722","20","Belarus"
"Istopki","53.3196","30.2493","8","Belarus"
"Khobnaye","52.0828","29.7503","372","Belarus"
"Glednevichi","53.3923","24.3814","49","Belarus"
"Radionovka","54.3864","30.8039","40","Belarus"
"Buda-Kashalyova","52.7167","30.5667","8850","Belarus"
"Mahilyany","53.0956","25.8964","46","Belarus"
"Batury","54.4530","29.0079","4","Belarus"
"Kalyuga","52.9894","28.6497","43","Belarus"
"Blazhki","54.3597","31.1111","6","Belarus"
"Strukachow","53.0281","30.7164","337","Belarus"
"Rusakovichi","53.3958","26.8556","8","Belarus"
"Borki","52.7346","26.3430","237","Belarus"
"Shkava","52.7000","29.0000","369","Belarus"
"Teolin","54.6097","30.6732","22","Belarus"
"Krasnyy Most","52.2478","30.5153","112","Belarus"
"Lipsk","52.5497","26.6958","244","Belarus"
"Yermolichi","54.4200","27.1697","73","Belarus"
"Letovishche","52.0517","28.6661","20","Belarus"
"Hdzyen'","51.3314","30.4389","165","Belarus"
"Losk","54.2167","26.4333","192","Belarus"
"Dushkawtsy","53.3618","25.9438","5","Belarus"
"Karytnitsa","53.9180","29.4095","82","Belarus"
"Peskopol'ye","52.4350","30.3900","20","Belarus"
"Bibiki","51.9650","29.3178","211","Belarus"
"Stytychava","52.0639","26.1318","655","Belarus"
"Brody","52.7064","30.6767","85","Belarus"
"Brody","52.4139","28.8772","32","Belarus"
"Skitok","52.2833","30.9078","67","Belarus"
"Prudiny","54.4272","29.3153","26","Belarus"
"Mikhyedavichy","52.3328","28.3894","558","Belarus"
"Velikiy Les","53.3066","30.1686","7","Belarus"
"Starynki","53.7345","26.9951","163","Belarus"
"Rudnya-Lozovskaya","52.9053","30.6453","58","Belarus"
"Litva","54.2184","26.6512","277","Belarus"
"Litva","53.7167","26.6667","198","Belarus"
"Sukharevichi-Malyye","52.2450","23.6417","11","Belarus"
"Kamenka","53.0131","30.4225","13","Belarus"
"Byval'ki","51.8486","30.6403","802","Belarus"
"Tserkov'ye","52.9500","30.5500","434","Belarus"
"Volochek","54.9081","26.8869","21","Belarus"
"Volkoshanka","52.0744","30.5058","6","Belarus"
"Dzyamyanki","52.5386","31.4778","38","Belarus"
"Verbovka","53.9272","31.1276","2","Belarus"
"Dimamerki","51.8489","30.4778","226","Belarus"
"Varanino","53.5261","30.3506","540","Belarus"
"Malyya Zvody","52.3156","23.4622","399","Belarus"
"Staraya Bukhalovka","52.2727","30.9449","11","Belarus"
"Pripernoye","55.0820","27.6606","203","Belarus"
"Krasnopol'ye","53.9349","30.3736","52","Belarus"
"Krasnopol'ye","53.6673","29.9407","7","Belarus"
"Prosvet","52.5303","29.5147","125","Belarus"
"Pruzhany","52.5567","24.4644","19032","Belarus"
"Vetel'skaya","52.2047","29.0189","58","Belarus"
"Baklai","54.8603","26.9617","49","Belarus"
"Litvichi","54.5994","27.8858","35","Belarus"
"Guta","53.2661","30.4678","64","Belarus"
"Zastenok-Dubrova","52.9619","28.5772","1","Belarus"
"Mislyuki","53.2969","24.2442","12","Belarus"
"Bol'shiye Bordinichi","53.8596","30.9700","37","Belarus"
"Sosenka","53.6368","26.8959","9","Belarus"
"Sharnevo","54.4778","29.3025","6","Belarus"
"Chepleyevka","54.1617","31.3150","15","Belarus"
"Kutniki","53.2478","24.5561","88","Belarus"
"Kapyl'","53.1500","27.0917","10367","Belarus"
"Cherykaw","53.5667","31.3667","7910","Belarus"
"Snytki","53.9035","29.7852","5","Belarus"
"Byazuyevichy","53.3519","30.9033","58","Belarus"
"Slutsk","53.0167","27.5500","61396","Belarus"
"Goshcha","52.4293","25.6692","33","Belarus"
"Zalipye","52.4544","30.8453","509","Belarus"
"Syanno","54.8000","29.7000","7370","Belarus"
"Anibalivo","54.5939","30.4781","22","Belarus"
"Andreyewshchyna","54.5672","30.4522","1091","Belarus"
"Shutnoye","52.7494","30.4394","23","Belarus"
"Selyanskaya Klevka","53.9666","29.4318","30","Belarus"
"Shchittsy","51.8708","30.6997","28","Belarus"
"Dubno","53.3500","31.0333","21","Belarus"
"Kolbovka","52.7781","31.4644","181","Belarus"
"Askryshino","54.2636","27.5225","19","Belarus"
"Bartniki","53.3049","26.1635","107","Belarus"
"Krotki","53.8985","31.2258","12","Belarus"
"Zhuki","51.7333","28.9667","94","Belarus"
"Terebeyevka","52.1042","30.5847","92","Belarus"
"Vilyeyka","54.4833","26.9167","27167","Belarus"
"Kalinovaya","54.0206","30.3725","196","Belarus"
"Kuchin","53.1889","30.6833","322","Belarus"
"Mastaviki","54.8119","27.2442","7","Belarus"
"Yanuki","54.9667","27.3833","4","Belarus"
"Ivol'sk","52.5458","30.5353","486","Belarus"
"Boyarnovichi","54.7706","26.6294","14","Belarus"
"Sitnya","52.1011","29.2911","59","Belarus"
"Navinki","52.2906","29.7681","568","Belarus"
"Lipinichy","52.8189","30.5472","179","Belarus"
"Korsun'","52.1766","24.8956","264","Belarus"
"Chamyary","53.0951","25.2554","405","Belarus"
"Zadveya","53.3086","26.2757","141","Belarus"
"Zacherev'ye","55.6278","27.3605","30","Belarus"
"Kryshichi","52.0125","29.5544","52","Belarus"
"Tvarichevka","51.9758","29.2342","303","Belarus"
"Khmel'noye","52.8147","30.3764","19","Belarus"
"Laktyshy","52.8292","26.7167","414","Belarus"
"Stasevka","52.4558","30.2719","137","Belarus"
"Matalyga","54.1058","28.9222","13","Belarus"
"Dvor Savichi","51.6311","30.3275","74","Belarus"
"Rudnya-Marymonava","52.1625","30.7167","803","Belarus"
"Mazki","53.5559","30.0910","16","Belarus"
"Labkovichy","53.8333","31.7500","619","Belarus"
"Malyye Zhaberichi","54.3708","28.9353","77","Belarus"
"Zhelvinets","52.9894","28.7675","32","Belarus"
"Vosava","54.7233","27.1989","299","Belarus"
"Byelalyessye","53.2000","25.8500","115","Belarus"
"Vasil'kovo","52.4000","30.0000","185","Belarus"
"Sotnichi","52.2333","28.4500","68","Belarus"
"Mamai","55.1903","27.7481","150","Belarus"
"Chizhovka","52.3785","30.6217","67","Belarus"
"Syerabranka","53.1144","30.3769","571","Belarus"
"Lyubki","54.6611","26.7689","55","Belarus"
"Pukhnova","53.9297","31.1999","23","Belarus"
"Khatava","53.7604","26.6624","211","Belarus"
"Marusen'ka","52.9597","29.8061","50","Belarus"
"Bushevka","52.6767","30.6183","140","Belarus"
"Dobrush","52.4167","31.3167","18311","Belarus"
"Palinovka","52.4272","23.7350","52","Belarus"
"Petrashevtsy","53.3400","24.1750","68","Belarus"
"Radusha","52.9333","29.7000","806","Belarus"
"Kul'tura","53.5803","27.6700","20","Belarus"
"Kotlovitsa","51.8000","30.3667","105","Belarus"
"Bozhino","53.7239","28.9494","55","Belarus"
"Romanyatskaya Guta","53.4039","30.1047","7","Belarus"
"Perenosy","51.7194","30.4014","87","Belarus"
"Suknevichi","54.4456","26.4503","120","Belarus"
"Kuraki","52.9000","30.8333","19","Belarus"
"Kurovoye","51.9558","29.8956","66","Belarus"
"Antushi","53.0044","29.7983","39","Belarus"
"Shayki","52.8882","26.5703","18","Belarus"
"Tushkovo","54.2431","30.9808","93","Belarus"
"Novyye Zavaleny","52.6833","28.8567","10","Belarus"
"Plaskinya","53.0806","29.7333","30","Belarus"
"Bushatin","52.1056","30.6172","32","Belarus"
"Viktolino","54.4394","29.2153","2","Belarus"
"Dubnyaki","52.8208","26.4767","2","Belarus"
"Staryye Golovchitsy","52.4744","28.5808","105","Belarus"
"Bobovka","52.9028","30.2122","929","Belarus"
"Es'mony","54.0185","29.5508","230","Belarus"
"Dolgopol'ye","53.3514","24.3064","75","Belarus"
"Takaryshki","54.0333","26.0500","154","Belarus"
"Lipka","53.1125","26.6008","8","Belarus"
"Krasnopol'tsy","54.3219","30.3803","15","Belarus"
"Malaya Plotnitsa","52.4667","26.4083","230","Belarus"
"Koshchichi","52.3286","29.2822","352","Belarus"
"Pervaya Slobodka","52.2981","28.8236","256","Belarus"
"Sanyuki","51.8464","29.2500","160","Belarus"
"Tsyaplivady","53.1509","25.8109","9","Belarus"
"Mikhnovka","51.8833","30.2833","37","Belarus"
"Mazyr","52.0500","29.2333","105439","Belarus"
"Peretoki","53.4669","26.6522","288","Belarus"
"Podozbin","52.2806","28.4031","2","Belarus"
"Kholoch'ye","52.7750","30.7542","14","Belarus"
"Vyalikiya Knyazikowtsy","53.9636","25.5625","268","Belarus"
"Khomenki","51.5042","29.3639","27","Belarus"
"Knyazhinka","53.0272","30.3378","44","Belarus"
"Azyershchyna","52.4003","30.3375","4707","Belarus"
"Ivankovshchina","51.9147","29.0261","128","Belarus"
"Aleksandrov","52.7950","29.8889","20","Belarus"
"Tatarya","52.2596","24.9473","82","Belarus"
"Visha","52.5658","29.3161","71","Belarus"
"Visha","52.4125","29.1486","31","Belarus"
"Shkuraty","51.8333","30.2667","200","Belarus"
"Ryabinovaya Slobodka","53.9104","31.0416","3","Belarus"
"Novyye Katsury","52.1956","28.9811","85","Belarus"
"Babirova","53.0367","28.5592","314","Belarus"
"Palykavichy Pyershyya","53.9728","30.3333","148","Belarus"
"Malyya Lyeznyavichy","53.5727","25.7609","35","Belarus"
"Red'ka","52.0628","29.1278","12","Belarus"
"Kazaki","54.7962","30.2780","14","Belarus"
"Bubnovka","52.5620","28.7411","17","Belarus"
"Klyasov","52.3561","28.4761","24","Belarus"
"Styag","52.7150","28.5283","82","Belarus"
"Tishkovka","52.2500","30.1469","205","Belarus"
"Yatra","53.4222","25.7958","193","Belarus"
"Panyshi","54.2989","27.4539","16","Belarus"
"Smolyarnya","53.7542","29.8897","5","Belarus"
"Sokarava","55.1062","29.1133","279","Belarus"
"Roman-Bina","53.6784","30.8893","48","Belarus"
"Uluki","53.5833","30.9333","46","Belarus"
"Lelikovo","51.9167","24.6000","662","Belarus"
"Vitsyebsk","55.1833","30.1667","364800","Belarus"
"Vyalikiya Awtsyuki","52.0728","29.5494","611","Belarus"
"Ivan'kov","51.9497","30.4772","45","Belarus"
"Zdzitava","52.4167","25.2500","880","Belarus"
"Navapolatsk","55.5333","28.6667","98122","Belarus"
"Rudnya Bronskaya","53.1111","29.9111","3","Belarus"
"Zabavy","53.8966","29.6188","28","Belarus"
"Staraya Buda","52.6144","30.4319","488","Belarus"
"Denisovichi","52.3892","29.5089","53","Belarus"
"Rudnya-Zhigal'skaya","52.1875","30.6647","18","Belarus"
"Selyakhi","51.5972","23.5933","74","Belarus"
"Repin","52.5833","28.5667","66","Belarus"
"Fastavichy","52.5111","28.4842","174","Belarus"
"Panki","52.7238","25.3775","227","Belarus"
"Ramanavichy","52.4269","31.1233","1510","Belarus"
"Salihorsk","52.7842","27.5425","100824","Belarus"
"Syrskaya Buda","53.1378","30.7247","45","Belarus"
"Ventsevichi","54.8914","26.4978","43","Belarus"
"Orle","52.2413","23.3049","16","Belarus"
"Biskupka","53.9364","29.3885","17","Belarus"
"Matrunki","51.9900","29.2272","79","Belarus"
"Frunze","53.6611","29.9662","8","Belarus"
"Stai","54.3947","29.2353","3","Belarus"
"Kolochin","52.1889","30.6000","58","Belarus"
"Novaya Buda","52.3964","30.7911","314","Belarus"
"Yalovaya","52.5500","26.3667","28","Belarus"
"Churilovo","54.2128","31.2411","3","Belarus"
"Pesochnya","54.1911","31.2697","183","Belarus"
"Krasnitsa Pervaya","53.5868","30.5414","93","Belarus"
"Malyye Besyady","54.2347","27.4886","12","Belarus"
"Tsyerukha","52.2006","31.0056","783","Belarus"
"Sloboda-Lyushevskaya","52.8342","30.3686","30","Belarus"
"Zagorenka","53.7543","30.9680","34","Belarus"
"Zabrod'ye","52.3575","28.5117","94","Belarus"
"Duyanovka","52.2833","31.1667","533","Belarus"
"Tikhinichi","52.6167","30.7667","82","Belarus"
"Sudniki","53.3350","26.8033","24","Belarus"
"Zayel'nya","52.9707","26.6586","183","Belarus"
"Potashnya","51.8967","29.8072","88","Belarus"
"Velin","52.2000","30.5667","127","Belarus"
"Shapyalyevichy","54.1297","29.5600","360","Belarus"
"Zelenyy Prudok","53.7740","31.0892","1","Belarus"
"Slabada","52.0444","28.9903","843","Belarus"
"Slabada","51.8728","27.9453","77","Belarus"
"Staryye Voykovichi","53.2524","26.0987","8","Belarus"
"Novaya Korma","52.7467","29.9217","80","Belarus"
"Kirkory","53.9983","30.7690","28","Belarus"
"Poddobryanka","52.0833","31.1833","70","Belarus"
"Novaya Dubrova","52.6833","28.8833","200","Belarus"
"Klimavichy","53.6167","31.9500","15408","Belarus"
"Vyerkhnyaya Alba","52.6461","30.2019","442","Belarus"
"Nivniki","55.6484","27.3581","36","Belarus"
"Yachonka","53.5617","26.7436","325","Belarus"
"Borovka","53.7284","30.3468","197","Belarus"
"Zyalyony Bor","52.6497","25.2500","864","Belarus"
"Bubny","54.7500","27.5700","272","Belarus"
"Mstsislaw","54.0196","31.7247","10201","Belarus"
"Kamenitsa-Zhirovetskaya","52.0586","23.8139","310","Belarus"
"Pogontsy","52.7053","29.4872","50","Belarus"
"Valyntsy","53.1972","30.9867","198","Belarus"
"Kamen'","52.0050","28.6975","11","Belarus"
"Zazyerye","53.3894","25.8992","28","Belarus"
"Orsha","54.5092","30.4258","106505","Belarus"
"Khoyniki","51.9000","29.9667","13439","Belarus"
"Shatuny","51.5539","28.7833","4","Belarus"
"Kholodniki","52.3664","29.4572","336","Belarus"
"Moiseyevichi","52.0878","28.4725","115","Belarus"
"Kosarichi","52.7514","28.7664","53","Belarus"
"Sekerka","53.9484","29.5580","31","Belarus"
"Zagotets","54.4981","28.6756","4","Belarus"
"Novaya Zhizhma","53.9777","25.5340","63","Belarus"
"Haradzishcha","54.9777","27.3773","208","Belarus"
"Dunay","52.3333","30.5497","66","Belarus"
"Ustannoye","53.6167","30.8833","23","Belarus"
"Prilavy","52.9161","28.8894","7","Belarus"
"Mirnaya","52.9056","30.4711","25","Belarus"
"Zaslawye","54.0000","27.2833","17701","Belarus"
"Hardzyeychyki","53.1151","25.7407","13","Belarus"
"Belevo","53.4486","23.9447","9","Belarus"
"Zimnitsa","53.8125","30.4489","85","Belarus"
"Yevseyevichi","53.0853","28.6797","74","Belarus"
"Pratasy","52.7833","29.0833","237","Belarus"
"Rekta-Mikhaylovka","53.3000","30.7667","17","Belarus"
"Sasnovaya","53.0937","25.7489","72","Belarus"
"Shelomy","53.4344","30.9036","107","Belarus"
"Lazarevka","54.6617","31.1744","133","Belarus"
"Derbinki","51.8694","28.7819","85","Belarus"
"Chernyavtsy","53.9304","30.9574","17","Belarus"
"Latanovka","53.6742","30.6018","1","Belarus"
"Meshtuny","53.3083","24.1294","57","Belarus"
"Posemkovichi","54.6233","29.0736","12","Belarus"
"Pileshchino","53.9569","30.9193","100","Belarus"
"Vyalikiya Syalyutsichy","52.3139","28.2192","234","Belarus"
"Dobrich","53.0628","30.8528","24","Belarus"
"Rebusa","52.3336","30.3064","256","Belarus"
"Pridantsy","53.9194","30.7979","40","Belarus"
"Dneprovets","52.3346","30.4027","107","Belarus"
"Kryshilovichi","52.8767","26.5914","35","Belarus"
"Iwye","53.9307","25.7703","7329","Belarus"
"Bereznyaki","52.3928","29.1361","188","Belarus"
"Bereznyaki","52.1875","28.3833","5","Belarus"
"Sininshchina","53.7900","30.0342","7","Belarus"
"Zaborye","54.5406","29.3125","3","Belarus"
"Yudichi","53.1517","30.3986","163","Belarus"
"Al'shanka","52.3056","25.8778","145","Belarus"
"Khvorostyany","53.6333","30.8667","159","Belarus"
"Kramyanyets","54.3622","27.5022","175","Belarus"
"Korsun'","53.1992","30.9586","10","Belarus"
"Berestovichany","53.1836","24.0658","55","Belarus"
"Dzyarzhynsk","53.6833","27.1333","29739","Belarus"
"Bratskaya","51.4500","29.4594","35","Belarus"
"Buda","54.1758","31.3128","66","Belarus"
"Baryshevka","53.8761","31.0846","204","Belarus"
"Novaya Niva","53.7686","29.9364","11","Belarus"
"Kavyerdzyaki","52.1772","23.6692","1273","Belarus"
"Brusovo","52.9131","29.4444","11","Belarus"
"Syelyetsk","53.2667","27.8833","285","Belarus"
"Kovali","51.5514","28.7914","66","Belarus"
"Nizhniy Mlynok","51.8875","29.4567","13","Belarus"
"Vishen'ka","53.2700","30.1704","27","Belarus"
"Hudahay","54.5514","25.9028","43","Belarus"
"Zelenyye Luki","52.5297","30.8583","36","Belarus"
"Kazimirovo","52.9000","29.8333","103","Belarus"
"Kazimirovo","53.2694","30.9692","15","Belarus"
"Tesnovoye","53.2197","30.0189","116","Belarus"
"Zadub'ye","52.5289","26.4522","386","Belarus"
"Plavy","53.5571","24.1029","64","Belarus"
"Hawya","53.9793","25.6527","86","Belarus"
"Triles","53.6200","26.7606","24","Belarus"
"Sytin","52.8667","29.5811","12","Belarus"
"Verkhniy Mlynok","51.8825","29.4233","7","Belarus"
"Korkat'","53.7822","29.8778","32","Belarus"
"Yurki","52.5000","29.1667","6","Belarus"
"Savichi","51.6167","30.3167","86","Belarus"
"Solonskaya Korma","52.8600","29.9517","6","Belarus"
"Nikonovichi","53.4483","30.4340","365","Belarus"
"Svislach","53.0333","24.1000","6323","Belarus"
"Kardan","54.1230","29.7634","9","Belarus"
"Mikhalyowka","52.0103","30.5894","78","Belarus"
"Dunayok","53.4325","29.9731","343","Belarus"
"Adasi","52.1881","28.6167","37","Belarus"
"Belinka","54.0407","29.6227","7","Belarus"
"Turishchevichi","52.9900","30.9133","29","Belarus"
"Staryy Barsuk","52.1317","30.2631","72","Belarus"
"Shubichi","52.5469","24.3808","89","Belarus"
"Halowki","52.2333","29.9708","478","Belarus"
"Tursk","53.0350","30.2172","302","Belarus"
"Vorontsy","54.9169","26.7400","97","Belarus"
"Kozlevshchina","54.3006","27.4806","29","Belarus"
"Lanenka","54.4347","30.7581","45","Belarus"
"Yanushevo","54.7756","27.2100","50","Belarus"
"Kuz'my","53.9972","25.5250","8","Belarus"
"Smetanka","54.3847","30.3922","41","Belarus"
"Staraya Iolcha","51.5000","30.5333","185","Belarus"
"Shiyalovka","54.3256","28.9247","9","Belarus"
"Leninets","51.7333","30.5000","29","Belarus"
"Rudka","52.2647","25.8725","75","Belarus"
"Isakovichi","52.1047","30.6889","86","Belarus"
"Shikhov","52.6953","30.1711","291","Belarus"
"Bronnaye","52.3158","30.4794","1148","Belarus"
"Tsyemravichy","53.8987","30.8690","66","Belarus"
"Haradnaya","51.8699","26.4998","1587","Belarus"
"Navahrudak","53.5833","25.8167","28199","Belarus"
"Rozhki","54.9681","26.9469","15","Belarus"
"Muraveynitsa","52.1969","29.3308","112","Belarus"
"Levady","52.5967","30.4286","27","Belarus"
"Borodki","53.9480","31.0474","7","Belarus"
"Pribuzh'ye Staroye","54.0917","31.0433","162","Belarus"
"Vyerkhnyadzvinsk","55.7667","27.9333","6956","Belarus"
"Samulki","53.8263","30.7659","83","Belarus"
"Budka","52.2562","30.1951","266","Belarus"
"Kadzina","53.8909","30.6136","20","Belarus"
"Kosava","52.7580","25.1529","1919","Belarus"
"Dubrovino","53.2283","30.8072","73","Belarus"
"Sukhovichi","52.2456","29.2467","102","Belarus"
"Al'khowka","54.8069","26.2325","1160","Belarus"
"Zagal'skaya Sloboda","51.9211","29.7897","9","Belarus"
"Kisyali","53.3294","25.9789","97","Belarus"
"Vishchin","53.1375","30.2736","78","Belarus"
"Mikhalevka","53.3284","30.2372","7","Belarus"
"Khimnitsa","53.7614","29.8600","17","Belarus"
"Molchany","52.2814","30.2622","83","Belarus"
"Krasnaya Dubrova","52.2754","30.0855","321","Belarus"
"Sinyuga","53.7200","29.8411","19","Belarus"
"Mordasy","54.3208","27.4339","15","Belarus"
"Novaya Boyarshchina Pervaya","53.4369","30.1222","6","Belarus"
"Vyertniki","53.8203","27.1069","67","Belarus"
"Kommuna","54.2525","27.6194","14","Belarus"
"Vylazy","52.2019","26.3742","54","Belarus"
"Kirawsk","53.2686","29.4736","8178","Belarus"
"Strel'sk","51.9625","29.4033","45","Belarus"
"Plisa","55.2214","27.9536","473","Belarus"
"Skribovo","53.2531","24.3881","49","Belarus"
"Pustaya Gryada","51.9881","30.6322","36","Belarus"
"Falevichi","53.1983","29.8578","55","Belarus"
"Staraya Klevka","53.9935","29.4373","30","Belarus"
"Kuplya","54.5219","26.6318","5","Belarus"
"Kletnoye","53.4850","30.1000","16","Belarus"
"Knyshevichy","52.7669","29.2989","109","Belarus"
"Bolbecheno","54.2242","30.9233","60","Belarus"
"Kharoshawka","52.3483","31.6006","178","Belarus"
"Krapachy","53.2859","25.9564","16","Belarus"
"Molot","52.1894","28.1656","16","Belarus"
"Staryye Katsury","52.1667","28.9681","41","Belarus"
"Skarina","52.9333","29.4833","14","Belarus"
"Kabyolki","51.7439","23.6306","214","Belarus"
"Bakuny","51.8081","30.1790","116","Belarus"
"Kupyatichi","52.1747","26.1986","906","Belarus"
"Smolyanka","52.1978","29.4211","64","Belarus"
"Malaya Zhernovka","53.4357","23.8373","16","Belarus"
"Vil'chytsy","53.7830","30.3425","394","Belarus"
"Asavyets","52.0494","28.6936","610","Belarus"
"Lyshchitsy","52.2606","23.5322","98","Belarus"
"Sel'tsy","52.3136","29.3286","50","Belarus"
"Turovichi","52.2681","29.2856","121","Belarus"
"Zakrupets","53.5933","31.0117","2","Belarus"
"Rogi","52.5442","30.7875","451","Belarus"
"Svedskoye","52.5458","30.0206","262","Belarus"
"Novovasil'yevsk","53.7727","30.7212","7","Belarus"
"Krivichi","53.6653","25.2761","10","Belarus"
"Krupeyki","51.9150","30.7269","583","Belarus"
"Tabala","53.6722","25.2375","185","Belarus"
"Pyrtsy","53.8960","31.0782","2","Belarus"
"Vyazovitsa","52.3467","29.5850","177","Belarus"
"Vas'kovichi","53.9047","30.7594","141","Belarus"
"Nagornyye","52.0108","29.3250","443","Belarus"
"Brest","52.0847","23.6569","340318","Belarus"
"Katvino","53.8528","29.8461","14","Belarus"
"Bahushy","53.3016","25.9444","37","Belarus"
"Zhabin","53.0308","30.8103","4","Belarus"
"Mekhovshchina","52.5369","29.3817","18","Belarus"
"Prochemyshlya","51.7644","28.7333","80","Belarus"
"Mikhnavichy","52.1611","29.0292","373","Belarus"
"Studenets","54.2075","31.1933","31","Belarus"
"Kishchyna Slabada","54.3886","28.4669","475","Belarus"
"Krushniki","51.9883","28.7083","117","Belarus"
"Rudnya-Buritskaya","52.0453","30.3525","178","Belarus"
"Silino Pole","53.4833","31.0667","5","Belarus"
"Byelaazyorsk","52.4500","25.1667","11115","Belarus"
"Amelino","54.4200","26.5547","83","Belarus"
"Zubarevichi","52.7917","28.8667","71","Belarus"
"Staraya Buda","53.7146","30.8642","42","Belarus"
"Svirany","53.1887","25.7168","175","Belarus"
"Dubrovka","51.7000","28.6667","23","Belarus"
"Dubrovka","51.7203","30.3897","12","Belarus"
"Babranyaty","52.0142","29.2614","347","Belarus"
"Mikhasevka","53.9513","29.4252","9","Belarus"
"Zimovaya Buda","52.0014","28.6536","41","Belarus"
"Zamost'ye","53.5681","27.6889","7","Belarus"
"Udalevka","52.0056","30.4222","24","Belarus"
"Masty","53.4000","24.5333","15197","Belarus"
"Rudnya-Ol'khovka","52.5558","30.3867","62","Belarus"
"Serp","52.2103","28.1683","9","Belarus"
"Yaskinya","53.0392","29.7533","7","Belarus"
"Starodubovo","54.6794","26.6839","5","Belarus"
"Slanevshchina","53.6125","30.1377","12","Belarus"
"Khmelinets","53.1431","30.4181","75","Belarus"
"Ashmyany","54.4250","25.9375","16966","Belarus"
"Ryabka","52.3167","28.2956","14","Belarus"
"Fakel","52.8814","30.5872","61","Belarus"
"Novyy Pakhar'","53.2056","30.0583","3","Belarus"
"Marmovichi","52.5333","29.4667","122","Belarus"
"Malinovka","54.0275","29.7246","29","Belarus"
"Malinovka","53.8738","29.7352","21","Belarus"
"Malinovka","53.3295","30.2526","9","Belarus"
"Bol'shiye Strelki","52.9828","30.3797","369","Belarus"
"Shchibrin","53.1275","30.0831","462","Belarus"
"Smychok","52.5814","30.3161","318","Belarus"
"Mazury","51.8625","29.2214","6","Belarus"
"Khodaraw","53.5111","31.1054","39","Belarus"
"Kalinovka","53.8877","29.6915","53","Belarus"
"Kalinovka","54.0663","29.6554","2","Belarus"
"Vyalikiya Luki","53.0076","26.0481","423","Belarus"
"Nedoyka","52.6564","30.4014","298","Belarus"
"Slavyechna","51.6333","29.0667","103","Belarus"
"Plesovichi","52.8167","29.7333","104","Belarus"
"Budishche","52.1167","31.3500","83","Belarus"
"Budishche","51.8417","30.5772","21","Belarus"
"Dubishcha","53.1552","25.7855","1","Belarus"
"Karnalin","52.2769","30.7594","72","Belarus"
"Sinezh","53.3140","30.1239","11","Belarus"
"Kalinkavichy","52.1333","29.3333","37633","Belarus"
"Usokhi","53.4250","30.4425","53","Belarus"
"Dedino","54.9617","27.9406","74","Belarus"
"Rudnya-Nisimkovichskaya","52.9208","31.1681","59","Belarus"
"Rodniki","53.1356","24.2017","290","Belarus"
"Penitsa","52.0306","29.4056","46","Belarus"
"Kashalyova","52.7406","30.6056","412","Belarus"
"Karnitsa","52.8911","28.5656","47","Belarus"
"Zyabki","55.2594","28.1689","264","Belarus"
"Gushchitsy","53.5984","24.1965","193","Belarus"
"Sychman","53.1803","30.5075","158","Belarus"
"Kuklichi","52.9167","31.0333","109","Belarus"
"Mokritsa","54.7942","26.7214","62","Belarus"
"Shcherbovka","52.3850","30.6986","107","Belarus"
"Nareyki","53.8589","27.1222","7","Belarus"
"Lastrygino","53.8806","31.7097","32","Belarus"
"Pastavy","55.1167","26.8333","19153","Belarus"
"Mastytychy","53.3482","25.9653","18","Belarus"
"Dubrova","52.9464","28.5508","202","Belarus"
"Novaya Pashkava","53.9500","30.2500","663","Belarus"
"Al'binsk","52.6386","28.4660","24","Belarus"
"Pol'pin","52.7517","30.5917","36","Belarus"
"Buyki","54.7694","26.6044","240","Belarus"
"Zol'ki","54.6981","26.6667","30","Belarus"
"Terekhovka","53.2000","30.0667","13","Belarus"
"Naspa","52.7000","30.3333","30","Belarus"
"Mokrovichi","54.0130","29.6283","132","Belarus"
"Staryye Malynichi","52.8531","30.8925","39","Belarus"
"Malyatsichy","53.8578","31.5417","350","Belarus"
"Moklishche","52.0006","29.7322","19","Belarus"
"Perekladovichi","53.6251","30.4163","73","Belarus"
"Rudnya-Stolbunskaya","52.7408","31.4042","39","Belarus"
"Kapsany","51.5667","28.7956","23","Belarus"
"Moshny","52.8500","29.0667","12","Belarus"
"Smolka","53.7469","30.5916","107","Belarus"
"Rositsa","55.9203","27.7642","243","Belarus"
"Zagoriny","52.1108","29.1425","121","Belarus"
"Sadki","52.2300","29.0567","66","Belarus"
"Pyeranosiny","53.1758","25.7315","58","Belarus"
"Vyal'ye","51.5667","30.5000","60","Belarus"
"Saska Lipka","53.2319","26.5768","531","Belarus"
"Pochuyki","53.3500","24.1500","36","Belarus"
"Skvarsk","53.8892","31.1044","22","Belarus"
"Kanikovichi","54.2761","27.4908","2","Belarus"
"Amur","52.7536","28.5444","26","Belarus"
"Bushnevo","53.7472","24.0944","11","Belarus"
"Malyevitskaya Rudnya","52.9000","29.8667","121","Belarus"
"Dykhnavichi","53.2142","24.3128","49","Belarus"
"Zabalotstsye","52.8117","30.7114","191","Belarus"
"Krivcha","51.7392","30.4300","107","Belarus"
"Lomskoye","54.4000","29.3889","34","Belarus"
"Moshcheny","54.9150","29.7608","62","Belarus"
"Hervyaty","54.6925","26.1411","494","Belarus"
"Derevishche","52.0783","29.7917","40","Belarus"
"Ubortskaya Rudnya","51.9908","28.4831","144","Belarus"
"Stadolishcha","55.5617","30.0745","244","Belarus"
"Yamnoye","53.1361","30.4769","194","Belarus"
"Yamnoye","52.3044","29.1564","11","Belarus"
"Rossokhi","53.0017","30.7725","111","Belarus"
"Voskhod","52.0444","30.6558","26","Belarus"
"Slizhino","54.2631","27.6111","91","Belarus"
"Bobrovniki","53.4394","23.9844","42","Belarus"
"Mulyari","54.6933","26.6933","52","Belarus"
"Vysokoye","53.7348","30.9637","20","Belarus"
"Kurshynavichy","52.8833","26.3167","350","Belarus"
"Sorotsni","52.2331","25.3781","107","Belarus"
"Dary","53.8442","30.4728","60","Belarus"
"Yastrambyel'","53.0317","25.9617","441","Belarus"
"Novyy Put'","51.8681","30.2472","41","Belarus"
"Vul'ka-Popinskaya","52.1004","25.1562","274","Belarus"
"Lyebyedzyeva","54.2717","31.1367","79","Belarus"
"Krasnaya Sloboda","53.8461","29.7946","47","Belarus"
"Lyudvinov","52.2436","28.5986","52","Belarus"
"Naberezhnaya","54.5003","26.7347","9","Belarus"
"Kosishche","52.2419","28.4911","22","Belarus"
"Lanevichi","53.4446","24.0431","12","Belarus"
"Sennaya","52.3717","30.4767","42","Belarus"
"Haradzilava","54.2333","26.6167","473","Belarus"
"Zorka","52.7186","28.4608","32","Belarus"
"Malyya Nyamki","52.8603","31.3694","429","Belarus"
"Chaplin","52.1347","30.6661","185","Belarus"
"Staraya Metcha","54.1818","28.7232","508","Belarus"
"Dovnary","53.7122","26.8161","36","Belarus"
"Zvontsovka","53.6029","30.0701","4","Belarus"
"Rudnya","51.8917","29.2056","1116","Belarus"
"Rudnya","52.0044","29.0886","60","Belarus"
"Rudnya","53.2325","30.8606","3","Belarus"
"Krivaya","53.4980","32.1225","1","Belarus"
"Zhukavichy","52.8486","28.7925","10","Belarus"
"Sakalavichy","54.3678","29.3258","84","Belarus"
"Petrash","51.8433","30.0833","1","Belarus"
"Shakuny","52.4889","24.3567","13","Belarus"
"Tsykuny","52.3281","30.7939","92","Belarus"
"Khutoryanka","52.2265","31.1505","28","Belarus"
"Hlivin","54.1617","28.6064","654","Belarus"
"Luki","54.3722","31.1436","8","Belarus"
"Pawlinava","53.0278","25.8181","219","Belarus"
"Svyatoye","52.9068","29.7289","26","Belarus"
"Studenaya Guta","52.1489","31.0111","148","Belarus"
"Sheyka","52.6978","31.4875","22","Belarus"
"Zhutino","54.9908","27.1272","9","Belarus"
"Lyuban'","52.7819","28.0525","11654","Belarus"
"Pravda","53.0403","30.7044","10","Belarus"
"Klinsk","52.1714","29.0992","252","Belarus"
"Lakhva","52.2183","27.0958","1286","Belarus"
"Rolichi","54.7061","26.6550","51","Belarus"
"Haradok","55.4667","29.9833","11814","Belarus"
"Myasata","54.2818","27.0396","328","Belarus"
"Moiseyevo","54.4206","31.1381","160","Belarus"
"Lyubashava","52.7828","26.4233","1042","Belarus"
"Novokuznechnaya","51.9189","30.5094","88","Belarus"
"Myory","55.6167","27.6167","7845","Belarus"
"Abol'tsy","52.7000","29.9167","46","Belarus"
"Khal'ch","52.5622","31.1422","1285","Belarus"
"Udovsk","53.8217","30.7836","7","Belarus"
"Rad'kova Sloboda","53.4916","30.5395","9","Belarus"
"Sevruki","52.3553","30.9811","509","Belarus"
"Sorzhytsa","55.0681","29.7106","51","Belarus"
"Marchanki","55.8333","30.1797","183","Belarus"
"Nahornaya","53.3196","25.9469","66","Belarus"
"Zaples'ye","52.1667","25.2667","269","Belarus"
"Norkovshchina","53.0178","30.7483","101","Belarus"
"Tal'ka","53.3694","28.3444","345","Belarus"
"Lapeni","53.7368","30.9011","35","Belarus"
"Stuzhki","52.6886","29.6119","91","Belarus"
"Knyazhebor'ye","51.8000","29.2436","146","Belarus"
"Natskovichi","54.0450","25.7278","77","Belarus"
"Lozhki","54.1142","29.1406","15","Belarus"
"Minsk","53.9022","27.5618","2009786","Belarus"
"Svetochevka","54.3344","30.4464","51","Belarus"
"Lavstyki","52.6167","28.8833","290","Belarus"
"Pushcha","53.7636","29.8956","6","Belarus"
"Mikashevichy","52.2167","27.4667","12771","Belarus"
"Mitsury","52.1578","28.6639","60","Belarus"
"Stezhernoye","51.7500","30.3667","245","Belarus"
"Atirki","52.1536","28.6558","57","Belarus"
"Protochnoye","53.4500","29.8686","16","Belarus"
"Volodarsk","52.4550","30.1167","79","Belarus"
"Savichi","53.2819","26.2821","227","Belarus"
"Sipayly","54.0078","29.9536","90","Belarus"
"Maladzyechna","54.3136","26.8517","91063","Belarus"
"Tarasovka","52.5308","31.2425","87","Belarus"
"Haranavichy","53.3530","25.9146","34","Belarus"
"Matyuty","54.2625","30.9106","306","Belarus"
"Slenzaki","52.1119","28.3903","12","Belarus"
"Vornawka","53.0242","30.8647","432","Belarus"
"Birchanskaya Sloboda","53.0822","29.6453","52","Belarus"
"Zabolotskoye","54.3919","29.2747","6","Belarus"
"Slawharad","53.4453","30.9964","7928","Belarus"
"Antonovka","52.8806","31.2817","35","Belarus"
"Avkhimki","53.9061","30.9215","23","Belarus"
"Vol'nitsa","53.9588","29.5607","30","Belarus"
"Smykovichi","52.6367","28.9333","50","Belarus"
"Astrazhanka","51.9917","28.5589","433","Belarus"
"Hlushkavichy","51.5714","27.7739","2500","Belarus"
"Kazanovka","52.1844","30.4817","10","Belarus"
"Balashevichi","52.8956","28.7781","313","Belarus"
"Filippovichi","52.4353","28.6047","121","Belarus"
"Pavlenyaty","54.2215","27.5143","2","Belarus"
"Peredreyka","52.0725","28.7292","47","Belarus"
"Brosovinka","53.5285","30.0337","7","Belarus"
"Dabuzha","53.5334","30.6047","38","Belarus"
"Chernyavka","54.2786","29.2447","2","Belarus"
"Byerazino","53.8333","28.9833","11450","Belarus"
"Valawsk","52.1025","28.6192","380","Belarus"
"Zasvir'","54.8447","26.4631","94","Belarus"
"Nikolayevo","52.3972","23.7583","289","Belarus"
"Andreyevichy","53.1111","24.3108","126","Belarus"
"Staryya Darohi","53.0394","28.2650","11198","Belarus"
"Novaya Bukhalovka","52.2850","30.9667","31","Belarus"
"Korobishche","54.6333","30.5000","2","Belarus"
"Kurpiki","53.5617","24.1182","43","Belarus"
"Simonichskiy Mlynok","51.8972","27.9772","62","Belarus"
"Krasnovka","51.4556","29.3539","143","Belarus"
"Akriony","52.2100","28.6528","24","Belarus"
"Dobryn'","52.8744","31.0500","10","Belarus"
"Ladyzhin","52.1381","29.4000","71","Belarus"
"Rudnitsa","52.2447","29.5044","28","Belarus"
"Staraya Pyaresika","54.4675","29.0617","28","Belarus"
"Skarodnaye","51.6333","28.8167","715","Belarus"
"Voskhod","53.5833","31.1000","2","Belarus"
"Zagortsy","53.5270","24.0651","37","Belarus"
"Sivkovo","53.6241","23.9989","31","Belarus"
"Brakova Sloboda","53.9356","30.8637","12","Belarus"
"Kleva","53.9947","29.4207","36","Belarus"
"Novyye Malynichi","52.8667","30.8833","50","Belarus"
"Slobodka","51.9133","29.5497","138","Belarus"
"Slobodka","51.6925","28.0533","29","Belarus"
"Slobodka","52.8861","30.7122","20","Belarus"
"Boklan'","52.1292","28.0808","78","Belarus"
"Mushichi","52.5167","29.0667","78","Belarus"
"Khmelino","53.2039","30.0122","5","Belarus"
"Dubovka","53.4628","23.8322","26","Belarus"
"Slabada-Kuchynka","53.2567","27.1803","368","Belarus"
"Paseka-Slobodka","53.1000","30.5628","37","Belarus"
"Blazhki","52.2728","29.4614","33","Belarus"
"Usterkhi","52.8992","28.8672","35","Belarus"
"Cherenki","53.6203","30.7586","114","Belarus"
"Klyapin","53.1625","31.0544","79","Belarus"
"Uborak","52.0539","30.5008","716","Belarus"
"Malyye Bakshty","54.2217","27.2692","2","Belarus"
"Leninsk","51.7282","30.4934","53","Belarus"
"Chkalovo","52.2817","30.8833","542","Belarus"
"Chkalovo","52.4267","29.8175","392","Belarus"
"Sapozhki","53.0894","30.8275","15","Belarus"
"Zaazyerye","54.0569","29.4641","82","Belarus"
"Podsosenka","54.3258","29.3664","2","Belarus"
"Turok","52.0919","28.3661","269","Belarus"
"Petravichi","53.1344","30.5597","177","Belarus"
"Mokryadka","53.9590","30.9110","23","Belarus"
"Bervy","53.0031","28.8836","2","Belarus"
"Beresnikha","54.7117","26.7928","2","Belarus"
"Yelki","53.0400","29.8633","68","Belarus"
"Myshkovichi","54.2786","27.5322","13","Belarus"
"Klyuch","53.7500","30.9913","5","Belarus"
"Volod'ki","54.8483","26.3497","45","Belarus"
"Akulinka","51.9775","29.3725","83","Belarus"
"Zhaliwye","53.8985","31.0563","23","Belarus"
"Malyeyki","51.8000","30.3167","392","Belarus"
"Poplavshchina","53.6889","30.0472","37","Belarus"
"Bukhlichy","51.7982","26.7719","322","Belarus"
"Printa","54.4903","26.7336","3","Belarus"
"Bliznetsy","53.1292","30.0100","70","Belarus"
"Povstka","52.8764","28.8492","82","Belarus"
"Makarovka","54.3592","31.0119","10","Belarus"
"Hlybokaye","55.1333","27.6833","17790","Belarus"
"Blyudnitsa","52.6167","30.6667","53","Belarus"
"Zyalyonaya","53.3618","25.9692","182","Belarus"
"Luninyets","52.2500","26.8000","23734","Belarus"
"Novy Barsuk","52.1167","30.2994","432","Belarus"
"Rakovtsy","55.1792","27.4765","34","Belarus"
"Ramanawka","53.1039","24.6017","69","Belarus"
"Zaprud'ye","54.2742","31.1903","83","Belarus"
"Chizhevichi","52.2003","23.4183","82","Belarus"
"Kholmy","54.7350","30.6178","7","Belarus"
"Vavulichi","52.2167","25.3500","133","Belarus"
"Boltoguzy","54.7678","26.6528","37","Belarus"
"Hutava","52.1833","25.3333","450","Belarus"
"Batsun'","52.5822","30.5667","490","Belarus"
"Kostyushkovo","54.4125","31.0864","88","Belarus"
"Khvoynya","52.5131","28.8078","40","Belarus"
"Sosnovets","52.2375","28.4294","13","Belarus"
"Novyye Voykovichi","53.2642","26.1061","33","Belarus"
"Palonka","53.1461","25.7133","786","Belarus"
"Sutoki","53.6435","30.6751","36","Belarus"
"Zasluchino","52.0114","23.8197","81","Belarus"
"Lipnyaki","52.0722","30.5583","219","Belarus"
"Boblava","53.2917","24.3153","74","Belarus"
"Slavan'","52.4661","29.6400","343","Belarus"
"Dranukha","53.7760","31.0411","11","Belarus"
"Uspalishche","52.9333","29.5667","5","Belarus"
"Kolonsk","52.4570","25.7852","235","Belarus"
"Sudovitsa","52.7317","29.5317","437","Belarus"
"Mantyuty","52.8853","25.4517","83","Belarus"
"Obukhovichi","53.6218","24.0735","102","Belarus"
"Novaya Gusevitsa","52.5850","30.6675","623","Belarus"
"Lipa","53.2789","30.1532","31","Belarus"
"Seliba","52.9021","29.4954","5","Belarus"
"Salonaye","52.8442","30.0103","1169","Belarus"
"Klivy","51.8833","29.8333","236","Belarus"
"Horad Barysaw","54.2260","28.4922","155389","Belarus"
"Lyubovin","52.8142","30.4583","26","Belarus"
"Vowchyn","52.2858","23.3103","502","Belarus"
"Sharin","51.8042","29.0333","54","Belarus"
"Antonova Buda","53.8960","29.8272","41","Belarus"
"Murashki","55.5954","27.3940","23","Belarus"
"Malaya Krushinovka","53.2208","29.8097","55","Belarus"
"Zyabrawka","52.3267","31.1850","815","Belarus"
"Poloyevo","53.6685","31.0295","1","Belarus"
"Aleksandrovka","53.9550","31.0333","26","Belarus"
"Zolotva","53.6040","29.9898","135","Belarus"
"Knyazevka","53.7986","30.4286","111","Belarus"
"Khvoynaye","51.9631","29.8147","105","Belarus"
"Bobrik","54.5683","29.3811","33","Belarus"
"Dvesnitsa","52.5933","28.4783","40","Belarus"
"Kryzhiki","53.0651","26.0620","5","Belarus"
"Pobednaya","54.4297","31.0950","1","Belarus"
"Adamovka","52.2348","30.4589","23","Belarus"
"Skakovka","54.2508","29.3169","29","Belarus"
"Borovets","54.2675","29.3442","6","Belarus"
"Sever","54.0367","29.9803","10","Belarus"
"Kryukovshchina","52.8908","28.9150","14","Belarus"
"Vyekhatnitsa","53.2415","24.3338","112","Belarus"
"Balaba","53.1956","30.1361","22","Belarus"
"Vishen'ki","51.7667","29.0500","101","Belarus"
"Dubonosy","54.8011","27.2522","23","Belarus"
"Rizhkov","54.0691","29.6198","21","Belarus"
"Dragunsk","53.2822","30.6192","184","Belarus"
"Riki","53.9419","30.7526","45","Belarus"
"Klimovka","52.9587","29.7542","4","Belarus"
"Romanishchi","52.7333","29.1667","66","Belarus"
"Makrany","53.0006","28.7183","8","Belarus"
"Pokats'","52.8736","31.1053","177","Belarus"
"Dubrovno","53.2073","26.1221","37","Belarus"
"Osinovka","53.2219","30.1417","1","Belarus"
"Nadeykovichi","53.1183","29.7425","27","Belarus"
"Kaparawka","52.2744","30.2311","227","Belarus"
"Zhabichi","54.2519","27.4483","25","Belarus"
"Tikhonova Sloboda","53.6767","26.7775","92","Belarus"
"Kharomtsy","52.6833","28.6333","172","Belarus"
"Krasynichi","52.7428","26.5675","89","Belarus"
"Samorazh'","52.5808","29.9167","12","Belarus"
"Baranavichy","53.1167","25.9833","174183","Belarus"
"Tuchki","51.9876","30.5633","8","Belarus"
"Khatyn","54.3344","27.9436","161","Belarus"
"Turki","53.0250","28.7436","2","Belarus"
"Pobeda","52.9025","31.3514","137","Belarus"
"Ivanov Dvorets","53.9168","30.6755","24","Belarus"
"Zarekusha","52.7606","28.7647","37","Belarus"
"Tremlya","52.2667","28.8714","68","Belarus"
"Koval'ki","52.4361","29.3447","37","Belarus"
"Vasil'pol'ye","52.5069","30.4739","14","Belarus"
"Druzhbichi","52.8542","30.8150","28","Belarus"
"Senozhatki","52.9856","29.8300","57","Belarus"
"Podgor'ye","53.8286","30.4536","521","Belarus"
"Lapichi","52.6500","30.7500","126","Belarus"
"Tsyelyashy","52.4922","30.6328","625","Belarus"
"Liski","52.1019","24.2342","8","Belarus"
"Dyatlovka","52.0933","30.3489","19","Belarus"
"Skalka","52.7753","29.4589","121","Belarus"
"Busyazh","52.8222","25.1419","182","Belarus"
"Asavyets","53.9213","29.6667","114","Belarus"
"Babownya","53.2575","26.9531","367","Belarus"
"Yaya","55.7583","27.3694","37","Belarus"
"Tarasovichi","53.4140","25.4371","2","Belarus"
"Kadysh","53.9014","23.6847","47","Belarus"
"Novyy Mokrets","51.8167","30.4333","31","Belarus"
"Hadzilavichy","53.0786","30.2733","641","Belarus"
"Vepraty","54.2881","27.4789","29","Belarus"
"Naprasnovka","54.3167","30.6003","4","Belarus"
"Malyye Selyutichi","52.3019","28.1942","40","Belarus"
"Yasenets","53.3501","26.0474","33","Belarus"
"Kozlovichi","52.9103","28.9397","17","Belarus"
"Dednoye","52.6836","29.7375","33","Belarus"
"Polivniki","53.9114","29.5966","5","Belarus"
"Prokopovichi","53.4458","23.9173","130","Belarus"
"Novyye Zhuravichi","53.2328","30.5828","82","Belarus"
"Krugi","52.9033","29.7881","69","Belarus"
"Krutoye","52.8211","30.8319","107","Belarus"
"Lenino","52.7181","30.6586","33","Belarus"
"Tarakhovka","53.0994","30.6622","35","Belarus"
"Yakimovka","52.3811","30.6268","110","Belarus"
"Malyye Konoplitsy","53.1997","29.9575","85","Belarus"
"Snyadzin","52.0681","28.3225","218","Belarus"
"Morozovo Maloye","54.3069","31.1267","7","Belarus"
"Annovka","53.0547","29.8317","54","Belarus"
"Ivashkovichi","52.2772","28.7931","150","Belarus"
"Sizany","51.5833","28.8128","26","Belarus"
"Zavidovka","52.1667","31.7500","116","Belarus"
"Zavidovka","52.6361","30.7167","37","Belarus"
"Khodnevo","53.9969","30.6772","5","Belarus"
"Braslaw","55.6397","27.0397","9390","Belarus"
"Klyetsk","53.0636","26.6372","11462","Belarus"
"Hlinishcha","51.9333","29.6500","592","Belarus"
"Malaya Zimnitsa","53.3333","30.6333","53","Belarus"
"Maslikovtsy","54.0123","25.6818","40","Belarus"
"Mal'tsy","51.5744","29.2183","32","Belarus"
"Barysawshchyna","51.8736","29.7904","340","Belarus"
"Tualin","53.9947","30.0422","19","Belarus"
"Reut","53.1056","30.7033","33","Belarus"
"Patapawka","52.7403","30.4944","908","Belarus"
"Palon'","52.6769","26.5042","161","Belarus"
"Budenichskaya Rudnya","54.5142","28.2789","17","Belarus"
"Matsevichi","54.5135","26.6753","36","Belarus"
"Zherstvyanka","54.5132","26.7249","1","Belarus"
"Ivanava","52.1333","25.5500","16498","Belarus"
"Yushkovichi","53.6969","30.7893","19","Belarus"
"Isakova Buda","53.7207","30.5893","43","Belarus"
"Prakopawka","52.1436","31.3175","121","Belarus"
"Dubasnik","53.8264","31.0099","8","Belarus"
"Mironim","52.9499","25.4356","124","Belarus"
"Rusaki","53.7300","26.6983","82","Belarus"
"Abramy","54.8578","26.6364","15","Belarus"
"Vasilyevichy","52.2667","29.8000","3435","Belarus"
"Radvanichi-Malyye","52.0336","23.9886","611","Belarus"
"Shashki","52.7708","26.5903","137","Belarus"
"Sapriki","52.9067","30.8375","164","Belarus"
"Sushchi","53.8902","30.9841","5","Belarus"
"Vetvitsa","52.9542","30.7044","73","Belarus"
"Leski","52.6167","28.9167","48","Belarus"
"Leski","52.3172","29.5728","23","Belarus"
"Malyye Yanushkovichi","54.2811","27.6208","13","Belarus"
"Davyd-Haradok","52.0556","27.2139","5919","Belarus"
"Russkoye Selo","54.5394","26.6797","125","Belarus"
"Svidera","52.5083","30.2542","42","Belarus"
"Dubinka Pervaya","53.7703","30.4483","31","Belarus"
"Sakharovka","54.2014","30.9119","68","Belarus"
"Lida","53.8872","25.3028","103391","Belarus"
"Kashara","53.0913","29.8254","441","Belarus"
"Malyy Bokov","51.9058","29.1564","101","Belarus"
"Yampol'","52.2581","30.4130","131","Belarus"
"Stukachevka","52.2869","30.7911","31","Belarus"
"Chistaya Luzha","52.4536","29.1411","26","Belarus"
"Brazdetchino","54.4511","30.6356","137","Belarus"
"Kuz'minichi","53.6884","30.9361","189","Belarus"
"Amkhovaya Pyershaya","53.7900","30.5253","325","Belarus"
"Balashevka","52.4866","30.1282","18","Belarus"
"Struki","52.8119","30.6042","119","Belarus"
"Nyebyty","53.1341","25.7746","44","Belarus"
"Peremoga","53.7817","29.9511","2","Belarus"
"Guli","54.9244","27.1811","80","Belarus"
"Zarestsye","54.0101","30.6974","240","Belarus"
"Slawkavichy","52.7206","28.5000","282","Belarus"
"Yashchitsy","52.7000","29.8333","73","Belarus"
"Smolovka","52.5603","28.6167","20","Belarus"
"Krasiyevka","52.2570","25.6441","204","Belarus"
"Volozhenka","53.7857","30.8604","28","Belarus"
"Karpilovka","54.2066","27.5027","1","Belarus"
"Malaryta","51.7972","24.0808","12883","Belarus"
"Khoruzhentsy","54.2175","27.5425","26","Belarus"
"Naukhovichi","52.8122","30.8828","2","Belarus"
"Bobki","52.9032","26.5293","38","Belarus"
"Krasniki","54.6769","27.9440","57","Belarus"
"Klubynichi","54.5586","29.4294","24","Belarus"
"Vyalikiya Basyady","54.2317","27.5703","30","Belarus"
"Khatovnya","53.2847","30.5319","814","Belarus"
"Verkhi","51.7950","28.8000","44","Belarus"
"Skyepnya","52.7544","30.2267","418","Belarus"
"May","52.2667","30.4617","131","Belarus"
"Khominka","52.0553","30.9033","282","Belarus"
"Novinka","53.8807","31.0532","15","Belarus"
"Kamenchane","54.0268","25.6803","157","Belarus"
"Krinichnaya Gryada","52.0736","28.5633","6","Belarus"
"Bryukhovo","54.7011","30.5231","427","Belarus"
"Milograd","52.5072","30.2619","668","Belarus"
"Nizhneye Chernikhovo","53.2476","26.2855","333","Belarus"
"Staraya Yatskovshchina","52.9556","30.8150","119","Belarus"
"Navesy","54.3128","29.3806","19","Belarus"
"Staryy Mazalov","53.0075","29.9483","22","Belarus"
"Novyy Lyubavin","52.8094","30.4194","2","Belarus"
"Nagornaya","53.2539","26.2710","53","Belarus"
"Mariton","51.8167","30.1333","27","Belarus"
"Zaboz'ye","51.7167","29.0667","14","Belarus"
"Artuki","52.1481","30.5367","397","Belarus"
"Mechai","54.4975","26.6558","9","Belarus"
"Stren'ki","53.0753","29.9500","620","Belarus"
"Parkhimkovskaya Sloboda","53.1467","29.6953","35","Belarus"
"Dolina","52.9142","30.1744","12","Belarus"
"Krasnitsa","53.0475","30.3750","410","Belarus"
"Peredovaya","53.0333","29.7189","102","Belarus"
"Zhdanovichi","53.6097","26.8394","24","Belarus"
"Lyakhovshchina","53.7358","31.1317","9","Belarus"
"Repki","53.0456","29.7622","105","Belarus"
"Khaby","52.1311","23.9100","81","Belarus"
"Chyrvonaya Byelarys'","53.4197","30.1547","308","Belarus"
"Dubniki","54.8619","26.4789","25","Belarus"
"Sredniye Malynichi","52.8592","30.9194","39","Belarus"
"Baran'","54.4833","30.3333","10573","Belarus"
"Berestovets","53.0761","30.5836","183","Belarus"
"Selishchi","52.5539","29.9094","65","Belarus"
"Byarozawka","54.7819","27.6681","249","Belarus"
"Lozyany","53.6433","25.2270","40","Belarus"
"Pyerabroddzye","55.6433","27.4533","233","Belarus"
"Horki","54.2833","30.9833","30390","Belarus"
"Zimnik","54.2572","30.5528","11","Belarus"
"Pnevshchina","54.1925","31.2342","35","Belarus"
"Maly Kudzin","54.0250","29.8086","382","Belarus"
"Staraya Rudnya","52.8372","30.2769","848","Belarus"
"Zhilichi","53.1025","24.0497","67","Belarus"
"Malyye Amkhinichi","53.8623","30.6846","52","Belarus"
"Butromeyevka","53.6394","30.5486","27","Belarus"
"Malinovo","52.7822","28.6228","30","Belarus"
"Homyel'","52.4417","30.9833","510300","Belarus"
"Serbino","54.3714","27.3392","4","Belarus"
"Uznazh","52.5256","29.5911","257","Belarus"
"Korannaya","52.4508","25.7286","11","Belarus"
"Blahavichy","53.8355","30.8495","352","Belarus"
"Turishchevo","54.3261","31.1497","17","Belarus"
"Nadvin","52.1217","30.4944","138","Belarus"
"Tunevshchina","51.9114","29.6436","105","Belarus"
"Talachyn","54.4167","29.7000","9899","Belarus"
"Konoplitsy","53.2000","29.9344","31","Belarus"
"Starahrad","53.1175","30.6083","349","Belarus"
"Lahoysk","54.2000","27.8500","15336","Belarus"
"Yasnaya Polyana","54.0888","29.8236","9","Belarus"
"Lipovets","54.4019","29.2603","8","Belarus"
"Rudnya-Dudichskaya","52.7500","30.8333","4","Belarus"
"Lyushev","52.8408","30.4739","14","Belarus"
"Staryy Krivsk","53.1114","30.4972","148","Belarus"
"Makanavichy","52.1453","29.9150","717","Belarus"
"Vyalikiya Kruhovichy","52.7761","26.6367","688","Belarus"
"Dolgiy Mokh","53.6197","30.7875","115","Belarus"
"Abramovka","52.3525","30.6727","66","Belarus"
"Abramovka","51.8786","30.5728","33","Belarus"
"Chistiki","54.4408","31.2092","2","Belarus"
"Zyelyankovichy","52.8097","28.9211","132","Belarus"
"Yasentsy","53.0703","28.5650","5","Belarus"
"Yaskevichi","53.4850","23.8531","105","Belarus"
"Svetlaya","52.9815","26.6928","29","Belarus"
"Martynovka","52.6386","29.3617","13","Belarus"
"Kabina Gora","53.4522","30.9400","134","Belarus"
"Malyye Luki","53.0202","26.0528","81","Belarus"
"Babishche","54.4906","26.7569","1","Belarus"
"Bystraya","54.2428","31.2628","33","Belarus"
"Drozdovshchina","53.7865","26.7561","13","Belarus"
"Malyye Rogi","52.8500","30.0539","36","Belarus"
"Klenovichi","54.4072","29.2336","18","Belarus"
"Pozhezhin","51.9400","23.9814","252","Belarus"
"Berdyzh","52.8400","30.9556","39","Belarus"
"Litviny","52.0906","23.9069","12","Belarus"
"Khachinka","53.4532","30.6042","12","Belarus"
"Babruysk","53.1500","29.2333","212200","Belarus"
"Lyudkov","53.5864","30.1381","8","Belarus"
"Pyatiletka","53.8644","28.0903","75","Belarus"
"Novaya Mileyevka","53.7245","30.4056","111","Belarus"
"Zavidovka","54.2433","31.1325","8","Belarus"
"Kanstantsinava","54.9869","27.1681","2","Belarus"
"Rozhanov","52.6000","28.7500","14","Belarus"
"Krasnovinka","54.5542","29.4492","2","Belarus"
"Zalyubichi","53.1680","26.2246","100","Belarus"
"Kalantai","53.1972","24.4006","48","Belarus"
"Dzyekaly","53.1221","25.6914","25","Belarus"
"Soroki","55.0677","27.6756","48","Belarus"
"Hrodna","53.6667","23.8167","356900","Belarus"
"Kalinichi","51.7667","29.4333","55","Belarus"
"Babynichy","55.2813","28.4107","222","Belarus"
"Martinovtsy","55.4852","27.1486","2","Belarus"
"Kosichi","54.5275","26.7197","26","Belarus"
"Zbunin","51.8300","23.6486","187","Belarus"
"Slobodka","53.7833","26.7500","54","Belarus"
"Slobodka","52.7042","28.6933","26","Belarus"
"Lyebyadzyanka","53.9067","29.8394","229","Belarus"
"Kanava","53.2583","30.4831","56","Belarus"
"Simonovichi","53.0797","28.6469","146","Belarus"
"Drahichyn","52.1833","25.1500","14963","Belarus"
"Malkovo","52.7006","28.5764","15","Belarus"
"Mikhalin","51.9986","23.9491","17","Belarus"
"Yelenka","54.2753","29.3653","8","Belarus"
"Novaya Mar'yevka","52.9303","29.5386","9","Belarus"
"Novaya Slobodka","53.6236","30.1118","11","Belarus"
"Svidnoye","51.9600","28.4400","47","Belarus"
"Myadzyel","54.8756","26.9386","7146","Belarus"
"Chernaya Virnya","52.9394","30.2014","56","Belarus"
"Suponichi","53.9933","30.6616","19","Belarus"
"Birulichy","53.5758","24.1898","31","Belarus"
"Zadorovka","52.4142","30.7628","49","Belarus"
"Provzhaly","53.8750","26.8760","48","Belarus"
"Kuntsevshchina","53.4547","23.9772","26","Belarus"
"Astreni","53.7680","30.8181","12","Belarus"
"Zaugol'ye","54.8211","27.2219","33","Belarus"
"Borusk","52.0844","29.5972","149","Belarus"
"Radkov","52.5833","29.1500","6","Belarus"
"Yel'nitsa","54.7722","27.1761","50","Belarus"
"Svirki","54.8878","27.6469","38","Belarus"
"Staryy Bobr","54.3789","29.3028","28","Belarus"
"Sherekhovskaya Buda","53.0194","30.6547","15","Belarus"
"Nikitinichi","53.9617","30.1192","456","Belarus"
"Zavod-Virovaya","53.4833","31.0167","76","Belarus"
"Mutsizhar","52.0589","29.8231","70","Belarus"
"Krasnyy Voskhod","53.4091","30.8711","248","Belarus"
"Akulintsy","53.9668","30.6414","7","Belarus"
"Kaverlyany","53.7794","27.2293","29","Belarus"
"Adrinishchi","53.3492","27.1668","15","Belarus"
"Klyapinskaya Buda","53.1681","31.0919","50","Belarus"
"Haradzyets","52.1833","24.6667","1272","Belarus"
"Zababye","52.7833","30.4000","45","Belarus"
"Sverzhen'","53.1322","30.3181","56","Belarus"
"Vidzibor","51.9833","26.7833","470","Belarus"
"Vulkan","52.0133","30.4581","142","Belarus"
"Shupeyki","52.5200","29.8300","225","Belarus"
"Pudakov","51.8678","30.1389","74","Belarus"
"Klyukovichi","53.6892","25.2053","7","Belarus"
"Mikhalovo","54.2317","27.8411","109","Belarus"
"Staraya Husyavitsa","52.5833","30.6500","215","Belarus"
"Myshitsy","54.3239","27.4875","61","Belarus"
"Lyadtsy","52.6836","29.1806","102","Belarus"
"Sukach","52.7906","26.3758","62","Belarus"
"Krasnoye","52.9561","28.6231","24","Belarus"
"Il'ich","52.1022","28.3892","142","Belarus"
"Bahdanavichy","53.0719","30.6914","172","Belarus"
"Buda","52.1767","29.4192","177","Belarus"
"Zadubye","53.1475","30.5956","275","Belarus"
"Novyye Luki","52.9667","30.0000","670","Belarus"
"Lunacharsk","52.2367","30.5350","91","Belarus"
"Asipovichy","53.3000","28.6500","29981","Belarus"
