"city","lat","lng","population","country"
"La Dore","48.7200","-72.6500","1453","Canada"
"Bonnyville Beach","54.2333","-110.8666","84","Canada"
"Paterson","49.0240","-117.8414","75.00","Canada"
"Pilot Butte","50.4667","-104.4167","2183","Canada"
"Ormiston","49.7380","-105.3910","10.00","Canada"
"Admiral","49.7140","-108.0031","20.00","Canada"
"Pinware","51.6219","-56.7139","88","Canada"
"Sainte-Lucie-de-Beauregard","46.7333","-70.0167","304","Canada"
"Hay Lakes","53.1925","-113.0553","495","Canada"
"McKillop No. 220","50.9804","-105.0059","732.00","Canada"
"Sliding Hills No. 273","51.5192","-102.2179","421.00","Canada"
"Ashfield-Colborne-Wawanosh","43.8667","-81.6000","5422","Canada"
"West Nipissing / Nipissing Ouest","46.3667","-79.9167","14364","Canada"
"Yellow Grass","49.8063","-104.1630","478.00","Canada"
"Clerval","48.7500","-79.4333","364","Canada"
"Massueville","45.9167","-72.9333","516","Canada"
"Tsawwassen","49.0436","-123.0985","816.00","Canada"
"Port Elgin","46.0831","-64.1581","408","Canada"
"Edenwold","50.6330","-104.2520","233","Canada"
"Saint-Maxime-du-Mont-Louis","49.2333","-65.7333","1118","Canada"
"Saint-Simeon","48.0667","-65.5667","1179","Canada"
"Kimberley","49.6697","-115.9775","7425","Canada"
"Leamington","42.0667","-82.5833","32991","Canada"
"Pelican Narrows","54.2500","-110.8833","151","Canada"
"Boileau","45.9167","-74.7667","335","Canada"
"Evanturel","47.7833","-79.8333","449","Canada"
"Two Hills","53.7150","-111.7461","1352","Canada"
"Pond Inlet","72.6808","-77.7503","1617.00","Canada"
"Saint-Remi","45.2667","-73.6167","7265","Canada"
"Saint-Andre","47.6833","-69.7333","651","Canada"
"Cadogan","52.3188","-110.4490","113.00","Canada"
"Sainte-Luce","48.5500","-68.3800","2851","Canada"
"Coderre","50.1350","-106.3840","30","Canada"
"Harbour Main-Chapel's Cove-Lakeview","47.4337","-53.1458","1067","Canada"
"Sainte-Sophie-de-Levrard","46.4300","-72.1200","733","Canada"
"Rocky Harbour","49.5944","-57.9194","947","Canada"
"Egremont","54.0374","-113.1258","48.00","Canada"
"Manor","49.6027","-102.0852","295.00","Canada"
"Saint-Mathieu","45.3167","-73.5164","1879","Canada"
"Osler","52.3700","-106.5400","1237","Canada"
"Upper Liard","60.0531","-128.9168","125.00","Canada"
"Perryvale","54.4685","-113.3882","20.00","Canada"
"Campobello Island","44.8833","-66.9333","872","Canada"
"Birch Cove","53.9485","-114.3636","45","Canada"
"Lac-Nominingue","46.4000","-75.0333","2019","Canada"
"Mount Carmel-Mitchells Brook-St. Catherine's","47.1864","-53.4231","349","Canada"
"Spiritwood","53.3667","-107.5167","916","Canada"
"Ottawa","45.4247","-75.6950","989567","Canada"
"Pelham","43.0333","-79.3333","17110","Canada"
"Matapedia","47.9667","-66.9500","645","Canada"
"Vanderhoof","54.0143","-124.0089","4439","Canada"
"Pinto Creek No. 75","49.6550","-107.0198","283.00","Canada"
"Thornlea","47.6141","-53.7160","115.00","Canada"
"Fox Harbour","47.3214","-53.8828","252","Canada"
"Saint-Francois-de-l'Ile-d'Orleans","47.0000","-70.8167","527","Canada"
"Welwyn","50.1932","-101.3123","133","Canada"
"Bifrost-Riverton","51.0603","-97.1436","3378","Canada"
"Arborg","50.9075","-97.2182","1222","Canada"
"Rock Harbour","47.2928","-54.9972","189","Canada"
"Georgina","44.3000","-79.4333","45418","Canada"
"St. Louis","46.8860","-64.1443","83","Canada"
"Sainte-Christine","45.6167","-72.4167","673","Canada"
"Margo","51.8258","-103.3369","90","Canada"
"Saint Croix","45.2055","-67.1117","657.00","Canada"
"Prud'Homme","52.3370","-105.8930","167","Canada"
"Saint-Athanase","47.4333","-69.4167","301","Canada"
"Bethune","50.7167","-105.2167","399","Canada"
"North Cowichan","48.8236","-123.7192","29676","Canada"
"Clearview","44.3981","-80.0742","14151","Canada"
"Saint-Constant","45.3700","-73.5700","27359","Canada"
"Craik","51.0480","-105.8190","453","Canada"
"Saint-Moise","48.5167","-67.8500","577","Canada"
"Waswanipi","49.7883","-75.9544","1759.00","Canada"
"Lumby","50.2494","-118.9656","3500","Canada"
"Eyebrow","50.7320","-106.1850","135","Canada"
"Invermere","50.5083","-116.0303","3391","Canada"
"Forestburg","52.5803","-112.0681","875","Canada"
"Taschereau","48.6667","-78.6833","981","Canada"
"McKellar","45.4833","-79.8500","1111","Canada"
"Timiskaming","47.6270","-79.4761","539.00","Canada"
"Somerville","46.2917","-67.5340","286.00","Canada"
"Oshawa","43.9000","-78.8500","166000","Canada"
"Saint-Ignace-de-Stanbridge","45.1667","-72.9500","638","Canada"
"Saint-Philibert","46.1333","-70.5500","367","Canada"
"Summerside","46.4000","-63.7833","14829","Canada"
"Strongfield","51.3319","-106.5898","40.00","Canada"
"South Frontenac","44.5081","-76.4939","18646","Canada"
"Drinkwater","50.2956","-105.1358","70","Canada"
"McGarry","48.1464","-79.5706","609","Canada"
"Canora","51.6339","-102.4369","2219","Canada"
"Happy Adventure","48.6361","-53.7597","200","Canada"
"Pointe-Lebel","49.1667","-68.2000","1973","Canada"
"Stillwater","49.7624","-124.2993","116.00","Canada"
"Bluewater","43.4500","-81.6000","7136","Canada"
"Port Edward","54.2142","-130.1155","467.00","Canada"
"Mont-Orford","45.3661","-72.1838","4337.00","Canada"
"Southern Harbour","47.7222","-53.9533","369","Canada"
"Greenstone","50.0000","-86.7333","4636","Canada"
"St. Vincent's-St. Stephen's-Peter's River","46.7700","-53.5800","313","Canada"
"B-Say-Tah","50.7810","-103.8370","156","Canada"
"Bracken","49.1780","-108.0960","25","Canada"
"Bracebridge","45.0333","-79.3000","16010","Canada"
"Buctouche","46.4719","-64.7249","2361","Canada"
"Rosenort","49.4582","-97.4366","701.00","Canada"
"Chisasibi","53.6645","-78.7938","4872.00","Canada"
"Saint-Louis","45.8500","-72.9833","775","Canada"
"Ranchero","50.6455","-119.2139","959.00","Canada"
"Stone Mills","44.4500","-76.9167","7702","Canada"
"Saint-Michel","45.2333","-73.5667","2884","Canada"
"Saint-Theophile","45.9333","-70.4833","743","Canada"
"Sainte-Marie-de-Blandford","46.3200","-72.1800","466","Canada"
"Corman Park No. 344","52.2291","-106.8002","8568.00","Canada"
"Wildwood","52.2074","-122.0870","537.00","Canada"
"Kingsley No. 124","50.1791","-102.6216","444.00","Canada"
"Pilger","52.4400","-105.2970","74","Canada"
"McCreary","50.7494","-99.4850","2011","Canada"
"Petley","48.1505","-53.7442","88.00","Canada"
"Saint-Simon","45.7190","-72.8463","1413.00","Canada"
"Tramping Lake","52.1350","-108.9490","60","Canada"
"Porcupine No. 395","52.6322","-103.0345","803.00","Canada"
"Martin No. 122","50.1909","-101.8687","289.00","Canada"
"Sainte-Madeleine-de-la-Riviere-Madeleine","49.2333","-65.3000","334","Canada"
"Deloraine-Winchester","49.1775","-100.4322","2011","Canada"
"Saint-Narcisse-de-Beaurivage","46.4833","-71.2333","1091","Canada"
"Macrorie","51.3220","-107.0820","68","Canada"
"Saint-Joseph-de-Coleraine","45.9700","-71.3700","1870","Canada"
"Edgewood","49.7812","-118.1435","236.00","Canada"
"Bezanson","55.2289","-118.3597","107.00","Canada"
"Enderby","50.5508","-119.1397","2964","Canada"
"Arkona","43.0750","-81.8340","634.00","Canada"
"Flett's Springs No. 429","52.8001","-104.8411","732.00","Canada"
"Assiginack","45.7333","-81.8000","1013","Canada"
"Saint-Etienne-de-Beauharnois","45.2500","-73.9200","831","Canada"
"Shuniah","48.5833","-88.8333","2798","Canada"
"Sandy Bay","55.5306","-102.3156","697.00","Canada"
"Wiseton","51.3144","-107.6492","96","Canada"
"Dundurn No. 314","51.8261","-106.5416","2404.00","Canada"
"Woss","50.2127","-126.6004","189.00","Canada"
"Beaulac","45.8252","-71.3607","434.00","Canada"
"Woolwich","43.5667","-80.4833","25006","Canada"
"Kazabazua","45.9500","-76.0167","945","Canada"
"Prairiedale No. 321","51.7503","-109.5489","247.00","Canada"
"Saint-Maurice","46.4667","-72.5333","2775","Canada"
"Frontenac Islands","44.2000","-76.3833","1760","Canada"
"West End","50.5490","-102.4140","37","Canada"
"Montcalm","49.1775","-97.3247","1260.00","Canada"
"Frelighsburg","45.0461","-72.8106","1111.00","Canada"
"Chancellor","51.0879","-112.8363","5.00","Canada"
"Aguanish","50.2167","-62.0833","245","Canada"
"Tiny","44.6833","-79.9500","11787","Canada"
"Kerns","47.6083","-79.8000","358","Canada"
"Fortierville","46.4800","-72.0300","706","Canada"
"Abbotsford","49.0500","-122.3167","141397","Canada"
"Prelate","50.8520","-109.4090","126","Canada"
"Black River-Matheson","48.5333","-80.4667","2438","Canada"
"Qu'Appelle","50.5410","-103.8740","668","Canada"
"Val-Alain","46.4167","-71.7500","955","Canada"
"Hindon Hill","44.9333","-78.7333","6088","Canada"
"Springdale","49.4974","-56.0727","2971","Canada"
"Fort Frances","48.6167","-93.4000","7739","Canada"
"Hillsborough","45.9052","-64.7652","1308.00","Canada"
"Saint-Luc-de-Bellechasse","46.5000","-70.4833","480","Canada"
"Brancepeth","53.0016","-105.2620","35.00","Canada"
"Tyendinaga","44.3000","-77.2000","4297","Canada"
"Charlottetown (Labrador)","52.7658","-56.1453","290.00","Canada"
"Tobiano","50.7385","-120.6972","170.00","Canada"
"Riverview","46.0613","-64.8052","19667","Canada"
"Colombier","48.8667","-68.8500","747","Canada"
"South Bruce Peninsula","44.7333","-81.2000","8416","Canada"
"Tingwick","45.8873","-71.9244","1410.00","Canada"
"Lake Cowichan","48.8258","-124.0542","3226","Canada"
"McMasterville","45.5500","-73.2333","5615","Canada"
"Duchess","50.7333","-111.9000","1085","Canada"
"Noyan","45.0667","-73.3000","1297","Canada"
"Vulcan","50.4000","-113.2500","1917","Canada"
"Kingston","45.4663","-66.0217","2913.00","Canada"
"Spuzzum","49.6837","-121.4149","22.00","Canada"
"Amherst","46.0500","-74.7667","1524","Canada"
"Grey Highlands","44.3333","-80.5000","9804","Canada"
"Coalfields No. 4","49.1311","-102.6104","368.00","Canada"
"Lac-Sainte-Marie","45.9500","-75.9500","611","Canada"
"Marwayne","53.5167","-110.3333","564","Canada"
"Saint-Bernard","46.5000","-71.1333","2131","Canada"
"Veinerville","50.0342","-110.6280","83.00","Canada"
"Flin Flon (Part)","54.7712","-101.8419","4982.00","Canada"
"Saint-Eugene-d'Argentenay","48.9833","-72.2833","546","Canada"
"Itaska Beach","53.0713","-114.0780","23","Canada"
"Tadmore","51.8347","-102.4793","20.00","Canada"
"Gameti","64.1139","-117.3102","278.00","Canada"
"Berwick","45.0475","-64.7360","2509","Canada"
"Airdrie","51.2917","-114.0144","61581","Canada"
"Nairn and Hyman","46.3655","-81.6316","342.00","Canada"
"Lansdowne House","52.2149","-87.8927","0.00","Canada"
"Bloomingdale","43.5087","-80.4615","230.00","Canada"
"Sainte-Anne-de-la-Pocatiere","47.3500","-70.0000","1717","Canada"
"Sault Ste. Marie","46.5333","-84.3500","73368","Canada"
"Big Shell","53.1970","-107.1350","48","Canada"
"Trois-Rives","47.0000","-72.7500","490","Canada"
"Conche","50.9000","-55.9000","170","Canada"
"Sainte-Marguerite-Marie","48.3167","-67.0833","203","Canada"
"Glendon","54.2483","-111.1536","493","Canada"
"Roxton-Sud","45.5521","-72.5265","1086.00","Canada"
"Victory No. 226","50.8413","-107.5386","380.00","Canada"
"Kingman","53.2136","-112.7470","103.00","Canada"
"Sainte-Catherine-de-Hatley","45.2500","-72.0500","2464","Canada"
"La Presentation","45.6667","-73.0500","2466","Canada"
"Morden","49.1919","-98.1006","8668","Canada"
"St. Louis No. 431","52.8277","-105.7873","1086.00","Canada"
"Ajax","43.8583","-79.0364","119677","Canada"
"Duntara","48.5861","-53.3811","30","Canada"
"Brock","51.4417","-108.7169","142","Canada"
"Hilliers","49.3022","-124.4727","1540.00","Canada"
"Orkney No. 244","51.2557","-102.6469","1875.00","Canada"
"Veteran","52.0036","-111.1236","207","Canada"
"Whitecap","51.8808","-106.7188","451.00","Canada"
"Laurierville","46.3000","-71.6500","1454","Canada"
"Vaughan","43.8333","-79.5000","306233","Canada"
"Westport","49.7830","-56.6330","195","Canada"
"Westport","44.2561","-66.3652","218.00","Canada"
"Salluit","62.2013","-75.6337","1483.00","Canada"
"Hafford","52.8420","-107.3820","407","Canada"
"Saint-Augustin-de-Woburn","45.3800","-70.8500","695","Canada"
"Lanark","45.0179","-76.3711","778.00","Canada"
"Bonne-Esperance","51.3833","-57.6667","732","Canada"
"Saint-Louis de Kent","46.7380","-64.9740","856","Canada"
"Lake Lenore","52.3930","-104.9410","284","Canada"
"Saint-Basile","47.4233","-68.1847","592.00","Canada"
"Teulon","50.3858","-97.2611","1201","Canada"
"Saint-Honore","48.5333","-71.0833","5257","Canada"
"Thode","51.7890","-106.4430","157","Canada"
"Star City No. 428","52.7973","-104.3962","918.00","Canada"
"North Vancouver","49.3641","-123.0066","85935.00","Canada"
"North Battleford No. 437","52.8132","-108.1137","725.00","Canada"
"Zenon Park","53.0640","-103.7540","231","Canada"
"Mountain (South)","51.9036","-100.4445","419.00","Canada"
"Cowichan Bay","48.7666","-123.6743","2086.00","Canada"
"Sainte-Helene-de-Bagot","45.7333","-72.7333","1637","Canada"
"Pleasantview","49.3612","-55.3403","43.00","Canada"
"South Lake","50.6780","-105.5660","169","Canada"
"Enfield No. 194","50.7109","-106.6774","226.00","Canada"
"Cap Pele","46.2172","-64.2822","2425.00","Canada"
"Oakdale No. 320","51.7510","-109.1935","253.00","Canada"
"Mirabel","45.6500","-74.0833","50513","Canada"
"Central Butte","50.7920","-106.5080","372","Canada"
"Cardston","49.2025","-113.3019","3585","Canada"
"Taloyoak","69.5554","-93.4972","1029.00","Canada"
"Southampton","46.0789","-67.3124","1484.00","Canada"
"Plenty","51.8010","-108.8380","164","Canada"
"Bay de Verde","48.0833","-52.8944","392","Canada"
"Saint-Pie-de-Guire","46.0000","-72.7500","456","Canada"
"Fort Providence","61.4213","-117.6176","695.00","Canada"
"Bassano","50.7833","-112.4667","1206","Canada"
"Portugal Cove South","46.7106","-53.2578","150","Canada"
"Lund","49.9868","-124.7493","287.00","Canada"
"Cambridge Bay","69.1528","-105.1707","1766.00","Canada"
"Kitimat","54.0000","-128.7000","8131","Canada"
"Coaldale","49.7333","-112.6167","8215","Canada"
"Saint George","45.2916","-66.8501","2341.00","Canada"
"Sainte-Francoise","46.4500","-71.9833","479","Canada"
"Orangeville","43.9167","-80.1167","30734","Canada"
"Spring Lake","53.5194","-114.1244","699","Canada"
"Ragueneau","49.0667","-68.5333","1405","Canada"
"Webb No. 138","50.1353","-108.2613","541.00","Canada"
"Traytown","48.6611","-53.9783","267","Canada"
"Saint-Pierre-de-la-Riviere-du-Sud","46.9167","-70.6333","920","Canada"
"Beckwith","45.0833","-76.0667","7644","Canada"
"South Baptiste","54.7240","-113.5693","66","Canada"
"Weldford","46.5221","-65.1114","1338.00","Canada"
"Bryant's Cove","47.6714","-53.1872","395","Canada"
"Trenton","45.6193","-62.6332","2474","Canada"
"Escuminac Flats","48.1238","-66.4926","544.00","Canada"
"Saint-Rene-de-Matane","48.7000","-67.3833","1089","Canada"
"Grandes-Bergeronnes","48.2500","-69.5500","693","Canada"
"Belledune","47.9000","-65.8167","1548","Canada"
"Burstall","50.6500","-109.9167","300","Canada"
"Fairhaven","47.5369","-53.8896","85.00","Canada"
"Tache","49.7081","-96.6736","11568","Canada"
"Baie-Comeau","49.2167","-68.1500","21536","Canada"
"Telkwa","54.6972","-127.0500","1327","Canada"
"Disraeli","45.9000","-71.3500","2502","Canada"
"McDowell Lake","52.2127","-92.7160","0.00","Canada"
"Saint-Lucien","45.8667","-72.2667","1584","Canada"
"Moosehide Creek 2","64.1085","-139.4244","0.00","Canada"
"Ituna Bon Accord No. 246","51.2547","-103.4842","374.00","Canada"
"Hilda","50.4805","-110.0317","45.00","Canada"
"Waiparous","51.2821","-114.8410","49","Canada"
"Bromont","45.3167","-72.6500","7649","Canada"
"Elgin","45.0222","-74.2292","401","Canada"
"Standhope","49.2700","-55.0972","280.00","Canada"
"Fort Simpson","61.8082","-121.3199","1202.00","Canada"
"Saint-Alexandre-des-Lacs","48.4667","-67.3000","258","Canada"
"North Bay","46.3000","-79.4500","51553","Canada"
"Saint-Dominique-du-Rosaire","48.7667","-78.1167","434","Canada"
"Bay L'Argent","47.5458","-54.8828","241","Canada"
"Byemoor","51.9793","-112.2842","35.00","Canada"
"Paulatuk","69.3253","-123.9851","265.00","Canada"
"Stony Plain","53.5264","-114.0069","17189","Canada"
"Tsiigehtchic","67.4286","-133.6926","172.00","Canada"
"Florenceville","46.4435","-67.6152","1604","Canada"
"Trochu","51.8236","-113.2328","1058","Canada"
"Seebe","51.0972","-115.0569","0.00","Canada"
"Saint-Francois-Xavier-de-Viger","47.8500","-69.2500","256","Canada"
"Tourville","47.1000","-69.9833","633","Canada"
"Sorel-Tracy","46.0333","-73.1167","41629","Canada"
"Brighton","44.1222","-77.7642","11844","Canada"
"Ninette","49.4001","-99.6330","221.00","Canada"
"Saint-Joseph-de-Lepage","48.5800","-68.1700","527","Canada"
"Saint-Fabien-de-Panet","46.6500","-70.1500","992","Canada"
"Saint-Marc-des-Carrieres","46.6833","-72.0500","2862","Canada"
"Jansen","51.7830","-104.7170","96","Canada"
"Havelock","45.0500","-73.7500","756","Canada"
"Chandler","48.3500","-64.6833","7703","Canada"
"Saint-Alphonse-de-Granby","45.3333","-72.8167","3125","Canada"
"Coronach","49.1089","-105.5122","643.00","Canada"
"Burwash Landing","61.3513","-139.0093","72.00","Canada"
"Cedar","49.0853","-123.8259","2836.00","Canada"
"Skeetchestn","50.8193","-120.9584","293.00","Canada"
"Milden","51.4833","-107.5167","167","Canada"
"East Zorra-Tavistock","43.2333","-80.7833","7129","Canada"
"Saint-Jean-sur-Richelieu","45.3167","-73.2667","92394","Canada"
"Meadowbank","46.2000","-63.2320","338","Canada"
"Palmarolle","48.6667","-79.2000","1465","Canada"
"Nantes","45.6333","-71.0333","1374","Canada"
"Turtleford","53.3833","-108.9500","525","Canada"
"Saint-Wenceslas","46.1667","-72.3333","1064","Canada"
"Saint-Hubert-de-Riviere-du-Loup","47.8167","-69.1500","1235","Canada"
"Saint-Cyrille-de-Lessard","47.0333","-70.2833","753","Canada"
"Cockburn Island","45.9167","-83.3833","0.00","Canada"
"Ellison","49.9646","-119.3178","3094.00","Canada"
"St. Catharines","43.1833","-79.2333","309319","Canada"
"Cocagne","46.3406","-64.6200","2649","Canada"
"St. John's","47.4817","-52.7971","108860.00","Canada"
"Senneville","45.4167","-73.9500","920","Canada"
"Victoria","49.6644","-98.9153","1514.00","Canada"
"Saint-Elzear-de-Temiscouata","47.5833","-69.1000","343","Canada"
"Hope","48.0500","-65.2000","630","Canada"
"Wagner","55.3623","-115.0211","348.00","Canada"
"Minto","43.9167","-80.8667","8671","Canada"
"Oxbow","49.2333","-102.1667","1328","Canada"
"Cawston","49.1781","-119.7540","956.00","Canada"
"Saint-Zenon","46.5500","-73.8167","1250","Canada"
"Sainte-Apolline-de-Patton","46.8000","-70.2000","621","Canada"
"Saint-Hyacinthe","45.6167","-72.9500","59614","Canada"
"Fort Good Hope","66.2666","-128.5781","516.00","Canada"
"Meath Park","53.4260","-105.3670","179","Canada"
"Saint Stephen","45.2000","-67.2833","4415","Canada"
"Fassett","45.6500","-74.8667","431","Canada"
"Round Hill No. 467","53.0591","-107.9697","361.00","Canada"
"Riviere-Eternite","48.2556","-70.4139","413","Canada"
"Saint-Charles-sur-Richelieu","45.6833","-73.1833","1643","Canada"
"Perth","44.9000","-76.2500","5930","Canada"
"Duffield","53.5278","-114.3466","67.00","Canada"
"Joussard","55.3879","-115.9406","223.00","Canada"
"Sainte-Brigide-d'Iberville","45.3167","-73.0667","1331","Canada"
"Nippers Harbour","49.7864","-55.8616","85","Canada"
"Alameda","49.4333","-102.4667","369","Canada"
"Jaffray","49.3695","-115.2951","554.00","Canada"
"Bothwell","42.6312","-81.8716","856.00","Canada"
"Northern Arm","49.1861","-55.3864","426","Canada"
"Kugaaruk","68.5322","-89.8122","933.00","Canada"
"Calahoo","53.7133","-113.9558","85.00","Canada"
"Oakland-Wawanesa","49.6208","-99.8481","2011","Canada"
"Wilcox","50.0920","-104.7200","322","Canada"
"Saint-Valerien","48.3333","-68.6667","893","Canada"
"St. Peters Bay","46.4170","-62.5810","253","Canada"
"Alcomdale","53.8930","-113.8401","88.00","Canada"
"South-West Oxford","42.9500","-80.8000","7664","Canada"
"Rawdon","46.0500","-73.7167","10416","Canada"
"Kugluktuk","67.8055","-115.3223","1491.00","Canada"
"Cadillac","49.7170","-107.7330","92","Canada"
"Causapscal","48.3667","-67.2333","2458","Canada"
"Maxville","45.2887","-74.8554","816.00","Canada"
"Shellbrook","53.2167","-106.4000","1444","Canada"
"Paradise Hill","53.5320","-109.4510","495","Canada"
"Monarch","49.8048","-113.1091","227.00","Canada"
"Glenside No. 377","52.3800","-107.9276","248.00","Canada"
"Oromocto","45.8488","-66.4788","9223","Canada"
"Saint-Roch-Ouest","45.8500","-73.6500","267","Canada"
"L'Ile-d'Anticosti","49.5000","-63.0000","218","Canada"
"Thamesville","42.5525","-81.9732","861.00","Canada"
"Harvey","45.7080","-64.8125","333.00","Canada"
"Lac-Tremblant-Nord","46.2333","-74.6333","47","Canada"
"Lantzville","49.2460","-124.1181","736.00","Canada"
"Coldstream","50.2200","-119.2481","10314","Canada"
"Richmond","45.6667","-72.1500","3232","Canada"
"Sturgis","51.9380","-102.5400","620","Canada"
"Durieu","49.2202","-122.2399","340.00","Canada"
"Jean Marie River","61.5104","-120.6505","77.00","Canada"
"Elkford","50.0214","-114.9158","2499","Canada"
"Hussar","51.0419","-112.6831","190","Canada"
"Saint-Bruno-de-Montarville","45.5333","-73.3500","26107","Canada"
"Green Lake","54.2909","-107.7871","418","Canada"
"Lingwick","45.5800","-71.3300","399","Canada"
"Dufferin","45.1792","-67.2110","573.00","Canada"
"New Westminster","49.2069","-122.9111","70996","Canada"
"Saint Marys","46.1748","-66.4897","4837.00","Canada"
"Macklin","52.3300","-109.9400","1415","Canada"
"Cavendish","47.7176","-53.4910","301.00","Canada"
"East Hawkesbury","45.5167","-74.4667","3296","Canada"
"Qualicum","49.3977","-124.6138","74.00","Canada"
"Shuswap","50.5373","-116.0203","319.00","Canada"
"Gadsby","52.2958","-112.3619","40","Canada"
"Tabusintac","47.3451","-65.0772","861.00","Canada"
"Summerford","49.4908","-54.8119","906","Canada"
"Frederickton","49.4248","-54.3594","221.00","Canada"
"Laird","52.7120","-106.5900","267","Canada"
"Redvers","49.5717","-101.6992","975","Canada"
"Terrell No. 101","49.9124","-105.4877","241.00","Canada"
"Alberton","46.8167","-64.0667","1145","Canada"
"Benoit","47.4898","-64.9633","198.00","Canada"
"St. Clair","42.7833","-82.3500","14086","Canada"
"Pont-Rouge","46.7500","-71.7000","8723","Canada"
"Grand Manan","44.6900","-66.8200","2360","Canada"
"Oxford","45.7306","-63.8733","1190","Canada"
"Cape Broyle","47.0833","-52.9500","489","Canada"
"Rosedale","50.4397","-99.5389","1672.00","Canada"
"La Visitation-de-l'Ile-Dupas","46.0833","-73.1500","619","Canada"
"Ashcroft","50.7256","-121.2806","1558","Canada"
"Trossachs","49.6387","-104.2267","42.00","Canada"
"Lake of Bays","45.3043","-79.0180","3167.00","Canada"
"Lake Lenore No. 399","52.5396","-104.7993","587.00","Canada"
"Saint-Blaise-sur-Richelieu","45.2167","-73.2833","1837","Canada"
"Perce","48.5333","-64.2167","3312","Canada"
"Edam","53.1833","-108.7667","480","Canada"
"Saint-Boniface","46.5000","-72.8167","4511","Canada"
"Saint-Gilbert","46.7167","-72.0000","282","Canada"
"Allardville","47.4321","-65.4383","2032.00","Canada"
"Hepburn","52.5256","-106.7306","562","Canada"
"Saint-Epiphane","47.9000","-69.3333","849","Canada"
"Aberdeen","52.3261","-106.2917","622","Canada"
"Sainte-Praxede","45.9000","-71.2500","363","Canada"
"Nokomis","51.5100","-105.0090","436","Canada"
"Redland","51.2898","-113.0083","15.00","Canada"
"Val Marie No. 17","49.2424","-107.7813","413.00","Canada"
"Clemenceau","52.6644","-102.5270","10.00","Canada"
"Franklin Centre","45.0467","-73.9005","1636.00","Canada"
"Raymore","51.2420","-104.3140","568","Canada"
"Smeaton","53.4914","-104.8108","182.00","Canada"
"Sainte-Paule","48.6667","-67.5500","201","Canada"
"Andover","46.7017","-67.7530","891.00","Canada"
"Leroy","52.0020","-104.7350","427","Canada"
"Amisk","52.5667","-111.0608","204","Canada"
"Gore","45.7700","-74.2500","1775","Canada"
"Clermont","47.6833","-70.2333","3118","Canada"
"Landmark","49.6711","-96.8179","1292.00","Canada"
"Montreal","45.5089","-73.5617","3519595","Canada"
"Vaudreuil-Dorion","45.4000","-74.0333","38117","Canada"
"Pontiac","45.5833","-76.1333","5850","Canada"
"Neville","49.9710","-107.6730","83","Canada"
"Plaster Rock","46.8833","-67.3833","1023","Canada"
"Amsterdam","51.7482","-102.4586","25.00","Canada"
"Old Crow","67.5703","-139.8230","221.00","Canada"
"Macamic","48.7500","-79.0000","2734","Canada"
"Larkspur","54.4272","-113.7611","44","Canada"
"Hudson","47.5372","-79.8242","503","Canada"
"Fox Valley","50.4667","-109.4833","249","Canada"
"Notre-Dame-des-Pins","46.1833","-70.7167","1227","Canada"
"Normans Cove","47.5627","-53.6898","666.00","Canada"
"St. George's Hill","55.8800","-108.9625","131.00","Canada"
"Parisville","46.5167","-72.0667","528","Canada"
"Grenville","45.6333","-74.6000","1577","Canada"
"Beauceville","46.2000","-70.7833","6354","Canada"
"Central Frontenac","44.7167","-76.8000","4373","Canada"
"Bittern Lake","53.0045","-113.0590","220","Canada"
"Silton","50.8044","-104.9128","71.00","Canada"
"Fish Creek No. 402","52.5972","-105.9427","345.00","Canada"
"Stettler","52.3236","-112.7192","5952","Canada"
"Buena Vista","50.7833","-104.9417","612","Canada"
"Hebbville","44.3397","-64.5440","802.00","Canada"
"Tarbutt and Tarbutt Additional","46.3533","-84.0031","534.00","Canada"
"Beachside","49.6401","-55.8971","132","Canada"
"Kuujjuarapik","55.2959","-77.7431","686.00","Canada"
"Fredericton Junction","45.6500","-66.6000","704","Canada"
"North Stormont","45.2167","-75.0000","6873","Canada"
"High River","50.5808","-113.8744","13584","Canada"
"Priestville","45.5730","-62.6234","163.00","Canada"
"Kedgwick","47.6456","-67.3431","1979","Canada"
"Cantley","45.5667","-75.7833","10699","Canada"
"Grandview Beach","50.8730","-105.1090","35","Canada"
"Bayside","45.1634","-67.1090","347.00","Canada"
"Simmie","49.9440","-108.1058","41.00","Canada"
"Hall Beach","68.7750","-81.2626","848.00","Canada"
"Saint-Pierre-de-l'Ile-d'Orleans","46.8833","-71.0667","1789","Canada"
"Carcross 4","60.1590","-134.6825","35.00","Canada"
"Chipman","46.1710","-65.8840","1104","Canada"
"Shelburne","44.0833","-80.2000","8126","Canada"
"Robert's Arm","49.4881","-55.8108","805","Canada"
"Lancaster","45.1416","-74.5023","750.00","Canada"
"Saint-Benoit-du-Lac","45.1667","-72.2667","50","Canada"
"Saint-Sebastien","45.1167","-73.1500","736","Canada"
"Saint-Patrice-de-Sherrington","45.1667","-73.5167","1971","Canada"
"Sainte-Therese-de-Gaspe","48.4167","-64.4167","1055","Canada"
"West Grey","44.1833","-80.8167","12518","Canada"
"Morinville","53.8022","-113.6497","9848","Canada"
"Sainte-Anne-de-la-Perade","46.5833","-72.2000","2072","Canada"
"Flaxcombe","51.4590","-109.6220","129","Canada"
"Camperville","51.9838","-100.1585","820.00","Canada"
"Headingley","49.8681","-97.3908","3579","Canada"
"Meacham","52.1060","-105.7680","84","Canada"
"Cascapedia--Saint-Jules","48.2500","-65.9167","741","Canada"
"Sainte-Felicite","48.9000","-67.3333","1175","Canada"
"Little Bay East","47.5558","-54.8639","127","Canada"
"Kincaid","49.6710","-107.0060","111","Canada"
"Hawke's Bay","50.6139","-57.1667","315","Canada"
"Sanford","49.6831","-97.4408","937.00","Canada"
"Souris Valley No. 7","49.1304","-103.8132","249.00","Canada"
"Westbury","45.5000","-71.6700","997","Canada"
"Saint-Gedeon-de-Beauce","45.8500","-70.6333","2277","Canada"
"Ming's Bight","49.9764","-56.0467","319","Canada"
"Nedelec","47.6833","-79.4333","403","Canada"
"Saint-Leon-de-Standon","46.4833","-70.6167","1128","Canada"
"Lytton","50.2250","-121.5767","249","Canada"
"Victoriaville","46.0500","-71.9667","45309","Canada"
"Gillies","48.2667","-89.7000","474","Canada"
"Plummer Additional","46.3667","-83.7667","660","Canada"
"Riviere-Bleue","47.4333","-69.0500","1299","Canada"
"Vavenby","51.5873","-119.7262","252.00","Canada"
"Hastings Highlands","45.2333","-77.9333","4078","Canada"
"Wentworth","45.8000","-74.3700","533","Canada"
"Sunset Point","53.6924","-114.3471","169","Canada"
"Cochrane","51.1890","-114.4670","25853","Canada"
"Meadow Lake","54.1242","-108.4358","5344","Canada"
"La Motte","48.3333","-78.1167","457","Canada"
"Savona","50.7543","-120.8366","538.00","Canada"
"Dunfield","48.3533","-53.3753","78.00","Canada"
"Dryden","49.7833","-92.8333","7749","Canada"
"Malartic","48.1333","-78.1333","3449","Canada"
"Monet No. 257","51.1986","-107.9974","445.00","Canada"
"Beausejour","50.0622","-96.5161","3126","Canada"
"Trois-Pistoles","48.1200","-69.1800","3456","Canada"
"Corner Brook","48.9287","-57.9260","19806.00","Canada"
"Nelson","49.5000","-117.2833","10664","Canada"
"Senlac No. 411","52.5363","-109.7310","216.00","Canada"
"Sainte-Helene-de-Mancebourg","48.7333","-79.3000","354","Canada"
"Brenda-Waskada","49.1775","-100.7019","2011","Canada"
"Battleford","52.7383","-108.3153","4065","Canada"
"Neuville","46.7000","-71.5833","4392","Canada"
"Albertville","48.3167","-67.3667","226","Canada"
"Benson No. 35","49.3921","-103.0140","472.00","Canada"
"St. Lawrence","46.9244","-55.3928","1192","Canada"
"Saint-Andre-Avellin","45.7167","-75.0667","3749","Canada"
"Aston-Jonction","46.1667","-72.2333","410","Canada"
"Pincher Creek","49.4861","-113.9500","3642","Canada"
"Burns Lake","54.2292","-125.7625","1779","Canada"
"Courcelles","45.8875","-71.0000","950","Canada"
"Scott No. 98","49.9169","-104.2531","195.00","Canada"
"Fillmore","49.8780","-103.4260","311","Canada"
"Meaford","44.5800","-80.7300","10991","Canada"
"Boucherville","45.6000","-73.4500","40753","Canada"
"Winfield","52.9652","-114.4217","238.00","Canada"
"Flin Flon","54.7667","-101.8778","5185","Canada"
"Choiceland","53.4900","-104.4860","359","Canada"
"Lac Pelletier No. 107","49.9168","-107.8428","546.00","Canada"
"Beresford","47.7181","-65.8794","6248.00","Canada"
"Saint-Jean-de-Dieu","48.0000","-69.0500","1606","Canada"
"Tecumseh No. 65","49.6542","-103.0226","271.00","Canada"
"Consort","52.0072","-110.7664","729","Canada"
"Tehkummah","45.6500","-81.9800","436","Canada"
"Lundbreck","49.5859","-114.1644","236.00","Canada"
"Goodsoil","54.3990","-109.2380","282","Canada"
"Waltham","45.9167","-76.9167","378","Canada"
"Thorhild","54.1594","-113.1296","531.00","Canada"
"Argyle","43.8000","-65.8500","7899","Canada"
"Minton","49.1670","-104.5860","60","Canada"
"Punnichy","51.3720","-104.2930","245","Canada"
"Riverside No. 168","50.5252","-108.2979","477.00","Canada"
"Disley","50.6150","-105.0950","67","Canada"
"Laidlaw","49.3268","-121.6067","219.00","Canada"
"Kangirsuk","60.0372","-70.0348","567.00","Canada"
"Logan Lake","50.4911","-120.8153","2073","Canada"
"Irishtown-Summerside","48.9833","-57.9500","1418","Canada"
"Gladmar","49.1638","-104.4554","57.00","Canada"
"Coteau-du-Lac","45.3000","-74.1800","7044","Canada"
"Ilford","56.0680","-95.6040","106.00","Canada"
"Dubuc","50.6840","-102.4790","61","Canada"
"Saint-Damase-de-L'Islet","47.1924","-70.0352","552.00","Canada"
"Patuanak","55.8950","-107.7033","73.00","Canada"
"Lost River No. 313","51.7509","-106.1458","242.00","Canada"
"Kandahar","51.7586","-104.3600","20.00","Canada"
"Levis","46.8000","-71.1833","143414","Canada"
"Cambria No. 6","49.1307","-103.4115","309.00","Canada"
"Messines","46.2333","-76.0167","1608","Canada"
"Chitek","53.7530","-107.7316","138.00","Canada"
"Gleichen","50.8678","-113.0545","324.00","Canada"
"Crutwell","53.2190","-106.0704","57.00","Canada"
"Senlac","52.4931","-109.7081","66","Canada"
"Chartierville","45.3000","-71.2000","307","Canada"
"Saint-Honore-de-Temiscouata","47.7000","-69.1333","780","Canada"
"Winkler","49.1817","-97.9397","12660","Canada"
"Dewdney","49.1513","-122.2077","550.00","Canada"
"Mistatim","52.8670","-103.3570","73","Canada"
"Marston","45.5000","-71.0000","662","Canada"
"La Prairie","45.4200","-73.5000","23357","Canada"
"Lac-Poulin","46.1000","-70.8167","134","Canada"
"Desbiens","48.4167","-71.9500","1053","Canada"
"Turnor Lake","56.4728","-108.7061","149.00","Canada"
"Moose Creek No. 33","49.3925","-102.2084","379.00","Canada"
"La Vallee","48.6167","-93.6500","938","Canada"
"Newbrook","54.3258","-112.9496","92.00","Canada"
"Val-Brillant","48.5333","-67.5500","955","Canada"
"Miscouche","46.4327","-63.8678","2","Canada"
"Alexandria","52.5699","-122.4841","35.00","Canada"
"Neskantaga","52.1968","-88.0354","237.00","Canada"
"Lanoraie","45.9667","-73.2167","4787","Canada"
"Saint-Jacques-le-Mineur","45.2833","-73.4167","1672","Canada"
"Brokenhead","50.1428","-96.5319","5122.00","Canada"
"Kavanagh","53.1817","-113.5216","47.00","Canada"
"Tulita","64.9186","-125.4611","477.00","Canada"
"Hill Spring","49.2908","-113.6239","162","Canada"
"Latchford","47.3289","-79.8103","313","Canada"
"Pangnirtung","66.1436","-65.6829","1481.00","Canada"
"Valleyview","55.0686","-117.2683","1863","Canada"
"Harbour Grace","47.6917","-53.2167","2995","Canada"
"Rossian","54.9544","-112.3722","113.00","Canada"
"Sicamous","50.8378","-118.9703","2429","Canada"
"Authier","48.7333","-78.8500","282","Canada"
"Minaki","50.0158","-94.6647","173.00","Canada"
"Shepard","50.9528","-113.9050","10.00","Canada"
"Riviere Verte","47.3167","-68.1500","724","Canada"
"Musquash","45.1836","-66.3514","1194.00","Canada"
"Neudorf","50.7097","-103.0142","2","Canada"
"Morell","46.4167","-62.7000","297.00","Canada"
"Hyas","51.8750","-102.2380","70","Canada"
"Dumfries","45.8755","-67.2132","356.00","Canada"
"Russell-Binscarth","50.7272","-101.3689","2011","Canada"
"Siegas","47.2203","-67.9732","201.00","Canada"
"Ferguson","45.5088","-79.9966","392.00","Canada"
"Foremost","49.4789","-111.4403","541","Canada"
"Saint-Camille","45.6833","-71.7000","529","Canada"
"Marieville","45.4333","-73.1667","10094","Canada"
"Notre-Dame-des-Anges","46.8167","-71.2333","318","Canada"
"Limerick","49.6500","-106.2670","115","Canada"
"Wakefield","46.2406","-67.6248","2767.00","Canada"
"Revelstoke","50.9981","-118.1956","2","Canada"
"Sables-Spanish Rivers","46.2333","-82.0000","3214","Canada"
"Milltown-Head of Bay d'Espoir","47.9258","-55.7442","749","Canada"
"Centreville-Wareham-Trinity","48.9879","-53.9069","1147","Canada"
"Maliotenam","50.2114","-66.1911","1542.00","Canada"
"Saint-Leolin","47.7675","-65.1504","684","Canada"
"Welland","42.9833","-79.2333","52293","Canada"
"Erickson","50.4983","-99.9132","461.00","Canada"
"Duncan","48.7787","-123.7079","44451","Canada"
"Baie-Johan-Beetz","50.2833","-62.8000","81","Canada"
"Athabasca","54.7197","-113.2856","2965","Canada"
"Pouce Coupe","55.7158","-120.1339","792","Canada"
"Lake of the Woods","49.0000","-94.3833","230","Canada"
"Elbow","51.1440","-106.5590","337","Canada"
"Chapleau","47.8333","-83.4000","1964","Canada"
"Buchanan","51.7039","-102.7561","218","Canada"
"The Gap No. 39","49.3915","-104.6286","199.00","Canada"
"Meadows","48.9967","-58.0453","626","Canada"
"Saint-Paul-de-Montminy","46.7333","-70.3667","824","Canada"
"Saint-Mathieu-de-Beloeil","45.5667","-73.2000","2624","Canada"
"Grant No. 372","52.3137","-106.0108","466.00","Canada"
"Castlegar","49.3256","-117.6661","8039","Canada"
"McLeod No. 185","50.7139","-103.0693","365.00","Canada"
"Zeballos","49.9833","-126.8453","107","Canada"
"Tuxford","50.5739","-105.5822","113.00","Canada"
"Ranfurly","53.4063","-111.6817","56.00","Canada"
"Pearson","48.1918","-89.6354","347.00","Canada"
"Salmon Arm","50.7022","-119.2722","17706","Canada"
"Wicklow","46.5017","-67.7067","1697.00","Canada"
"Clyde River","70.4632","-68.4822","1053.00","Canada"
"Melbourne","45.5800","-72.1700","1004","Canada"
"Melita","49.2681","-100.9958","1042","Canada"
"Lac-des-Plages","46.0000","-74.9000","431","Canada"
"Okotoks","50.7250","-113.9750","28881","Canada"
"Lac-des-Ecorces","46.5500","-75.3500","2713","Canada"
"Tremblay","47.7484","-65.7504","459.00","Canada"
"Long Harbour-Mount Arlington Heights","47.4294","-53.8583","185","Canada"
"Big Quill No. 308","51.7177","-104.3416","519.00","Canada"
"Etters Beach","51.2350","-105.2990","30","Canada"
"Lac-Saint-Joseph","46.9167","-71.6500","251","Canada"
"Willow Bunch","49.3910","-105.6331","286","Canada"
"Sainte-Louise","47.2833","-70.1333","704","Canada"
"Hay River","60.7531","-115.9004","3528.00","Canada"
"Grand-Metis","48.6300","-68.1300","237","Canada"
"Bowman","45.9167","-75.6667","658","Canada"
"Kayville","49.7259","-105.1502","10.00","Canada"
"Saint-Come--Liniere","46.0667","-70.5167","3274","Canada"
"Ohaton","52.9696","-112.6610","110.00","Canada"
"Conception Harbour","47.4417","-53.2167","685","Canada"
"Laplante","47.7685","-65.7831","328.00","Canada"
"New Richmond","48.1667","-65.8667","3810","Canada"
"Frampton","46.4667","-70.8000","1393","Canada"
"Prince George","53.9169","-122.7494","74003","Canada"
"Cormack","49.2919","-57.4117","597","Canada"
"Stony Rapids","59.2547","-105.8386","243","Canada"
"Timmins","48.4667","-81.3333","41788","Canada"
"Rimbey","52.6333","-114.2167","2567","Canada"
"Vawn","53.1072","-108.6674","49.00","Canada"
"Carmanville","49.4042","-54.2889","740","Canada"
"Saint-Augustin-de-Desmaures","46.7333","-71.4667","18141","Canada"
"Cochin","53.0780","-108.3390","148","Canada"
"Saint-Isidore-de-Clifton","45.2700","-71.5200","716","Canada"
"Nanisivik","73.0044","-84.5449","0.00","Canada"
"Labrecque","48.6667","-71.5333","1215","Canada"
"Caronport","50.4589","-105.8167","994","Canada"
"Saint-Narcisse-de-Rimouski","48.2800","-68.4300","1017","Canada"
"Kylemore","51.9047","-103.6406","0.00","Canada"
"Saint-Roch-de-l'Achigan","45.8500","-73.6000","4892","Canada"
"Markstay","46.4912","-80.4717","2656.00","Canada"
"Esprit-Saint","48.0667","-68.5667","379","Canada"
"Ellice-Archie","50.3239","-101.2729","2011","Canada"
"Mont-Tremblant","46.1167","-74.6000","9646","Canada"
"Evangeline","47.6976","-64.8447","368.00","Canada"
"Trinity","48.3756","-53.3947","169","Canada"
"Rideau Lakes","44.6667","-76.2167","10207","Canada"
"Moncton","46.1328","-64.7714","108620","Canada"
"The Blue Mountains","44.4833","-80.3833","7025","Canada"
"Tofield","53.3703","-112.6667","2081","Canada"
"Chestermere","51.0500","-113.8225","19887","Canada"
"Woodville","44.3992","-78.9897","826.00","Canada"
"Gunn","53.7305","-114.3479","10.00","Canada"
"Manitou Lake No. 442","52.8462","-109.7679","573.00","Canada"
"L'Ile-Dorval","45.4322","-73.7414","5","Canada"
"Kinuso","55.3302","-115.4337","182.00","Canada"
"Saint-Severin","46.6667","-72.5000","860","Canada"
"Saint-Edouard-de-Maskinonge","46.3333","-73.1500","774","Canada"
"Big Stick No. 141","50.1792","-109.4941","136.00","Canada"
"Argyle No. 1","49.1336","-101.5074","290.00","Canada"
"Champion","50.2377","-113.1491","317","Canada"
"Saint-Hermenegilde","45.1000","-71.6667","702","Canada"
"Dalmeny","52.3411","-106.7733","1826","Canada"
"Quispamsis","45.4322","-65.9462","18245","Canada"
"Fleming","50.0708","-101.4989","83","Canada"
"Coldstream","46.3435","-67.4685","151.00","Canada"
"Wabowden","54.9112","-98.6351","442.00","Canada"
"Sainte-Elizabeth-de-Warwick","45.9167","-72.0833","372","Canada"
"Souris-Glenwood","49.6208","-100.2581","2011","Canada"
"Gwynne","52.9876","-113.2024","73.00","Canada"
"Saint-Antoine-de-Tilly","46.6667","-71.5833","1604","Canada"
"Cape Breton","46.1389","-60.1931","94285","Canada"
"Kaslo","49.9133","-116.9114","968","Canada"
"Oakview","50.1964","-100.2167","1626.00","Canada"
"Pickle Lake","51.4667","-90.1833","388","Canada"
"Cape St. George","48.4700","-59.2500","853","Canada"
"Sept-Iles","50.2167","-66.3833","28534","Canada"
"Richelieu","45.4500","-73.2500","5467","Canada"
"Good Hope Lake","59.1884","-129.2229","0.00","Canada"
"Fraser Lake","54.0583","-124.8472","988","Canada"
"Aylesford","45.0258","-64.8388","833.00","Canada"
"Lac-Delage","46.9667","-71.4000","598","Canada"
"Oliver","49.1844","-119.5500","4928.00","Canada"
"Dundurn","51.8096","-106.5076","647","Canada"
"Maryfield","49.8360","-101.5253","348","Canada"
"Madoc","44.5833","-77.5167","2078","Canada"
"Rosedale No. 283","51.5594","-106.4832","526.00","Canada"
"Bowden","51.9306","-114.0256","1240","Canada"
"Archerwill","52.4397","-103.8614","200","Canada"
"Sandy Cove","48.6475","-53.7086","122","Canada"
"Donalda","52.5828","-112.5717","219","Canada"
"Tappen","50.7903","-119.3361","853.00","Canada"
"Buffalo No. 409","52.5195","-108.6887","506.00","Canada"
"White River","48.5833","-85.2833","645","Canada"
"Southbank","54.0216","-125.7776","110.00","Canada"
"Varennes","45.6833","-73.4333","20994","Canada"
"Les Mechins","49.0000","-66.9833","1107","Canada"
"Howick","43.9000","-81.0700","3873","Canada"
"Colwood","48.4236","-123.4958","16859","Canada"
"Douglas No. 436","52.7995","-107.6733","350.00","Canada"
"Notre-Dame-de-Pontmain","46.2833","-75.6333","720","Canada"
"Fosston","52.2060","-103.8300","45","Canada"
"Saint-Basile","46.7500","-71.8167","2463","Canada"
"Notre-Dame-du-Bon-Conseil","46.0000","-72.3500","1404","Canada"
"New-Wes-Valley","49.1500","-53.5833","2172","Canada"
"Bonnechere Valley","45.5333","-77.1000","3674","Canada"
"Selkirk","50.1436","-96.8839","10278","Canada"
"Ogema","49.5736","-104.9156","403","Canada"
"Spirit River","55.7794","-118.8364","995","Canada"
"Clarkes Beach","47.5447","-53.2824","1558","Canada"
"Saint-Octave-de-Metis","48.6000","-68.0800","520","Canada"
"Kentville","45.0775","-64.4958","12088","Canada"
"Strasbourg Station","51.0667","-104.9500","752","Canada"
"Mattawan","46.3333","-78.8333","161","Canada"
"Herschel","51.6378","-108.3554","30.00","Canada"
"Grand le Pierre","47.6825","-54.7834","235","Canada"
"Grand Coulee","50.4310","-104.8230","649","Canada"
"Young","51.7650","-105.7442","239","Canada"
"Ogden","45.0500","-72.1300","770","Canada"
"Riverdale","49.9750","-100.2789","2011","Canada"
"Echo Bay","53.2120","-107.1270","40","Canada"
"Dildo","47.5685","-53.5471","1234.00","Canada"
"Nemaska","51.6688","-76.3361","760.00","Canada"
"Saint-Alban","46.7167","-72.0833","1225","Canada"
"Collette","46.8029","-65.4302","456.00","Canada"
"Saint-Aubert","47.1833","-70.2167","1409","Canada"
"Denholm","52.6570","-108.0110","88","Canada"
"Elgin","45.8063","-65.0333","892.00","Canada"
"Barraute","48.4333","-77.6333","1980","Canada"
"Riviere-Heva","48.2333","-78.2167","1433","Canada"
"Franquelin","49.3667","-67.8333","324","Canada"
"Frontier No. 19","49.1314","-108.8176","326.00","Canada"
"Sceptre","50.9000","-109.2600","99","Canada"
"Saint-Valere","46.0667","-72.1000","1286","Canada"
"Bloomfield","43.9868","-77.2288","576.00","Canada"
"Stonehenge No. 73","49.6231","-106.2052","319.00","Canada"
"Armstrong","47.7083","-79.8250","1166","Canada"
"Ebenezer","51.3697","-102.4483","185","Canada"
"Half Moon Bay","52.3478","-114.1779","42","Canada"
"Renfrew","45.4717","-76.6831","8223","Canada"
"Silver Sands","53.6378","-114.6553","160","Canada"
"Saint-Marc-de-Figuery","48.4667","-78.0500","771","Canada"
"Shamrock No. 134","50.1727","-106.6290","205.00","Canada"
"Kindersley No. 290","51.4894","-109.0979","1049.00","Canada"
"Arviat","61.0996","-94.1688","2657.00","Canada"
"Davin","50.3827","-104.1075","43.00","Canada"
"Saint-Raphael","46.8000","-70.7500","2463","Canada"
"Lipton","50.9030","-103.8488","345.00","Canada"
"The Pas","53.8250","-101.2533","5689","Canada"
"Radway","54.0616","-112.9469","171.00","Canada"
"Milan","45.6000","-71.1333","270","Canada"
"Windermere","50.4856","-115.9948","1092.00","Canada"
"Bowen Island","49.3833","-123.3833","3680","Canada"
"Inverness","46.2000","-61.1000","17235","Canada"
"Chichester","45.9167","-77.1167","348","Canada"
"Marmora and Lake","44.6425","-77.7372","3953","Canada"
"Digby","44.6222","-65.7606","2060","Canada"
"St. Bernard's-Jacques Fontaine","47.5266","-54.9433","433","Canada"
"Port Blandford","48.3500","-54.1667","601","Canada"
"Lomond","50.3539","-112.6408","166","Canada"
"Barons","49.9982","-113.0826","341.00","Canada"
"Val-Joli","45.6000","-71.9700","1501","Canada"
"Macoun","49.2930","-103.2790","246","Canada"
"Bayfield","43.5615","-81.6983","1218.00","Canada"
"Kuujjuaq","58.1429","-68.3742","2754.00","Canada"
"Bladworth","51.3660","-106.1380","60","Canada"
"Obedjiwan","48.6686","-74.9289","2019.00","Canada"
"Saint-Tite-des-Caps","47.1333","-70.7667","1506","Canada"
"Pleasantdale No. 398","52.5335","-104.3877","596.00","Canada"
"Thornton","44.2697","-79.7192","986.00","Canada"
"Prince Rupert","54.3122","-130.3271","12220","Canada"
"Bonsecours","45.4200","-72.2800","577","Canada"
"Robinson","45.8649","-82.8798","110.00","Canada"
"Pilley's Island","49.5000","-55.7167","294","Canada"
"Saint-Cuthbert","46.1500","-73.2333","1839","Canada"
"Cold Lake","54.4642","-110.1825","14961","Canada"
"Dunsmuir","49.3696","-124.5772","1330.00","Canada"
"Brigham","45.2500","-72.8500","2457","Canada"
"Beaubassin East / Beaubassin-est","46.1726","-64.3122","6376.00","Canada"
"Saint-Rene","46.0167","-70.6167","658","Canada"
"Walpole","49.8811","-101.8566","326.00","Canada"
"Grand-Remous","46.6167","-75.9000","1168","Canada"
"Peace River","56.2339","-117.2897","6842","Canada"
"Saint-Sauveur","45.9000","-74.1700","9881","Canada"
"Cranbrook","49.5097","-115.7667","19259","Canada"
"Ivujivik","62.4036","-77.8604","414.00","Canada"
"Lequille","44.7339","-65.4935","222.00","Canada"
"Lorette","49.7414","-96.8761","3208.00","Canada"
"La Tuque","48.0652","-74.0528","11001.00","Canada"
"Donnelly","55.7228","-117.1047","342","Canada"
"McAdam","45.5944","-67.3258","1151","Canada"
"Hampden","45.5000","-71.2500","214","Canada"
"Celista","50.9594","-119.3402","433.00","Canada"
"Wellington","43.9579","-77.3534","1932.00","Canada"
"Candiac","50.2109","-103.2583","20.00","Canada"
"Beaulac-Garthby","45.8300","-71.3800","878","Canada"
"Rockwood","50.2856","-97.2869","7823","Canada"
"Vernon","50.2670","-119.2720","44600","Canada"
"Rencontre East","47.6375","-55.2153","139","Canada"
"Akwesasne","45.0155","-74.5769","1202.00","Canada"
"Kelliher","51.2610","-103.7400","217","Canada"
"Saint-Eusebe","47.5500","-68.9167","614","Canada"
"Saint-Hilaire-de-Dorset","45.8667","-70.8500","99","Canada"
"Milden No. 286","51.4467","-107.5511","327.00","Canada"
"Sussex","45.7167","-65.5167","4282","Canada"
"Stoneham-et-Tewkesbury","47.1667","-71.4333","7106","Canada"
"Saint-Guillaume","45.8833","-72.7667","1547","Canada"
"Rose Valley","52.2897","-103.8153","296","Canada"
"Summer Beaver","52.7450","-88.5023","382.00","Canada"
"Sundance Beach","53.0803","-114.1030","73","Canada"
"Saint-Simon-les-Mines","46.2167","-70.6833","496","Canada"
"Lafleche","49.7064","-106.5742","382","Canada"
"Reynolds","49.7678","-95.8842","1338.00","Canada"
"Three Lakes No. 400","52.5332","-105.2280","598.00","Canada"
"Whiteway","47.6831","-53.4511","373","Canada"
"Elcapo No. 154","50.4241","-102.7414","488.00","Canada"
"Mount Moriah","48.9583","-58.0708","746","Canada"
"Saint-Augustin","48.8000","-71.9500","400","Canada"
"Aetna","49.1312","-113.2396","113.00","Canada"
"Wabigoon","49.7224","-92.5902","373.00","Canada"
"Grande-Vallee","49.2167","-65.1333","1137","Canada"
"Branchton","43.3088","-80.2623","375.00","Canada"
"Lac du Bonnet","50.2577","-96.1209","3121.00","Canada"
"Larder Lake","48.0653","-79.6986","730","Canada"
"Lumsden","49.2830","-53.6170","501","Canada"
"Saint-Cyrille-de-Wendover","45.9333","-72.4333","4389","Canada"
"Cadomin","53.0276","-117.3267","40.00","Canada"
"Botsford","46.1145","-63.9804","1058.00","Canada"
"Cut Knife","52.7456","-109.0206","573","Canada"
"Pennant","50.5360","-108.2300","130","Canada"
"Saint-Celestin","46.2167","-72.4333","781","Canada"
"Pointe Verte","47.8500","-65.7667","886","Canada"
"Earl Grey","50.9356","-104.7111","246","Canada"
"Badger","48.9667","-56.0333","704","Canada"
"Outlook","51.5000","-107.0500","2279","Canada"
"Hughenden","52.5108","-110.9697","243","Canada"
"Brunswick","46.0825","-65.5480","203.00","Canada"
"Britannia No. 502","53.4236","-109.7772","2153.00","Canada"
"Lakeview No. 337","52.0133","-103.9297","368.00","Canada"
"Pembina","49.1775","-98.5408","2011","Canada"
"Bayham","42.7333","-80.7833","7396","Canada"
"Ponass Lake No. 367","52.2761","-103.9409","422.00","Canada"
"Veregin","51.5833","-102.0861","45.00","Canada"
"Hopeall","47.6056","-53.5161","242.00","Canada"
"Pickering","43.8354","-79.0890","91771","Canada"
"Schuler","50.3392","-110.0895","72.00","Canada"
"Aupaluk","59.2947","-69.5753","209.00","Canada"
"Rosemere","45.6369","-73.8000","14294","Canada"
"Glen Harbour","50.8890","-105.0940","67","Canada"
"Saint-Norbert-d'Arthabaska","46.1000","-71.8167","1185","Canada"
"Saint-Aime-du-Lac-des-Iles","46.4000","-75.5333","778","Canada"
"Lucan Biddulph","43.2000","-81.3833","4700","Canada"
"Mingan","50.3195","-64.0350","552.00","Canada"
"Rochon Sands","52.4572","-112.8835","86","Canada"
"Garden","51.4357","-124.0501","5.00","Canada"
"Pibroch","54.2462","-113.8645","47.00","Canada"
"Saint-Barnabe","46.4000","-72.8833","1179","Canada"
"McDermott","49.7311","-112.9482","72.00","Canada"
"Squamish","49.7017","-123.1589","19512","Canada"
"Warfield","49.0953","-117.7344","1729","Canada"
"Hedley","49.3596","-120.0724","242.00","Canada"
"North Dundas","45.0833","-75.3500","11278","Canada"
"High Prairie","55.4325","-116.4861","2564","Canada"
"Clifford","43.9699","-80.9800","823.00","Canada"
"Sarnia","42.9994","-82.3089","71594","Canada"
"St. Alban's","47.8753","-55.8414","1186","Canada"
"Central Elgin","42.7667","-81.1000","12607","Canada"
"Saint-Fortunat","45.9667","-71.6000","280","Canada"
"Saint-Jean-de-Cherbourg","48.8500","-67.1167","193","Canada"
"Lac-des-Seize-Iles","45.9000","-74.4667","223","Canada"
"Nipawin","53.3572","-104.0192","4401","Canada"
"Nestow","54.2381","-113.5903","10.00","Canada"
"Sheenboro","45.9667","-77.2333","130","Canada"
"Notre-Dame-de-Lourdes","46.1000","-73.4333","2595","Canada"
"Whapmagoostui","55.2385","-77.4434","984.00","Canada"
"Langley","49.1044","-122.5827","117285","Canada"
"Raleigh","51.5598","-55.7295","177.00","Canada"
"Nouvelle","48.1333","-66.3167","1689","Canada"
"Stanley","46.2840","-66.7319","412.00","Canada"
"Mattice-Val Cote","49.6458","-83.2869","648","Canada"
"Muskoka Falls","45.1264","-79.5580","6588.00","Canada"
"Milton","43.5083","-79.8833","110128","Canada"
"Point of Bay","49.2769","-55.2678","154","Canada"
"Amqui","48.4667","-67.4333","6322","Canada"
"Val-Saint-Gilles","48.9667","-79.1167","178","Canada"
"Skowkale","49.1374","-121.9428","841.00","Canada"
"Tessier","51.8061","-107.4328","25","Canada"
"Glen Bain No. 105","49.9172","-107.0255","180.00","Canada"
"Gray","50.1718","-104.4451","94.00","Canada"
"Stenen","51.9170","-102.4020","91","Canada"
"Saugeen Shores","44.4333","-81.3667","13715","Canada"
"Denholm","45.8167","-75.7500","572","Canada"
"Sainte-Marguerite-du-Lac-Masson","46.0560","-74.0723","2763.00","Canada"
"Eel River Crossing","48.0125","-66.4208","1953","Canada"
"Wycliffe","49.6036","-115.8547","230.00","Canada"
"Saint-Pacome","47.4000","-69.9500","1658","Canada"
"Wottonville","45.7377","-71.8091","508.00","Canada"
"Lampman","49.3824","-102.7561","675.00","Canada"
"Terrenceville","47.6602","-54.7067","482.00","Canada"
"Lillooet","50.6864","-121.9364","2321","Canada"
"Trecesson","48.6500","-78.3167","1138","Canada"
"Hythe","55.3308","-119.5564","827","Canada"
"Oyen","51.3522","-110.4739","1001","Canada"
"Notre-Dame-de-Lorette","49.0833","-72.3500","189","Canada"
"Blackstock","44.1105","-78.8221","781.00","Canada"
"Botwood","49.1500","-55.3667","2875","Canada"
"Moonbeam","49.3500","-82.1500","1231","Canada"
"Snipe Lake No. 259","51.1704","-108.6669","396.00","Canada"
"Adjala-Tosorontio","44.1333","-79.9333","10975","Canada"
"Wolfville","45.0833","-64.3667","4195","Canada"
"Shannon","46.8833","-71.5167","5086","Canada"
"Gesgapegiag","48.2007","-65.9275","653.00","Canada"
"Coquitlam","49.2839","-122.7919","139284","Canada"
"Saint-Felicien","48.6500","-72.4500","10278","Canada"
"Ste. Anne","49.6186","-96.5708","5003.00","Canada"
"Victoria","47.7675","-53.2411","1800","Canada"
"Maidstone","53.0920","-109.2940","1156","Canada"
"Montrose","49.0783","-117.5931","996","Canada"
"Houston","54.3975","-126.6419","2993","Canada"
"Cremona","51.5447","-114.4922","444","Canada"
"Lewisporte","49.2300","-55.0700","3409","Canada"
"Deloro","44.5132","-77.6209","139.00","Canada"
"Sainte-Flavie","48.6167","-68.2333","919","Canada"
"Woodrow","49.6946","-106.7204","58.00","Canada"
"Sherwood No. 159","50.4365","-104.7024","974.00","Canada"
"Kellross No. 247","51.2346","-103.8930","305.00","Canada"
"Lacombe","52.4683","-113.7369","13057","Canada"
"Rossport","48.8363","-87.5233","65.00","Canada"
"Rycroft","55.7578","-118.6967","612","Canada"
"Parksville","49.3150","-124.3120","12514","Canada"
"Goodeve","51.1150","-103.0450","40","Canada"
"Montcalm","45.9667","-74.5000","619","Canada"
"Lakeview","53.5597","-114.4589","30","Canada"
"Puslinch","43.4500","-80.1667","7336","Canada"
"Midale","49.4000","-103.4000","562","Canada"
"Wise Creek No. 77","49.6546","-107.8340","205.00","Canada"
"Godmanchester","45.0800","-74.2500","1417","Canada"
"Waterhen","51.8378","-99.5388","142.00","Canada"
"Abernethy","50.4440","-103.2520","204","Canada"
"Rocky Mountain House","52.3753","-114.9217","6635","Canada"
"Jasper","52.9013","-118.1312","4590.00","Canada"
"Stockholm","50.6642","-102.3031","352","Canada"
"Saint-Godefroi","48.0833","-65.1167","405","Canada"
"Baie-du-Poste","50.3837","-73.9384","0.00","Canada"
"Webbwood","46.2714","-81.8863","485.00","Canada"
"Moose Jaw No. 161","50.4433","-105.5091","1163.00","Canada"
"Smith","55.1629","-114.0427","148.00","Canada"
"Rochester","54.3700","-113.4632","79.00","Canada"
"Summerland","49.6006","-119.6778","11615","Canada"
"Otonabee-South Monaghan","44.2333","-78.2333","6670","Canada"
"Sainte-Adele","45.9500","-74.1300","12137","Canada"
"Notre-Dame-des-Neiges","48.1167","-69.1667","1129","Canada"
"Central Saanich","48.5142","-123.3839","16814","Canada"
"Southwest Middlesex","42.7500","-81.7000","5723","Canada"
"Deseronto","44.2000","-77.0500","1774","Canada"
"Endiang","51.9549","-112.1601","15.00","Canada"
"Sainte-Julie","45.5833","-73.3333","30104","Canada"
"Candiac","45.3800","-73.5200","21047","Canada"
"Carling","45.4333","-80.2167","1125","Canada"
"East Ferris","46.2667","-79.3000","4750","Canada"
"Sunrise Beach","53.7874","-114.0498","135.00","Canada"
"St. Paul","53.9928","-111.2972","5827","Canada"
"Gravenhurst","44.9167","-79.3667","12311","Canada"
"Burpee and Mills","45.7833","-82.5667","343","Canada"
"Rushoon","47.3575","-54.9147","245","Canada"
"Lacadena No. 228","50.8819","-108.1536","535.00","Canada"
"Renews-Cappahayden","46.8600","-52.9436","301","Canada"
"Quatsino","50.5434","-127.6158","43.00","Canada"
"Wells","53.1017","-121.5756","217","Canada"
"Sun Valley","50.6590","-105.5430","118","Canada"
"Carseland","50.8535","-113.4701","525.00","Canada"
"Leeds and the Thousand Islands","44.4500","-76.0800","9465","Canada"
"Qikiqtarjuaq","67.5442","-63.9042","598.00","Canada"
"Saint-Felix-de-Dalquier","48.6833","-78.1167","856","Canada"
"Chisholm","54.9109","-114.1816","25.00","Canada"
"Woodstock","43.1306","-80.7467","40902","Canada"
"Vonda","52.3230","-106.0920","322","Canada"
"Saint-Michel-du-Squatec","47.8800","-68.7200","1171","Canada"
"Paddockwood","53.5167","-105.5667","2","Canada"
"Zealandia","51.5890","-107.7520","80","Canada"
"Detah","62.4122","-114.3065","219.00","Canada"
"Hanley","51.6167","-106.4333","522","Canada"
"Wallace-Woodworth","49.9156","-100.9389","2011","Canada"
"Michel Village","56.0086","-109.1111","57.00","Canada"
"New Hazelton","55.2467","-127.5834","580","Canada"
"Saint-Germain","47.5833","-69.8000","280","Canada"
"Legal","53.9492","-113.5950","1345","Canada"
"Saint-Eugene-de-Ladriere","48.2500","-68.8000","421","Canada"
"Pelican Narrows","55.1883","-102.9342","2703","Canada"
"St. Brieux","52.6330","-104.8860","590","Canada"
"Fruitvale","49.1161","-117.5414","3627","Canada"
"Bathurst","47.6200","-65.6500","18154","Canada"
"Breadalbane","46.3576","-63.5008","173","Canada"
"Champlain","45.5333","-74.6500","8706","Canada"
"Gull Lake","52.4578","-113.9514","176","Canada"
"Northfield","46.2259","-66.0181","620.00","Canada"
"Dutton/Dunwich","42.6667","-81.5000","3866","Canada"
"Saint-Bernard-de-Lacolle","45.0833","-73.4167","1549","Canada"
"Saint-Nazaire","48.5833","-71.5333","2114","Canada"
"Maryfield No. 91","49.8875","-101.5700","324.00","Canada"
"Aumond","46.4700","-75.8900","725","Canada"
"Cochrane","49.0667","-81.0167","5321","Canada"
"Arborfield","53.1000","-103.6500","326","Canada"
"Cardigan","46.2354","-62.6221","269.00","Canada"
"Paynton","53.0180","-108.9430","148","Canada"
"Burton","45.8009","-66.4066","5119.00","Canada"
"River of Ponds","50.5333","-57.3833","215","Canada"
"Invermay","51.8058","-103.1564","247","Canada"
"Natashquan","50.1904","-61.7240","263.00","Canada"
"Oil Springs","42.7833","-82.1167","648","Canada"
"Petite-Vallee","49.2167","-65.0333","178","Canada"
"Mayo","45.6667","-75.3500","601","Canada"
"Linkletter","46.8490","-63.8490","310.00","Canada"
"Emerald No. 277","51.5198","-103.9171","405.00","Canada"
"Ham-Nord","45.9000","-71.6500","832","Canada"
"Fleur de Lys","50.1222","-56.1319","244","Canada"
"Pessamit","49.0485","-68.6814","2256.00","Canada"
"North Qu'Appelle No. 187","50.7495","-103.9005","855.00","Canada"
"Paqulh","50.1220","-122.5277","0.00","Canada"
"L'Ile-Cadieux","45.4333","-74.0167","105","Canada"
"Langford Station","48.4506","-123.5058","35342","Canada"
"Missinipe","55.6008","-104.7713","5.00","Canada"
"Saint-Guy","48.0333","-68.7833","91","Canada"
"French River / Riviere des Francais","46.1667","-80.5000","2662","Canada"
"Andreville","47.6706","-69.7136","263.00","Canada"
"Norton No. 69","49.6534","-104.6482","233.00","Canada"
"Fort St. John","56.2465","-120.8476","20155","Canada"
"Prairie Rose No. 309","51.7540","-104.7616","220.00","Canada"
"Grande-Riviere","48.4000","-64.5000","3456","Canada"
"Calmar","53.2500","-113.7833","2228","Canada"
"The Archipelago","45.5833","-80.3833","531","Canada"
"Saint-Eugene","45.8000","-72.7000","1131","Canada"
"Kensington","46.4333","-63.6500","1619","Canada"
"Lawn","46.9417","-55.5417","624","Canada"
"Churchbridge No. 211","50.9897","-101.7672","619.00","Canada"
"Gaskiers-Point La Haye","46.8667","-53.6167","232","Canada"
"Gitwinksihlkw","55.1940","-129.2353","211.00","Canada"
"Girardville","49.0000","-72.5500","1100","Canada"
"Penticton","49.4911","-119.5886","33761","Canada"
"Conception Bay South","47.5167","-52.9833","26199","Canada"
"Maryhill","43.5354","-80.3922","576.00","Canada"
"Clyde","54.1519","-113.6388","430","Canada"
"St. Clements","50.2689","-96.6742","10876","Canada"
"Saint-Alexandre","45.2333","-73.1167","2495","Canada"
"Valcourt","45.5000","-72.3167","2349","Canada"
"Bathurst Inlet","66.8539","-108.1057","0.00","Canada"
"South River","45.8417","-79.3750","1114","Canada"
"Parry","49.7884","-104.7207","15.00","Canada"
"Dapp","54.3433","-113.9136","10.00","Canada"
"Kenosee Park","49.8320","-102.2860","234","Canada"
"Baildon No. 131","50.1786","-105.4951","620.00","Canada"
"North Hatley","45.2833","-71.9667","654","Canada"
"Richibucto","46.6189","-64.8385","1887.00","Canada"
"Corning","49.9580","-102.9712","25.00","Canada"
"Potton","45.0833","-72.3667","1849","Canada"
"Burlington","43.3167","-79.8000","183314","Canada"
"Mooseocoot","56.0738","-95.5930","0.00","Canada"
"Namur","45.9000","-74.9333","572","Canada"
"Rocanville","50.3850","-101.6920","869","Canada"
"Lushes Bight-Beaumont-Beaumont North","49.6125","-55.6992","168","Canada"
"Alice Beach","50.9280","-105.1660","51","Canada"
"Hagen","52.9375","-105.5540","32.00","Canada"
"Bouchette","46.2167","-75.9667","786","Canada"
"Stratford Centre","45.7892","-71.2906","945.00","Canada"
"Saint-Mathias-sur-Richelieu","45.4667","-73.2667","4618","Canada"
"Sainte-Ursule","46.2833","-73.0333","1375","Canada"
"Val-David","46.0300","-74.2200","5209","Canada"
"Wrigley","63.1942","-123.3536","119.00","Canada"
"L'Epiphanie","45.8500","-73.4833","5353","Canada"
"Strong","45.7500","-79.4000","1439","Canada"
"Lac-Brome","45.2167","-72.5167","58889","Canada"
"Gibsons","49.4028","-123.5036","4605","Canada"
"Saint-Frederic","46.3000","-70.9667","1085","Canada"
"Huberdeau","45.9667","-74.6333","894","Canada"
"Saint-Cyprien","47.9000","-69.0167","1163","Canada"
"Carleton","46.8800","-65.0072","708.00","Canada"
"Donnacona","46.6747","-71.7294","7200","Canada"
"Kenora","49.7667","-94.4833","15096","Canada"
"Yale","49.5640","-121.4342","143.00","Canada"
"La Broquerie","49.3994","-96.5103","6076","Canada"
"Morrin","51.6583","-112.7664","240","Canada"
"Burton","49.9860","-117.8735","111.00","Canada"
"Hazel Dell No. 335","52.1006","-103.0755","515.00","Canada"
"Slate Falls","51.1680","-91.5915","187.00","Canada"
"Sackville","45.9000","-64.3667","5331","Canada"
"Rainy River","48.7167","-94.5667","807","Canada"
"Dafoe","51.7544","-104.5275","15","Canada"
"Martinville","45.2700","-71.7200","469","Canada"
"Drummondville","45.8833","-72.4833","68601","Canada"
"Pierreville","46.0667","-72.8167","2176","Canada"
"Makkovik","55.0772","-59.1878","361","Canada"
"Beaver Creek","62.3799","-140.8932","93.00","Canada"
"Saint-Ours","45.8833","-73.1500","1721","Canada"
"Saint-Anicet","45.1200","-74.3500","2626","Canada"
"Bluffton","52.7501","-114.2910","143.00","Canada"
"Sioux Narrows-Nestor Falls","49.4000","-94.0800","1082","Canada"
"Medstead","53.3050","-108.0430","148","Canada"
"Dupuy","48.8333","-79.3500","930","Canada"
"Bulyea","50.9860","-104.8620","113","Canada"
"Clarenceville","45.0646","-73.2473","217.00","Canada"
"Vimy","54.0614","-113.6468","198.00","Canada"
"East Kelowna","49.8625","-119.5833","32655","Canada"
"Pincourt","45.3833","-73.9833","14558","Canada"
"Armour","45.6289","-79.3436","1414","Canada"
"Lajord No. 128","50.1965","-104.2507","1232.00","Canada"
"Clinton","51.0903","-121.5911","641","Canada"
"Saint Patrick","45.2383","-66.9930","689.00","Canada"
"Edmonton","53.5344","-113.4903","1062643","Canada"
"Kitchener","43.4186","-80.4728","470015","Canada"
"Atmore","54.8185","-112.5507","35.00","Canada"
"Lac-Saint-Paul","46.7333","-75.3167","481","Canada"
"Kingsclear","45.8796","-66.8695","2822.00","Canada"
"Gretna","49.0079","-97.5605","541.00","Canada"
"Saint-Ludger","45.7500","-70.7000","1255","Canada"
"Holbein","53.2326","-106.1942","109.00","Canada"
"Brownsburg","45.6703","-74.4467","7122.00","Canada"
"Willner No. 253","51.2285","-106.2136","255.00","Canada"
"Saint-Andre-de-Restigouche","48.0667","-66.9500","157","Canada"
"Saint-Liboire","45.6500","-72.7667","3051","Canada"
"Crowsnest Pass","49.5955","-114.5136","5589.00","Canada"
"Ripon","45.7833","-75.1000","1542","Canada"
"Lorne","49.4436","-98.7494","2011","Canada"
"Cumberland House","53.9414","-102.3125","671.00","Canada"
"Kuroki","51.8715","-103.4887","50.00","Canada"
"Saint-Louis-de-Gonzague","45.2000","-73.9800","1481","Canada"
"Winsloe South","46.3164","-63.1780","224.00","Canada"
"Saint-Tharcisius","48.5333","-67.3333","464","Canada"
"Val-des-Bois","45.9167","-75.6000","865","Canada"
"Komoka","42.9580","-81.4001","1754.00","Canada"
"Sunnyslope","51.6501","-113.5602","36.00","Canada"
"Huxley","51.9239","-113.2308","75.00","Canada"
"Casino","49.0563","-117.6596","80.00","Canada"
"Wawa","47.9931","-84.7736","2905","Canada"
"North Portal","49.0540","-102.6680","123","Canada"
"Whitecourt","54.1417","-115.6833","1082","Canada"
"Pikwitonei","55.5890","-97.1518","64.00","Canada"
"Sunnybrook","53.1939","-114.2031","59.00","Canada"
"Baker Lake","64.3287","-96.0308","2069.00","Canada"
"Irma","52.9122","-111.2336","521","Canada"
"Langenburg","50.8333","-101.7000","1165","Canada"
"Point Edward","42.9931","-82.4083","2037","Canada"
"Wallace No. 243","51.2546","-102.2170","852.00","Canada"
"Montrose No. 315","51.7648","-107.0421","712.00","Canada"
"Bay Roberts","47.5847","-53.2783","6012","Canada"
"Caplan","48.1000","-65.6833","2039","Canada"
"Gladstone","50.2257","-98.9500","889.00","Canada"
"Northern Bruce Peninsula","45.0800","-81.3800","3999","Canada"
"Pleasantdale","52.5760","-104.5060","76","Canada"
"Penzance","51.0594","-105.4376","25.00","Canada"
"Zorra","43.1500","-80.9500","8138","Canada"
"Kearney","45.6000","-79.1167","882","Canada"
"Alma","45.6019","-64.9433","232","Canada"
"Keephills","53.4429","-114.3493","48.00","Canada"
"Belleville","44.1667","-77.3833","50716","Canada"
"McTaggart","49.7310","-104.0060","114","Canada"
"Stanley No. 215","50.9877","-103.0601","505.00","Canada"
"Buffalo Narrows","55.8769","-108.5244","1110","Canada"
"Saint-Lazare","45.4000","-74.1333","19889","Canada"
"Huron-Kinloss","44.0500","-81.5333","7069","Canada"
"Glen Ewen","49.2063","-102.0195","154","Canada"
"Eye Hill No. 382","52.2722","-109.7920","590.00","Canada"
"Caron No. 162","50.4406","-105.8611","576.00","Canada"
"Paddockwood No. 520","53.7115","-105.4880","895.00","Canada"
"Resolute","74.7193","-94.8818","198.00","Canada"
"Niagara Falls","43.0600","-79.1067","308596","Canada"
"La Grosse Ile","47.6167","-61.5167","465","Canada"
"Huntingdon","45.0800","-74.1700","2444","Canada"
"Golden Prairie","50.2200","-109.6310","30","Canada"
"Bridgewater","44.3700","-64.5200","8532","Canada"
"Heisler","52.6703","-112.2203","160","Canada"
"Oakville","43.4500","-79.6833","193832","Canada"
"Aylsham","53.2000","-103.8000","92","Canada"
"Blue Sea Lake","46.2000","-76.0833","674","Canada"
"Hudson Bay","52.8510","-102.3920","1504","Canada"
"Augusta","44.7511","-75.6003","7353","Canada"
"Norwich","42.9833","-80.6000","11001","Canada"
"Naramata","49.5886","-119.5838","1676.00","Canada"
"Lejeune","47.7667","-68.5833","286","Canada"
"Winnipegosis","51.6472","-99.9282","617.00","Canada"
"Spaniards Bay","47.6181","-53.3369","2653","Canada"
"Winlaw","49.6157","-117.5540","297.00","Canada"
"Ethelbert","51.5364","-100.4981","2011","Canada"
"Blainville","45.6700","-73.8800","56363","Canada"
"Dixville","45.0700","-71.7700","710","Canada"
"Les Hauteurs","48.3833","-68.1167","524","Canada"
"East Angus","45.4833","-71.6667","3741","Canada"
"Invergordon No. 430","52.8061","-105.2664","565.00","Canada"
"Sheffield","45.9890","-66.2273","809.00","Canada"
"Saskatchewan Landing No. 167","50.5300","-107.8792","415.00","Canada"
"Rexton","46.6333","-64.8667","830","Canada"
"Pike River","45.1167","-73.0667","525","Canada"
"Alnwick","47.2656","-65.2292","3640.00","Canada"
"Alix","52.4000","-113.1833","734","Canada"
"Emerson","49.0079","-97.2234","678.00","Canada"
"Saint Andrews","45.0740","-67.0521","1786","Canada"
"Sainte-Petronille","46.8500","-71.1333","1041","Canada"
"Munson","51.5631","-112.7417","192","Canada"
"Fenwood","50.9950","-103.1590","30","Canada"
"Hobbema","52.8192","-113.4610","60.00","Canada"
"Sainte-Cecile-de-Milton","45.4833","-72.7500","2128","Canada"
"Yellowhead","50.4847","-100.4828","2011","Canada"
"Alsask","51.3797","-109.9972","111.00","Canada"
"Saint-Gabriel-de-Valcartier","46.9333","-71.4667","2933","Canada"
"Vauxhall","50.0689","-112.0975","1222","Canada"
"Halifax","44.6475","-63.5906","403131","Canada"
"Fernie","49.5042","-115.0628","5249","Canada"
"Empress","50.9500","-110.0061","135","Canada"
"Weyburn No. 67","49.6535","-103.8348","1064.00","Canada"
"Flesherton","44.2622","-80.5516","584.00","Canada"
"Belleoram","47.5228","-55.4108","374","Canada"
"Macdonald","49.6725","-97.4472","7162","Canada"
"Sacre-Coeur-de-Jesus","46.2167","-71.0833","564","Canada"
"Armstrong Station","50.2847","-89.0040","193.00","Canada"
"Madawaska","47.6293","-68.1622","10.00","Canada"
"Sunnyside","47.8667","-53.9333","396","Canada"
"Montmagny","46.9833","-70.5500","11491","Canada"
"Tilley","50.4517","-111.6509","364.00","Canada"
"Timber Bay","54.1683","-105.6753","82.00","Canada"
"Sheshatshiu","53.5142","-60.1464","671.00","Canada"
"Rougemont","45.4333","-73.0500","2723","Canada"
"Waldron","50.8508","-102.5172","15.00","Canada"
"Sioux Lookout","50.1000","-91.9167","5272","Canada"
"Salmon Cove","47.7830","-53.1670","680","Canada"
"Clarence-Rockland","45.4833","-75.2000","24512","Canada"
"Saint-Polycarpe","45.3000","-74.3000","2224","Canada"
"Andrew","53.8802","-112.3320","425","Canada"
"Piopolis","45.4833","-70.9000","364","Canada"
"Kingsey Falls","45.8500","-72.0667","2000","Canada"
"Ramara","44.6333","-79.2167","9488","Canada"
"Somerset","49.4079","-98.6567","437.00","Canada"
"McDougall","45.4500","-80.0167","2702","Canada"
"Becancour","46.3333","-72.4333","12438","Canada"
"Rainbow Lake","58.5000","-119.3831","795","Canada"
"Borden","52.4130","-107.2220","287","Canada"
"Holberg","50.6548","-128.0157","35.00","Canada"
"Kamsack","51.5650","-101.8947","1825","Canada"
"Saint-Francois-d'Assise","47.9833","-67.1667","706","Canada"
"Blissfield","46.6014","-66.0405","451.00","Canada"
"Hopedale","55.4840","-60.2032","583","Canada"
"Bois-des-Filion","45.6667","-73.7500","9485","Canada"
"Shakespeare","46.3097","-81.8833","170.00","Canada"
"Binscarth","50.6269","-101.2830","407.00","Canada"
"Lac Cayamant","46.1333","-76.2500","875","Canada"
"Kelvington","52.1667","-103.5333","988","Canada"
"Hemmingford","45.0833","-73.5833","1747","Canada"
"Palmer","49.8661","-106.3537","10.00","Canada"
"Newboro","44.6426","-76.3308","251.00","Canada"
"Chatham","42.4229","-82.1324","101647.00","Canada"
"Wasagamack","53.9056","-94.9412","1403.00","Canada"
"Swan Hills","54.7106","-115.4133","1301","Canada"
"Saint-Zotique","45.2500","-74.2500","6773","Canada"
"West Cove","53.7012","-114.4974","149","Canada"
"Madawaska Valley","45.5000","-77.6667","4123","Canada"
"Gore Bay","45.9167","-82.4667","867","Canada"
"Martensville","52.2897","-106.6667","9645","Canada"
"Blanc-Sablon","51.4167","-57.1333","1118","Canada"
"Saint-Bruno","48.4667","-71.6500","2636","Canada"
"Lamaline","46.8670","-55.8170","267","Canada"
"Southgate","44.1000","-80.5833","7190","Canada"
"Kings Point","49.5809","-56.1833","659","Canada"
"Lac-au-Saumon","48.4167","-67.3500","1453","Canada"
"Wellesley","43.5500","-80.7167","11260","Canada"
"Newbury","42.6833","-81.7972","466","Canada"
"Erieau","42.2601","-81.9178","389.00","Canada"
"Rosedale","51.4203","-112.6243","313.00","Canada"
"Banff","51.1781","-115.5719","7847","Canada"
"Sherbrooke","46.4220","-63.7580","159.00","Canada"
"Cudworth","52.4833","-105.7167","770","Canada"
"Barrier Valley No. 397","52.5362","-103.9494","431.00","Canada"
"Saint-Laurent-de-l'Ile-d'Orleans","46.8667","-71.0167","1580","Canada"
"Shediac","46.2167","-64.5333","6664","Canada"
"Heart's Desire","47.8156","-53.4267","213","Canada"
"Val Marie","49.2330","-107.7346","137","Canada"
"Maricourt","45.5667","-72.2667","497","Canada"
"Heart's Hill No. 352","52.0105","-109.7849","244.00","Canada"
"Middle Arm","49.7047","-56.0922","474","Canada"
"Laird","46.3833","-84.0667","1047","Canada"
"Albertville","53.4167","-105.5333","86","Canada"
"Gold River","49.7769","-126.0514","1500","Canada"
"Danville","45.7833","-72.0167","4070","Canada"
"White Valley No. 49","49.4544","-108.8542","478.00","Canada"
"Grande Anse","47.8123","-65.1852","738","Canada"
"Birch Hills No. 460","53.0126","-105.4261","656.00","Canada"
"Pictou","45.6814","-62.7119","3186","Canada"
"Sainte-Marie-Madeleine","45.6000","-73.1000","2935","Canada"
"Kincardine","44.1667","-81.6333","11389","Canada"
"Henryville","45.1333","-73.1833","1464","Canada"
"Lake Laberge 1","60.9810","-135.1270","25.00","Canada"
"Portneuf-sur-Mer","48.6167","-69.1000","598","Canada"
"Debec","46.0736","-67.6901","98.00","Canada"
"Francis No. 127","50.2223","-103.8554","674.00","Canada"
"Waseca","53.1000","-109.4667","154","Canada"
"Neuanlage","52.4565","-106.4581","522.00","Canada"
"Seba Beach","53.5607","-114.7369","169","Canada"
"Hartney","49.4809","-100.5227","462.00","Canada"
"Rudy No. 284","51.5223","-106.8705","466.00","Canada"
"Duhamel-Ouest","47.3667","-79.4333","828","Canada"
"Belle Plaine","50.4000","-105.1500","85","Canada"
"Newcastle","47.1725","-65.5551","1136.00","Canada"
"Hughes Brook","48.9972","-57.8792","255","Canada"
"Lyster","46.3667","-71.6167","1628","Canada"
"Boischatel","46.9000","-71.1500","6465","Canada"
"Chin","49.7632","-112.4460","62.00","Canada"
"Steinbach","49.5258","-96.6839","15829","Canada"
"Pointe-Fortune","45.5667","-74.3833","542","Canada"
"Ashern","51.1838","-98.3456","565.00","Canada"
"Poplar Valley No. 12","49.1251","-105.8105","195.00","Canada"
"Beaverlodge","55.2094","-119.4292","2465","Canada"
"Peachland","49.7736","-119.7369","5428","Canada"
"Runnymede","51.4802","-101.7024","30.00","Canada"
"Bird Cove","51.0520","-56.9312","179","Canada"
"Jogues","49.6072","-83.7494","312.00","Canada"
"Amos","48.5667","-78.1167","12823","Canada"
"Pierceland","54.3490","-109.7550","449","Canada"
"Madsen","50.9689","-93.9100","147.00","Canada"
"Sainte-Madeleine","45.6000","-73.1000","2356","Canada"
"Inverness","46.2667","-71.5167","822","Canada"
"Shoreacres","49.4300","-117.5266","324.00","Canada"
"Saint-Paul-de-l'Ile-aux-Noix","45.1333","-73.2833","1877","Canada"
"Switsemalph","50.7214","-119.3151","127.00","Canada"
"Dorintosh","54.3520","-108.6260","127","Canada"
"Riceton","50.1110","-104.3185","61.00","Canada"
"Brant","43.1167","-80.3667","36707","Canada"
"Daniels Harbour","50.2372","-57.5861","253","Canada"
"Swan Valley West","51.9978","-101.3944","2011","Canada"
"Fermeuse","46.9783","-52.9550","325","Canada"
"Britannia","48.1388","-53.7359","85.00","Canada"
"Morley","48.8333","-94.1667","481","Canada"
"Marquis","50.6180","-105.7190","92","Canada"
"Easterville","53.0977","-99.8167","44.00","Canada"
"Herbert","50.4270","-107.2270","856","Canada"
"Pohenegamook","47.4667","-69.2167","2770","Canada"
"Ferme-Neuve","46.7000","-75.4500","2822","Canada"
"Gillam","56.3472","-94.7078","1265","Canada"
"Garden River No. 490","53.3499","-105.3082","727.00","Canada"
"Alberta Beach","53.6767","-114.3500","1018","Canada"
"Kiamika","46.4167","-75.3833","772","Canada"
"Kangiqsualujjuaq","58.7031","-65.9602","942.00","Canada"
"Royston","49.6405","-124.9406","1616.00","Canada"
"Roseville","43.3425","-80.4745","338.00","Canada"
"Saint-Christophe-d'Arthabaska","46.0333","-71.8833","2892","Canada"
"Markham","43.8767","-79.2633","328966","Canada"
"Reston","49.5549","-101.0990","569.00","Canada"
"Glenwoodville","49.3636","-113.5106","316","Canada"
"East St. Paul","49.9772","-97.0103","9372","Canada"
"Springfield","49.9292","-96.6939","15342","Canada"
"Harrison Park","50.5563","-100.1674","1622.00","Canada"
"Dorval","45.4500","-73.7500","18980","Canada"
"Fort Qu'Appelle","50.7667","-103.7833","1919","Canada"
"Grandes-Piles","46.6833","-72.7333","361","Canada"
"L'Ile-Perrot","45.3833","-73.9500","10756","Canada"
"Standard","51.1107","-112.9819","353","Canada"
"Alnwick/Haldimand","44.0833","-78.0333","6869","Canada"
"Grey","49.7094","-98.0736","2011","Canada"
"Weldon","53.0190","-105.1380","205","Canada"
"Sainte-Clotilde-de-Horton","45.9833","-72.2333","1616","Canada"
"Swift River","60.0164","-131.0422","0.00","Canada"
"Sainte-Marthe","45.4000","-74.3000","1075","Canada"
"Pokemouche","47.6697","-64.8851","490.00","Canada"
"La Macaza","46.3667","-74.7667","1053","Canada"
"Mariposa No. 350","52.0086","-108.9673","205.00","Canada"
"Sainte-Therese-de-la-Gatineau","46.3000","-75.8667","526","Canada"
"Saint-Sulpice","45.8333","-73.3500","3273","Canada"
"Hazelton","55.2597","-127.6453","313","Canada"
"Gordon/Barrie Island","45.9000","-82.6333","490","Canada"
"Centre Hastings","44.4167","-77.4417","4774","Canada"
"McMurrich/Monteith","45.4500","-79.4833","24","Canada"
"Authier-Nord","48.8333","-78.8667","273","Canada"
"Sainte-Claire","46.6000","-70.8667","3325","Canada"
"Petersville","45.5222","-66.3660","681.00","Canada"
"Saint-Leon-le-Grand","48.3833","-67.5000","970","Canada"
"Mannheim","43.3977","-80.5437","982.00","Canada"
"Brilliant","49.3204","-117.6420","157.00","Canada"
"Winneway","47.5802","-78.5703","104.00","Canada"
"Armagh","46.7425","-70.5875","739.00","Canada"
"Rosalind","52.7873","-112.4403","188","Canada"
"Vananda","49.7550","-124.5529","291.00","Canada"
"Chesterville","45.9667","-71.8167","891","Canada"
"Brockton","44.1667","-81.2167","9461","Canada"
"Inukjuak","58.4824","-78.1309","1757.00","Canada"
"Sainte-Thecle","46.8167","-72.5000","2478","Canada"
"Glenavon","50.1810","-103.1320","182","Canada"
"Saint-Jacques-de-Leeds","46.2833","-71.3500","711","Canada"
"Sainte-Hedwidge","48.4833","-72.3500","824","Canada"
"Mikado","51.6088","-102.2705","25.00","Canada"
"Indian Head","50.5333","-103.6667","1910","Canada"
"Remigny","47.7667","-79.2000","279","Canada"
"Port Saunders","50.6500","-57.2667","674","Canada"
"Gilbert Plains","51.1547","-100.4381","2011","Canada"
"Poularies","48.6667","-78.9833","679","Canada"
"Whiska Creek No. 106","49.9170","-107.4342","465.00","Canada"
"Halhalaeden","50.2951","-121.6269","5.00","Canada"
"Notre-Dame-du-Portage","47.7667","-69.6167","1193","Canada"
"Saint-Eugene-de-Guigues","47.5167","-79.3500","454","Canada"
"Warwick","43.0000","-81.8917","3692","Canada"
"Les Iles-de-la-Madeleine","47.3833","-61.8667","12010","Canada"
"Simpson","51.4500","-105.4500","127","Canada"
"Saint-Joseph-de-Sorel","46.0446","-73.1308","1642.00","Canada"
"Blacks Harbour","45.0589","-66.7847","894","Canada"
"Swalwell","51.5577","-113.3184","95.00","Canada"
"Huron East","43.6300","-81.2800","9138","Canada"
"Scandia","50.2788","-112.0461","146.00","Canada"
"Estevan No. 5","49.1308","-103.0126","1370.00","Canada"
"Torquay","49.1419","-103.4978","255.00","Canada"
"Slave Lake","55.2853","-114.7706","6651","Canada"
"Chesterfield Inlet","63.3120","-90.8248","437.00","Canada"
"Grande Prairie","55.1708","-118.7947","63166","Canada"
"Saint-Hugues","45.8000","-72.8667","1292","Canada"
"Popkum","49.1911","-121.7553","1382.00","Canada"
"Mountain View No. 318","51.7507","-108.3435","337.00","Canada"
"Usherville","52.2312","-102.6572","0.00","Canada"
"Saint-Jacques-le-Majeur-de-Wolfestown","45.9300","-71.5000","189","Canada"
"Cambridge","43.3972","-80.3114","129920","Canada"
"Port Clements","53.6878","-132.1689","282","Canada"
"Sainte-Catherine","45.4000","-73.5800","16762","Canada"
"Aberdeen","46.5072","-67.2810","781.00","Canada"
"Oliver Paipoonge","48.3900","-89.5200","5922","Canada"
"Saint-Charles","46.6692","-65.0184","1997.00","Canada"
"Indian Head No. 156","50.5187","-103.6073","336.00","Canada"
"Dore Lake","54.6167","-107.3833","30.00","Canada"
"Bishop's Cove","47.6352","-53.2320","287","Canada"
"Pipestone","49.6653","-101.1444","1458.00","Canada"
"La Guadeloupe","45.9500","-70.9300","1787","Canada"
"Prince","46.5333","-84.5000","1010","Canada"
"Saint-Faustin--Lac-Carre","46.0813","-74.4668","3499.00","Canada"
"Wekweti","64.1891","-114.1872","129.00","Canada"
"Lake Alma","49.1440","-104.1970","30","Canada"
"Tay Valley","44.8667","-76.3833","5665","Canada"
"Coral Harbour","64.1740","-83.2478","891.00","Canada"
"MacNutt","51.0990","-101.6070","80","Canada"
"Laurentian Valley","45.7681","-77.2239","9387","Canada"
"Tompkins","50.0670","-108.8000","152","Canada"
"Fort Resolution","61.0490","-113.6915","470.00","Canada"
"Wolinak","46.3273","-72.4243","202.00","Canada"
"Salmo","49.1942","-117.2778","1141","Canada"
"Chaplin No. 164","50.4329","-106.6149","113.00","Canada"
"Snowden","53.4920","-104.6788","20.00","Canada"
"Millville","46.2231","-67.3242","273","Canada"
"Greenbank","44.1518","-79.0139","554.00","Canada"
"Saint-Sixte","45.7000","-75.2167","469","Canada"
"Port Kirwan","46.9692","-52.9111","52","Canada"
"Scugog","44.0900","-78.9360","21617","Canada"
"Swift Current No. 137","50.2211","-107.8559","1932.00","Canada"
"Blackfoot","53.2883","-110.1683","392.00","Canada"
"Miami","49.3728","-98.2392","434.00","Canada"
"Barriere","51.1803","-120.1261","1713","Canada"
"Beauharnois","45.3200","-73.8700","12011","Canada"
"Milo","50.5722","-112.8828","91","Canada"
"Nisga'a","55.1078","-129.4293","1880.00","Canada"
"Auclair","47.7333","-68.6500","444","Canada"
"Chazel","48.8667","-79.0500","289","Canada"
"Riviere-a-Pierre","46.9833","-72.1833","671","Canada"
"Stornoway","45.7200","-71.1700","559","Canada"
"Hampton","43.9700","-78.7458","755.00","Canada"
"North Grenville","44.9667","-75.6500","16451","Canada"
"Queen Charlotte","53.2547","-132.1136","852","Canada"
"Tiverton","44.2670","-81.5410","725.00","Canada"
"Dunham","45.1333","-72.8000","3471","Canada"
"Upham","45.5083","-65.6618","1269.00","Canada"
"Hendon","52.0885","-103.8306","20.00","Canada"
"North Perth","43.7300","-80.9500","13130","Canada"
"Colborne","47.7567","-66.2692","227.00","Canada"
"Westfield Beach","45.3432","-66.2868","1962.00","Canada"
"Howick","45.1833","-73.8500","630","Canada"
"Wawota","49.9000","-102.0167","543","Canada"
"Eldon No. 471","53.2067","-109.3245","750.00","Canada"
"Wedgewood","55.1246","-118.7748","753.00","Canada"
"East Garafraxa","43.8500","-80.2500","2579","Canada"
"Lachute","45.6500","-74.3333","12551","Canada"
"Leech","47.4290","-65.0768","608.00","Canada"
"Brock No. 64","49.6497","-102.6117","267.00","Canada"
"Leader","50.8900","-109.5403","863","Canada"
"Huron Shores","46.2833","-83.2000","1664","Canada"
"Schefferville","54.8000","-66.8333","213","Canada"
"Russell","45.2569","-75.3583","16520","Canada"
"Wendake","46.8693","-71.3628","2134.00","Canada"
"Benton","48.8944","-54.4166","154.00","Canada"
"Petit Rocher","47.7839","-65.7159","1908","Canada"
"Lac-aux-Sables","46.8667","-72.4000","1373","Canada"
"Saint-Gervais","46.7167","-70.8833","2058","Canada"
"Bristol","45.5333","-76.4667","1036","Canada"
"Rigolet","54.1797","-58.4289","310","Canada"
"Langbank","50.0487","-102.2958","25.00","Canada"
"Saint-Antonin","47.7667","-69.4833","4027","Canada"
"Beaucanton","49.0408","-79.2604","152.00","Canada"
"Mandeville","46.3667","-73.3500","2043","Canada"
"Auvergne No. 76","49.6544","-107.4264","412.00","Canada"
"Sion","49.0201","-118.4989","658.00","Canada"
"Makwa","53.9910","-108.8890","96","Canada"
"Saint-Pierre","46.0167","-73.4667","305","Canada"
"Essipit","48.3371","-69.3992","297.00","Canada"
"Creston","49.0900","-116.5100","5351","Canada"
"Hampstead","45.4833","-73.6333","7153","Canada"
"Kingfisher","50.6128","-118.7492","205.00","Canada"
"Saint-Alexis-de-Matapedia","47.9667","-67.0500","548","Canada"
"One Hundred Mile House","51.6413","-121.3127","1980.00","Canada"
"Mahone Bay","44.4489","-64.3819","1036","Canada"
"Cornwallis","49.7981","-99.8481","4520.00","Canada"
"Saint-Edmond-de-Grantham","45.8833","-72.6667","673","Canada"
"Douglas","46.2819","-66.9420","6154.00","Canada"
"Tugaske","50.8750","-106.2867","75.00","Canada"
"Paquetville","47.6334","-65.1803","2329.00","Canada"
"Saint-Georges-de-Clarenceville","45.0667","-73.2500","1056","Canada"
"Stavely","50.1650","-113.6456","541","Canada"
"Povungnituk","60.0477","-77.2751","1779.00","Canada"
"Upper Island Cove","47.6472","-53.2233","1561","Canada"
"Prescott","44.7167","-75.5167","3965","Canada"
"Lourdes","48.6483","-58.9973","465","Canada"
"Middleton","44.9418","-65.0686","1832","Canada"
"Longlaketon No. 219","50.9386","-104.6913","1016.00","Canada"
"Springfield","42.8269","-80.9345","878.00","Canada"
"Labrador City","52.9500","-66.9167","7220","Canada"
"Hubbards","44.6343","-64.0436","364.00","Canada"
"Tway","52.7377","-105.4382","5.00","Canada"
"Arnprior","45.4333","-76.3500","8795","Canada"
"Grass Lake No. 381","52.2740","-109.3676","399.00","Canada"
"Khedive","49.6210","-104.5187","15.00","Canada"
"Opasatika","49.5333","-82.8667","226","Canada"
"Val-Racine","45.4800","-71.0700","170","Canada"
"Dysart","50.9420","-104.0360","218","Canada"
"Heward","49.7370","-103.1460","44","Canada"
"North Saanich","48.6142","-123.4200","11249","Canada"
"Petersburg","43.4142","-80.6056","340.00","Canada"
"Mont-Saint-Hilaire","45.5622","-73.1917","18200","Canada"
"Port Alberni","49.2339","-124.8050","17678","Canada"
"Umiujaq","56.5461","-76.5006","442.00","Canada"
"Saint-Anselme","46.6333","-70.9667","3458","Canada"
"Lantier","46.1500","-74.2500","828","Canada"
"Honfleur","46.6500","-70.8833","765","Canada"
"Roche Percee","49.0407","-102.4805","149","Canada"
"Maple Creek No. 111","49.8044","-109.6508","1068.00","Canada"
"Hensall","43.4345","-81.5040","1078.00","Canada"
"Cupids","47.5478","-53.2244","743","Canada"
"Richmond","49.1667","-123.1333","198309","Canada"
"St. Benedict","52.5667","-105.3933","84.00","Canada"
"Hoey","52.8675","-105.7930","45.00","Canada"
"Radisson","52.4630","-107.3890","505","Canada"
"Amulet","48.2938","-79.0274","1340.00","Canada"
"Gallichan","48.6000","-79.2833","484","Canada"
"Saint-Juste-du-Lac","47.6500","-68.7500","585","Canada"
"Saint-Venant-de-Paquette","45.1333","-71.4667","104","Canada"
"Halton Hills","43.6300","-79.9500","61161","Canada"
"Port-Cartier","50.0333","-66.8667","6651","Canada"
"St. Andrews No. 287","51.4883","-107.9019","522.00","Canada"
"Wedgeport","43.7323","-65.9797","1061.00","Canada"
"Atwater","50.7750","-102.2270","30","Canada"
"Lamarche","48.8000","-71.4333","557","Canada"
"Nanaimo","49.1642","-123.9364","90504","Canada"
"Bailey","45.6092","-66.5586","819.00","Canada"
"Snow Lake","54.8814","-100.0227","899","Canada"
"Semans","51.4000","-104.7333","204","Canada"
"Treherne","49.6283","-98.7021","615.00","Canada"
"Whitehorse","60.7029","-135.0691","25085.00","Canada"
"Berthierville","46.0833","-73.1833","4091","Canada"
"Tasiujaq","58.7098","-69.9140","369.00","Canada"
"Mannville","53.3356","-111.1756","828","Canada"
"Repulse Bay","66.5628","-86.3186","1082.00","Canada"
"Paspebiac","48.0333","-65.2500","3198","Canada"
"Eckville","52.3622","-114.3614","1125","Canada"
"Bienfait","49.1500","-102.8000","780","Canada"
"Plantagenet","45.5321","-74.9956","1027.00","Canada"
"Victoria Beach","50.7306","-96.5389","398.00","Canada"
"Napierville","45.1833","-73.4000","3899","Canada"
"Foam Lake","51.6500","-103.5333","1123","Canada"
"Craven","50.7081","-104.8092","214","Canada"
"Leroy No. 339","52.0126","-104.7838","502.00","Canada"
"Pleasant Valley No. 288","51.4889","-108.3248","302.00","Canada"
"Saint-Pie","45.5000","-72.9000","5438","Canada"
"Esterel","46.0500","-74.0200","415","Canada"
"Brethour","47.6667","-79.5667","97","Canada"
"Egan-Sud","46.4333","-76.0000","542","Canada"
"Saint-Pierre-de-Broughton","46.2500","-71.2000","882","Canada"
"Devon","53.3633","-113.7322","6578","Canada"
"Dalemead","50.8740","-113.6376","30.00","Canada"
"St. Martins","45.3504","-65.5340","276","Canada"
"Tres-Saint-Redempteur","45.4300","-74.3800","863","Canada"
"Armstrong","50.6400","-97.4950","1792","Canada"
"Terra Nova","48.5000","-54.2167","73","Canada"
"Saint-Arsene","47.9167","-69.4333","1253","Canada"
"Lunenburg","44.3833","-64.3167","2263","Canada"
"North Dumfries","43.3200","-80.3800","10215","Canada"
"Manseau","46.3667","-72.0000","843","Canada"
"Wotton","45.7333","-71.8000","1453","Canada"
"North Frontenac","44.9500","-76.9000","1898","Canada"
"Durham","47.7631","-66.0849","1076.00","Canada"
"Chateauguay","45.3800","-73.7500","70812","Canada"
"Saint-Valentin","45.1333","-73.3167","470","Canada"
"Tilt Cove","49.8861","-55.6269","6","Canada"
"Saint-Come","46.2700","-73.7800","2198","Canada"
"Dosquet","46.4667","-71.5333","887","Canada"
"Mont-Joli","48.5800","-68.1800","6281","Canada"
"Searston","47.8205","-59.3054","128.00","Canada"
"Barnwell","49.7603","-112.2625","947","Canada"
"Blaine Lake","52.8283","-106.8814","499","Canada"
"Rockglen","49.1833","-105.9500","400","Canada"
"Keoma","51.2169","-113.6495","104.00","Canada"
"Insinger No. 275","51.5194","-103.0674","315.00","Canada"
"Nelson","46.8402","-65.5938","957.00","Canada"
"Saint-Majorique-de-Grantham","45.9333","-72.5833","1251","Canada"
"Nampa","56.0361","-117.1331","364","Canada"
"Eastmain","52.2161","-78.2849","866.00","Canada"
"Tyne Valley","46.5667","-63.9333","249.00","Canada"
"Saint-Charles-de-Bourget","48.5667","-71.3667","690","Canada"
"Benito","51.9147","-101.5477","370.00","Canada"
"Chaplin","50.4604","-106.6548","229","Canada"
"Genelle","49.2168","-117.6929","770.00","Canada"
"Eagle Creek No. 376","52.2813","-107.5309","595.00","Canada"
"Hinchinbrooke","45.0500","-74.1000","2103","Canada"
"Castle Island","53.7080","-114.3407","10","Canada"
"Lougheed","52.7464","-111.5464","256","Canada"
"Drake","51.7472","-105.0114","197","Canada"
"Erskine","52.3214","-112.8795","282.00","Canada"
"Silverwood No. 123","50.1787","-102.2114","410.00","Canada"
"St. Mary's","46.9136","-53.5683","347","Canada"
"North Lake","45.7588","-67.6674","233.00","Canada"
"Stoughton","49.6750","-103.0370","694","Canada"
"Dawson","48.7500","-94.4833","468","Canada"
"Wolverine No. 340","52.0131","-105.2097","480.00","Canada"
"Austin","49.9510","-98.9372","422.00","Canada"
"Gronlid","53.1010","-104.4631","74.00","Canada"
"Fort St. James","54.4431","-124.2542","1598","Canada"
"Midland","44.7500","-79.8833","16864","Canada"
"Gracefield","46.0926","-75.9574","2462.00","Canada"
"Peribonka","48.7667","-72.0500","464","Canada"
"Claybank","50.0453","-105.2338","15.00","Canada"
"Ponteix","49.7500","-107.4833","605","Canada"
"Nipigon","49.0153","-88.2683","1642","Canada"
"Kipling","50.1015","-102.6324","1140","Canada"
"Dysart et al","45.2042","-78.4047","6280.00","Canada"
"Maniwaki","46.3750","-75.9667","3930","Canada"
"Saint-Charles-Garnier","48.3333","-68.0500","271","Canada"
"Leaf Rapids","56.4667","-99.7497","582","Canada"
"Larouche","48.4500","-71.5167","1277","Canada"
"Creighton","54.7561","-101.8973","1402","Canada"
"West Baptiste","54.7572","-113.5548","38","Canada"
"Saint-Casimir","46.6500","-72.1333","1500","Canada"
"Bedford","45.1167","-72.9833","2684","Canada"
"Pennfield Ridge","45.1924","-66.6858","2170.00","Canada"
"Saint-Prosper-de-Champlain","46.6167","-72.2833","505","Canada"
"Brampton","43.6833","-79.7667","593638","Canada"
"Strathroy-Caradoc","42.9575","-81.6167","20867","Canada"
"Sainte-Julienne","45.9700","-73.7200","9331","Canada"
"Inkluckcheen","50.2771","-121.6006","141.00","Canada"
"Theodore","51.4250","-102.9208","339","Canada"
"Saint-Benoit-Labre","46.0667","-70.8000","1612","Canada"
"Chanceport","49.5474","-54.8116","38.00","Canada"
"Ashmont","54.1285","-111.5717","133.00","Canada"
"Maltempec","47.6792","-64.9996","275.00","Canada"
"Quill Lake","52.0667","-104.2500","2","Canada"
"Mapleton","43.7358","-80.6681","10527.00","Canada"
"North Glengarry","45.3333","-74.7333","10109","Canada"
"Padoue","48.5800","-67.9800","273","Canada"
"Erin","43.7667","-80.0667","11439","Canada"
"Jans Bay","55.1470","-108.0990","181","Canada"
"Cut Knife No. 439","52.7744","-108.9924","364.00","Canada"
"Godbout","49.3167","-67.6000","298","Canada"
"Dunmore","49.9673","-110.5835","514.00","Canada"
"Exshaw","51.0619","-115.1536","412.00","Canada"
"Lefebvre","45.7167","-72.4167","867","Canada"
"Frenchman's Cove","47.2156","-55.4058","169","Canada"
"Cheadle","51.0137","-113.5403","91.00","Canada"
"Shenley","45.9607","-70.8230","882.00","Canada"
"Saint-Cyprien-de-Napierville","45.1833","-73.4167","1869","Canada"
"Qualicum Beach","49.3500","-124.4333","8943","Canada"
"Espanola","46.2500","-81.7667","4996","Canada"
"Saint-Julien","46.0000","-71.5300","406","Canada"
"Duhamel","52.9158","-112.9610","47.00","Canada"
"Clayton No. 333","52.1009","-102.2202","592.00","Canada"
"Rothesay","45.3831","-65.9969","11659","Canada"
"Invermay No. 305","51.7668","-103.0693","325.00","Canada"
"L'Avenir","45.7667","-72.3000","1202","Canada"
"Lemberg","50.7320","-103.1950","274","Canada"
"Success","50.4601","-108.0794","2","Canada"
"Yamaska-Est","46.0000","-72.9200","1644","Canada"
"Tlell","53.5461","-131.9750","183.00","Canada"
"Radisson","53.7909","-77.6205","468.00","Canada"
"Saint-Marc-du-Lac-Long","47.3833","-68.9000","440","Canada"
"Saint-Georges-de-Cacouna","47.9167","-69.5000","1939","Canada"
"Brigus","47.5350","-53.2081","723","Canada"
"Obed","53.5584","-117.2143","10.00","Canada"
"Saint-Luc-de-Vincennes","46.5000","-72.4167","591","Canada"
"Centre Wellington","43.7000","-80.3667","28191","Canada"
"Dickson","52.0578","-114.3093","58.00","Canada"
"High Level","58.5169","-117.1361","3159","Canada"
"Stanstead","45.0167","-72.1000","2857","Canada"
"Rossland","49.0786","-117.7992","3729","Canada"
"Fort McPherson","67.4333","-134.8261","700.00","Canada"
"Kawartha Lakes","44.3500","-78.7500","75423","Canada"
"Hunter River","46.3500","-63.3500","319","Canada"
"Parkers Cove","47.3939","-54.8665","248","Canada"
"Esterhazy","50.6500","-102.0667","2472","Canada"
"Kitscoty","53.3372","-110.3331","925","Canada"
"Pebble Baye","53.1890","-107.0220","45","Canada"
"Saint-Leandre","48.7333","-67.6000","402","Canada"
"Saint-Agapit","46.5667","-71.4333","3567","Canada"
"Lake Johnston No. 102","49.9186","-105.8522","170.00","Canada"
"Balmoral","47.9667","-66.4500","1674","Canada"
"Truro","45.3647","-63.2800","12826","Canada"
"Kerrobert","51.9200","-109.1272","1061","Canada"
"Lloydminster","53.2807","-110.0350","19645.00","Canada"
"Plamondon","54.8473","-112.3433","348.00","Canada"
"Kenaston","51.5000","-106.2833","282","Canada"
"Tees","52.4675","-113.3215","73.00","Canada"
"Holland","49.5986","-98.8811","712.00","Canada"
"Arrowwood","50.7362","-113.1441","207","Canada"
"East Hereford","45.0833","-71.5000","306","Canada"
"Lac-Superieur","46.2000","-74.4667","1892","Canada"
"Beauport","46.9667","-71.3000","7281","Canada"
"Govan","51.3110","-104.9950","216","Canada"
"Waterloo","43.4667","-80.5167","104986","Canada"
"Oak Bay","48.4264","-123.3228","18094","Canada"
"Wood River No. 74","49.6549","-106.6133","433.00","Canada"
"Saint-Armand","45.0333","-73.0500","1248","Canada"
"Notre-Dame-de-Stanbridge","45.1667","-73.0333","660","Canada"
"Sainte-Cecile-de-Levrard","46.4700","-72.1700","362","Canada"
"Rhein","51.3539","-102.1947","170.00","Canada"
"Pikogan","48.5981","-78.1209","538.00","Canada"
"Port Rexton","48.3994","-53.3244","340","Canada"
"Neguac","47.2333","-65.0500","1684","Canada"
"Mansfield-et-Pontefract","45.8611","-76.7392","2285","Canada"
"Key West No. 70","49.6539","-105.0555","255.00","Canada"
"Papineau-Cameron","46.3000","-78.7333","1016","Canada"
"Alma","48.5500","-71.6500","30904","Canada"
"Havre-Saint-Pierre","50.2333","-63.6000","3460","Canada"
"Warburg","53.1792","-114.3189","766","Canada"
"Saint-Jean-Baptiste","45.5167","-73.1167","3191","Canada"
"Porcupine Plain","52.5980","-103.2480","855","Canada"
"Stratford","43.3708","-80.9819","31465","Canada"
"Turner Valley","50.6739","-114.2786","2559","Canada"
"Irlande","46.0667","-71.4833","959","Canada"
"Elton","49.9750","-99.8658","1273.00","Canada"
"Rush Lake","50.4000","-107.4000","53","Canada"
"L'Ascension-de-Notre-Seigneur","48.7000","-71.6833","1983","Canada"
"Warspite","54.0923","-112.6198","76.00","Canada"
"Saint-Robert","45.9667","-73.0000","1794","Canada"
"Lebel-sur-Quevillon","49.0500","-76.9833","2187","Canada"
"St. Joseph's","47.1180","-53.5094","115","Canada"
"Miminegash","46.8790","-64.2218","148.00","Canada"
"Enilda","55.4169","-116.3171","155.00","Canada"
"Melville","50.9306","-102.8078","4562","Canada"
"La Patrie","45.4000","-71.2500","749","Canada"
"Denzil","52.2287","-109.6500","143","Canada"
"Saint-Charles-Borromee","46.0500","-73.4667","13321","Canada"
"Granby","45.4000","-72.7333","63433","Canada"
"Perdue No. 346","52.0129","-107.4995","445.00","Canada"
"Dalhousie","48.1000","-66.6167","3126","Canada"
"Cramahe","44.0833","-77.8833","6355","Canada"
"Debden","53.5170","-106.8670","337","Canada"
"Cook Harbour","51.6033","-55.8711","123","Canada"
"Lakeland No. 521","53.7431","-105.9001","915.00","Canada"
"Strathmore","51.0378","-113.4003","13756","Canada"
"Clarington","43.9350","-78.6083","92013","Canada"
"Saint-Elphege","46.0500","-72.7000","292","Canada"
"Saint-Zacharie","46.1333","-70.3667","1751","Canada"
"Hosmer","49.5894","-114.9651","115.00","Canada"
"Parrsboro","45.3998","-64.3312","1205.00","Canada"
"Grosses-Roches","48.9333","-67.1667","411","Canada"
"Machin","49.7833","-93.1667","971","Canada"
"Wainwright","52.8333","-110.8667","6270","Canada"
"Austin","45.1833","-72.2833","1880","Canada"
"Caramat","49.6180","-86.1262","50.00","Canada"
"Saint-Antoine","46.3629","-64.7530","1733","Canada"
"Saint-Paul-d'Abbotsford","45.4333","-72.8833","2870","Canada"
"Saint-Nazaire-de-Dorchester","46.5500","-70.6667","355","Canada"
"Fertile Valley No. 285","51.4331","-107.2100","539.00","Canada"
"Lanark Highlands","45.0880","-76.5170","5338","Canada"
"Terrace Bay","48.8000","-87.1000","1611","Canada"
"Bircham","51.4588","-113.4307","5.00","Canada"
"Redcliff","50.0792","-110.7783","5600","Canada"
"Norfolk-Treherne","49.6653","-98.5967","2011","Canada"
"Mount Stewart","46.3667","-62.8667","209.00","Canada"
"Weedon-Centre","45.7000","-71.4667","2683","Canada"
"Warden","45.3833","-72.5000","358","Canada"
"Cambridge-Narrows","45.8285","-65.9554","562","Canada"
"Anglemont","50.9638","-119.1853","472.00","Canada"
"Oasis","49.1384","-117.7463","111.00","Canada"
"Kivimaa-Moonlight Bay","53.6100","-108.6630","84","Canada"
"Chisholm","46.1000","-79.2333","1291","Canada"
"Lac-Etchemin","46.4000","-70.5000","4061","Canada"
"Shellbrook No. 493","53.3545","-106.2553","1587.00","Canada"
"Milton No. 292","51.4895","-109.8326","241.00","Canada"
"Dawn-Euphemia","42.7000","-82.0167","1967","Canada"
"Saint-Philemon","46.6833","-70.4500","742","Canada"
"Enniskillen No. 3","49.1299","-102.2089","459.00","Canada"
"Tweed","44.6000","-77.3333","6044","Canada"
"Bishopton","45.5889","-71.5795","441.00","Canada"
"Saint-Francois de Madawaska","47.2516","-68.7136","470.00","Canada"
"Nevis","52.3288","-113.0338","25.00","Canada"
"Touchwood No. 248","51.2234","-104.3281","343.00","Canada"
"Candle Lake","53.7850","-105.2570","840","Canada"
"North Rustico","46.4583","-63.3125","607","Canada"
"Saint-Hilaire","47.3264","-68.4370","478.00","Canada"
"Nobleford","49.8822","-113.0531","1278","Canada"
"Saint-Amable","45.6500","-73.3000","10870","Canada"
"Port Anson","49.5400","-55.8330","130","Canada"
"Lousana","52.1128","-113.1900","58.00","Canada"
"Saint-Jean-de-la-Lande","47.4333","-68.6833","310","Canada"
"Moose Mountain No. 63","49.6425","-102.2047","492.00","Canada"
"Saint-Damien","46.3300","-73.4800","2020","Canada"
"Point May","46.9003","-55.9278","231","Canada"
"Bellburns","50.3337","-57.5323","53","Canada"
"Melancthon","44.1500","-80.2667","3008","Canada"
"Drayton Valley","53.2222","-114.9769","7235","Canada"
"Richmond","46.0776","-67.7248","1303.00","Canada"
"Ryerson","45.5869","-79.5111","648","Canada"
"Eastend","49.5139","-108.8195","503","Canada"
"Lark Harbour","49.1000","-58.3667","522","Canada"
"Saint-Samuel","46.0667","-72.2167","743","Canada"
"South Huron","43.3200","-81.5000","10096","Canada"
"Willow Creek No. 458","53.0604","-104.4098","630.00","Canada"
"Hamiota","50.1964","-100.6342","2011","Canada"
"Windsor","44.9803","-64.1292","3648","Canada"
"Sidney","48.6506","-123.3986","11672","Canada"
"Picardville","54.0520","-113.8804","214.00","Canada"
"Saint-Rosaire","46.1667","-72.0333","838","Canada"
"Saint-Jerome","45.7833","-74.0000","69598","Canada"
"Warren","50.1303","-97.5512","818.00","Canada"
"Glovertown","48.6667","-54.0500","2083","Canada"
"Broderick","51.5120","-106.9120","85","Canada"
"Notre-Dame-de-la-Salette","45.7667","-75.5833","727","Canada"
"Ignace","49.4167","-91.6667","1202","Canada"
"Briercrest","50.1000","-105.1600","159","Canada"
"Garrick","53.4919","-104.3386","20.00","Canada"
"Colinton","54.6189","-113.2462","201.00","Canada"
"Notre-Dame-de-la-Paix","45.8167","-74.9667","648","Canada"
"Alvena","52.5167","-106.0167","55","Canada"
"Northesk","47.2569","-66.2613","2263.00","Canada"
"Saint-Benjamin","46.2833","-70.6000","891","Canada"
"Ainsworth","49.7355","-116.9149","20.00","Canada"
"Plumas","50.3829","-99.0838","243.00","Canada"
"Notre-Dame-du-Laus","46.0833","-75.6167","1518","Canada"
"Nanoose Bay","49.2512","-124.1227","230.00","Canada"
"Findlater","50.7870","-105.4040","45","Canada"
"Hopewell Cape","45.8061","-64.6815","647.00","Canada"
"Hayter","52.3577","-110.1074","89.00","Canada"
"Saint-Lambert-de-Lauzon","46.5865","-71.2271","6647.00","Canada"
"Indian Bay","49.0330","-53.8670","175","Canada"
"Tracy","45.6667","-66.6667","608.00","Canada"
"Weyakwin","54.4272","-105.7886","49.00","Canada"
"Rosebud","51.2985","-112.9531","87.00","Canada"
"Clarendon","45.6500","-76.5167","1256","Canada"
"Massey Drive","48.9372","-57.9000","1632","Canada"
"Beaver Flat","50.6620","-107.6630","72","Canada"
"Carbon","51.4888","-113.1539","454","Canada"
"Plunkett","51.9060","-105.4450","75","Canada"
"Begin","48.6667","-71.3333","868","Canada"
"Adelaide-Metcalfe","42.9500","-81.7000","2990","Canada"
"Champagne Landing 10","60.7869","-136.4749","20.00","Canada"
"Webb","50.1860","-108.2280","44","Canada"
"Saint-Norbert","46.1667","-73.3167","1059","Canada"
"Magnetawan","45.6667","-79.6333","1390","Canada"
"Dundee","45.0000","-74.5000","387","Canada"
"Saint-Adrien","45.8200","-71.7200","490","Canada"
"Terrace","54.5164","-128.5997","15723","Canada"
"Inkerman","47.6107","-64.8597","642.00","Canada"
"Ladysmith","48.9975","-123.8203","8537","Canada"
"Torrington","51.7911","-113.6011","170.00","Canada"
"Ayer's Cliff","45.1667","-72.0500","1109","Canada"
