"city","lat","lng","population", "country"
"Islynos","55.5106","22.7082","2","Lithuania"
"Pikiskes","54.1580","24.7890","1","Lithuania"
"Molavenai","55.4500","22.8833","14","Lithuania"
"Geguzinis","54.6810","24.1390","5","Lithuania"
"Kiduliai","55.0639","22.7889","354","Lithuania"
"Pagiriai","54.2590","23.5510","0","Lithuania"
"Pajusine","54.9440","25.6430","20","Lithuania"
"Povilauskai","55.6620","24.1260","7","Lithuania"
"Laukinciai","54.3560","23.8580","61","Lithuania"
"Voniskiai","55.0780","23.0810","182","Lithuania"
"Gacionys","56.1360","25.1690","2","Lithuania"
"Baliskiai","55.3820","26.1890","25","Lithuania"
"Kaniukai","55.6640","23.0980","33","Lithuania"
"Stalgas","55.7970","21.8670","51","Lithuania"
"Raikenai","56.0610","25.1500","137","Lithuania"
"Rudupys","55.2356","25.7892","0","Lithuania"
"Puodziai","55.4680","25.6830","72","Lithuania"
"Puodziai","55.7350","25.6110","1","Lithuania"
"Puodziai","54.3561","24.6389","363","Lithuania"
"Vigarai","55.9940","25.8760","0","Lithuania"
"Grazuciai","54.7170","23.8970","117","Lithuania"
"Ziukai","56.0120","24.2700","6","Lithuania"
"Pastulgiai","55.4900","22.6900","26","Lithuania"
"Raicioniai","55.5700","24.0750","16","Lithuania"
"Varnute","55.0920","24.2570","0","Lithuania"
"Stirnele","55.2310","25.6600","3","Lithuania"
"Nauja Pasamine","55.2031","26.0281","2","Lithuania"
"Gorupe","55.0380","24.8570","0","Lithuania"
"Pavartyciai","55.7720","23.7310","711","Lithuania"
"Rudeliske","55.0560","25.9720","0","Lithuania"
"Apideme","55.6900","23.0230","8","Lithuania"
"Plikiskiai","56.3361","23.6639","315","Lithuania"
"Rezaliai","55.6460","23.0790","0","Lithuania"
"Dzencialauka","54.6180","23.4250","95","Lithuania"
"Skaistine","55.8978","25.9708","0","Lithuania"
"Alsiai","56.3220","23.4530","127","Lithuania"
"Kunotai","55.7010","25.9750","7","Lithuania"
"Bagociai","54.1111","24.7419","17","Lithuania"
"Palukojis","55.6980","23.0530","1","Lithuania"
"Galazeriai","55.9070","25.8380","10","Lithuania"
"Budriai","55.8750","21.4530","204","Lithuania"
"Jotaineliai","55.5220","24.4220","3","Lithuania"
"Kuksos","55.2950","26.7210","0","Lithuania"
"Buntiskes","54.6470","24.3890","18","Lithuania"
"Misuciai","55.4370","22.2250","60","Lithuania"
"Paraisupys","54.6160","23.4640","6","Lithuania"
"Kuturiai","55.1100","22.8030","59","Lithuania"
"Margininkai","54.7920","24.0500","178","Lithuania"
"Milvyda","54.1390","24.7220","6","Lithuania"
"Margininkai","55.5190","23.8640","14","Lithuania"
"Konstantinavas","55.0910","26.1940","6","Lithuania"
"Konstantinavas","55.1820","26.1260","0","Lithuania"
"Girdenai","55.1670","26.4160","46","Lithuania"
"Kujokai","55.7340","22.7970","3","Lithuania"
"Pumputiskis","55.0850","25.0200","0","Lithuania"
"Liperiske","55.2347","22.4806","5","Lithuania"
"Pagrubys","56.0870","25.4290","2","Lithuania"
"Mataiciai","55.6140","21.7170","108","Lithuania"
"Pazeimene","55.0350","25.8730","14","Lithuania"
"Bertesiunai","54.9360","24.6030","9","Lithuania"
"Drasiai","55.0400","25.3760","23","Lithuania"
"Opskalnis","55.6660","22.8570","0","Lithuania"
"Kuliai","54.5720","25.5470","106","Lithuania"
"Ivoniskes","55.8240","25.9320","9","Lithuania"
"Trakiskiai","54.4530","23.2060","161","Lithuania"
"Libisonys","55.3500","24.6060","0","Lithuania"
"Padrujys","55.6220","24.8280","0","Lithuania"
"Vaivadiskes","55.2990","25.6750","3","Lithuania"
"Surdaugiai","55.5110","24.7720","22","Lithuania"
"Stulgiai","55.0690","23.1140","36","Lithuania"
"Koptiske","55.6700","26.5440","11","Lithuania"
"Laukagaliai","55.0811","24.3000","15","Lithuania"
"Girneliske","55.2780","26.2630","7","Lithuania"
"Padaugupis","55.0580","23.8810","13","Lithuania"
"Vaidziai","55.6910","22.9340","24","Lithuania"
"Buteikiai","56.0030","25.4970","10","Lithuania"
"Milzavenai","55.4780","22.7560","59","Lithuania"
"Budreliskes","54.7270","25.6150","11","Lithuania"
"Spragilai","55.2820","25.2800","0","Lithuania"
"Ilgabrade","54.9110","25.0040","3","Lithuania"
"Rudamina","54.2883","23.4517","296","Lithuania"
"Dambava","54.5910","23.5310","75","Lithuania"
"Santakis","55.8810","21.7150","12","Lithuania"
"Pasiekai","55.7320","26.1550","1","Lithuania"
"Pasiekai","55.6710","26.5690","0","Lithuania"
"Kemsiai","56.3040","23.3450","77","Lithuania"
"Kebiske","55.0320","26.1810","1","Lithuania"
"Senieji Vedegiskiai","55.0400","23.3610","4","Lithuania"
"Tauciai","56.0650","22.2450","16","Lithuania"
"Dainiai","54.5130","24.9540","32","Lithuania"
"Butkunai","55.7610","25.1080","21","Lithuania"
"Isdagieciai","56.0680","23.6620","7","Lithuania"
"Pasimniai","54.3940","23.6250","9","Lithuania"
"Nasloniskis","55.5290","25.8060","3","Lithuania"
"Masnycios","54.0420","24.1250","36","Lithuania"
"Ukmerge","55.2667","24.7500","21226","Lithuania"
"Slumpiai","55.7250","22.6640","104","Lithuania"
"Bebruliske","54.7020","23.4670","5","Lithuania"
"Tyrelkai","55.9390","23.1190","11","Lithuania"
"Tolkiskes","54.5390","24.6410","52","Lithuania"
"Kaulakiai","55.4280","23.2580","473","Lithuania"
"Kapitoniskes","54.8420","24.2280","28","Lithuania"
"Kriviciai","55.3750","25.3810","4","Lithuania"
"Paisete I","55.3210","25.8230","9","Lithuania"
"Gruzdziai","56.0190","23.2620","7","Lithuania"
"Mateikiske","55.4110","26.4840","3","Lithuania"
"Bernoriskiai","55.0860","23.5670","4","Lithuania"
"Pirktine I","55.1040","25.9890","1","Lithuania"
"Moskenai","55.9690","25.4480","58","Lithuania"
"Karlauka","54.9670","24.4170","0","Lithuania"
"Bieniunai","55.5320","26.4890","44","Lithuania"
"Alekniskis","55.0470","24.6190","5","Lithuania"
"Andrisonys","56.1670","25.1530","4","Lithuania"
"Liunai","55.9170","22.3490","12","Lithuania"
"Tautkaiciai","54.6140","23.4470","267","Lithuania"
"Kamuntavas","55.4660","26.4100","3","Lithuania"
"Galina","55.2860","23.3860","5","Lithuania"
"Saltieji Saltiniai","54.4386","23.1672","27","Lithuania"
"Vaicaiciai","55.6010","23.8410","1","Lithuania"
"Biksiai","56.2250","24.5890","16","Lithuania"
"Grigoziske","55.2450","23.0710","3","Lithuania"
"Paezereliai","54.4890","23.3480","11","Lithuania"
"Didysis Raistas","54.9610","24.1610","52","Lithuania"
"Didsode","56.0830","25.5610","189","Lithuania"
"Daukniskiai","55.8170","24.2700","22","Lithuania"
"Daukniskiai","55.8780","24.6700","16","Lithuania"
"Aleksandrava","54.4920","24.0890","23","Lithuania"
"Aleksandrava","54.5080","24.3690","13","Lithuania"
"Prystovai","55.9560","21.5640","11","Lithuania"
"Maciulaiciai","54.4840","24.8100","5","Lithuania"
"Dadotkai","56.1380","22.2980","79","Lithuania"
"Totorkiemis","54.5030","22.7220","101","Lithuania"
"Prasciunai","55.6750","23.9440","120","Lithuania"
"Prasciunai","55.5310","24.6510","25","Lithuania"
"Zuikos","55.2970","26.1930","21","Lithuania"
"Luksnenai","54.3972","23.9306","614","Lithuania"
"Kauksnujai","55.9220","23.7000","131","Lithuania"
"Skevonys","54.6139","23.9750","95","Lithuania"
"Gruzos","55.3670","24.5390","16","Lithuania"
"Pasausiai","55.6610","24.8280","3","Lithuania"
"Kumpuoliskis","55.9240","25.9170","3","Lithuania"
"Padvarniskiai","54.5480","22.7470","15","Lithuania"
"Pamerionys","54.9720","25.9350","3","Lithuania"
"Baltramiejiskiai","55.2139","22.3056","40","Lithuania"
"Bunokiskes","55.9550","23.0610","18","Lithuania"
"Kuveniai","55.1480","25.3090","11","Lithuania"
"Juozuniske","54.7180","23.2470","16","Lithuania"
"Narsuniskes","55.7170","26.1800","4","Lithuania"
"Dailiunai","55.8860","25.1810","72","Lithuania"
"Racyliske","54.6860","23.5080","22","Lithuania"
"Stirniskiai","54.4350","22.8630","7","Lithuania"
"Vijurkai","55.7440","23.0640","117","Lithuania"
"Sodziunai","55.5360","26.2230","8","Lithuania"
"Grezeniskiai","55.0910","24.7120","0","Lithuania"
"Pauznykiai","55.0410","23.2900","11","Lithuania"
"Velickos","55.1910","26.2360","11","Lithuania"
"Palimsiai","54.7690","24.3360","4","Lithuania"
"Avizieniai","55.3000","25.0420","8","Lithuania"
"Linkaiciai","56.3330","23.6440","11","Lithuania"
"Siauriai","55.8330","24.8560","104","Lithuania"
"Karsakai","54.8750","24.6500","54","Lithuania"
"Lobiniai","54.7830","25.6940","0","Lithuania"
"Lygamiskis","55.6280","25.5570","0","Lithuania"
"Vigutenai","55.5530","26.5100","4","Lithuania"
"Santaka","54.4060","23.2690","255","Lithuania"
"Razmai","55.7150","22.3790","42","Lithuania"
"Radiskis","55.3370","24.8890","4","Lithuania"
"Nakiskiai","55.9940","24.0810","213","Lithuania"
"Leiciskiai","54.5320","23.6620","13","Lithuania"
"Jurgiskiai","54.3840","23.0330","7","Lithuania"
"Zemuciai","55.2367","21.9694","6","Lithuania"
"Naujasode","55.4730","24.2860","2","Lithuania"
"Antagyneles","55.1222","23.8604","0","Lithuania"
"Skrebule","55.5660","25.6870","1","Lithuania"
"Rodai I","55.5560","24.1200","1","Lithuania"
"Kisunai","55.7062","25.5425","7","Lithuania"
"Pjauliai","55.5420","21.2610","46","Lithuania"
"Murdvaris","56.0720","24.0220","8","Lithuania"
"Rasa","55.2150","25.6620","1","Lithuania"
"Uzusaliai","54.9833","24.1972","844","Lithuania"
"Pabrazuole","54.6700","25.6410","0","Lithuania"
"Pajuodziai","54.6250","25.4730","13","Lithuania"
"Karalinava","55.5440","25.3390","0","Lithuania"
"Apykeliai","55.5190","24.9500","9","Lithuania"
"Kalviske","55.3310","26.2220","2","Lithuania"
"Kalviske","55.5050","26.1700","1","Lithuania"
"Draudeliai","56.1220","23.8140","264","Lithuania"
"Nasiskiai","55.0770","25.5200","1","Lithuania"
"Pamarnakiai","55.8080","24.8280","13","Lithuania"
"Ariske","55.8500","22.1720","8","Lithuania"
"Stukai","55.4417","23.8769","0","Lithuania"
"Salteniai","55.8310","24.7690","7","Lithuania"
"Grikieniai","54.7740","25.1060","243","Lithuania"
"Dulkiniske","55.9060","22.5620","10","Lithuania"
"Purveliai","54.2920","24.3220","5","Lithuania"
"Purveliai","55.4440","24.9670","3","Lithuania"
"Bumbuliai","55.5480","22.7430","0","Lithuania"
"Jurginiskiai","54.7500","23.8970","10","Lithuania"
"Tytuveneliai","55.6270","23.1710","34","Lithuania"
"Zasinyciai","55.9530","24.9830","22","Lithuania"
"Alinava","55.8030","24.2030","3","Lithuania"
"Samylai","54.8610","24.1080","198","Lithuania"
"Reguliai","55.4000","23.6640","6","Lithuania"
"Kantrimiskis","55.7988","24.8429","0","Lithuania"
"Bikenai","55.6280","26.0880","29","Lithuania"
"Naujasodis","54.4330","25.3360","121","Lithuania"
"Aukstakaimis","55.0830","24.5330","12","Lithuania"
"Titoniai","56.0470","24.0190","267","Lithuania"
"Naujadalis","55.5390","24.7750","0","Lithuania"
"Zardeliai","54.7730","23.1260","15","Lithuania"
"Menctrakis","54.5900","23.6380","38","Lithuania"
"Ciuiniske","54.6880","23.3930","10","Lithuania"
"Seduniskis","55.3730","25.2390","5","Lithuania"
"Dzidai","55.8310","23.1670","11","Lithuania"
"Berzatiltis","55.4180","25.8400","4","Lithuania"
"Budraiciai","55.5450","22.6900","32","Lithuania"
"Kubiliunai","56.2390","24.4360","187","Lithuania"
"Pakalniskes","55.7080","26.2660","16","Lithuania"
"Paezeriai I","55.4440","25.2000","2","Lithuania"
"Sieciai","55.9920","23.9970","31","Lithuania"
"Staskuniskes","54.6210","24.7780","6","Lithuania"
"Cincikos","55.1720","26.1680","60","Lithuania"
"Motiejunai","55.3770","25.3610","14","Lithuania"
"Kanopenai","55.5300","22.9240","20","Lithuania"
"Mockenai","55.4880","25.6650","96","Lithuania"
"Ezeriskis","55.9370","25.8670","2","Lithuania"
"Gastynai","55.6440","22.8430","89","Lithuania"
"Jodenai","55.9530","21.7930","103","Lithuania"
"Mirkliai","55.3640","23.1280","28","Lithuania"
"Pempiai","55.2390","24.8860","8","Lithuania"
"Plekaiciai","55.5670","23.2730","14","Lithuania"
"Kumeciai II","54.5740","22.9080","8","Lithuania"
"Svedukalnis","55.9170","25.1810","31","Lithuania"
"Dindos","55.2990","26.1510","12","Lithuania"
"Barisiskiai","55.7330","22.8730","2","Lithuania"
"Jankuniskes","54.8980","25.3800","2","Lithuania"
"Samanyne","55.7580","24.4360","26","Lithuania"
"Loviai","54.9820","25.2790","2","Lithuania"
"Juskaiciai","56.2850","23.2580","0","Lithuania"
"Samoskaliai","55.5992","22.2314","28","Lithuania"
"Voveryne","55.5336","25.6161","111","Lithuania"
"Sarkiskiai","54.3530","23.5830","17","Lithuania"
"Palukalnis","55.7690","22.1970","12","Lithuania"
"Pakersiai","55.3530","25.0780","7","Lithuania"
"Kieriskiai","55.0870","25.4250","2","Lithuania"
"Pakalnupys","55.3260","23.0400","0","Lithuania"
"Gincaiciai","55.4190","23.2000","111","Lithuania"
"Skapiskis","55.6930","23.9240","5","Lithuania"
"Sugintai","55.3470","21.7030","204","Lithuania"
"Ratlankstis","55.4220","24.3140","0","Lithuania"
"Duburiai","55.6550","22.8470","13","Lithuania"
"Karcekai","55.6360","24.8860","17","Lithuania"
"Valatkoniai","55.6280","23.7860","200","Lithuania"
"Grynaiciai","55.5030","21.5060","8","Lithuania"
"Daumantiskiai","55.1440","24.7330","65","Lithuania"
"Linkuva","56.0889","23.9722","1246","Lithuania"
"Geivitoniai","56.0290","24.4330","13","Lithuania"
"Naujalaukis I","54.6580","24.5000","10","Lithuania"
"Mazulonys","55.2970","26.2500","4","Lithuania"
"Kiaulupiai","54.9110","22.9890","44","Lithuania"
"Vagupiai","55.3330","23.4080","0","Lithuania"
"Valakai","56.2820","23.8160","21","Lithuania"
"Lasiniai","55.6440","25.1390","10","Lithuania"
"Laukagalis","55.2570","25.7350","5","Lithuania"
"Bijunai","54.5817","24.6203","19","Lithuania"
"Bezdonys","54.8056","25.5167","743","Lithuania"
"Zibalai","55.0830","24.9770","34","Lithuania"
"Griauzeliskiai","55.8000","24.9750","10","Lithuania"
"Kurkliai II","55.4250","25.1080","225","Lithuania"
"Armoniskiai","55.3390","25.1030","0","Lithuania"
"Kloniniai Jagelonys","54.7360","24.5530","19","Lithuania"
"Sodenai","54.5600","22.9250","40","Lithuania"
"Vileikiai","55.5520","22.7560","46","Lithuania"
"Lokys","55.1217","24.3089","0","Lithuania"
"Gerciukai","55.1090","25.1900","0","Lithuania"
"Paprieniai","55.1810","23.5280","16","Lithuania"
"Galstai","54.1610","23.6030","22","Lithuania"
"Maitiegaliskes","54.6860","24.5920","2","Lithuania"
"Biliunai","55.6130","23.6950","0","Lithuania"
"Lebartai","55.6670","21.3000","66","Lithuania"
"Lebartai","55.7110","21.3440","26","Lithuania"
"Pasvire","54.6290","25.5530","6","Lithuania"
"Galiniai","55.6470","22.7550","10","Lithuania"
"Gobergiske","55.7250","21.3110","235","Lithuania"
"Didmiskis","56.0870","24.1590","0","Lithuania"
"Podhaliampolis","54.6690","24.5470","2","Lithuania"
"Buzai","55.2780","24.7190","15","Lithuania"
"Rumsiske","55.7110","22.4130","3","Lithuania"
"Petryne","55.0280","24.2690","5","Lithuania"
"Pakalne","54.5050","25.5280","14","Lithuania"
"Butrimonys","54.5028","24.2528","941","Lithuania"
"Andreikiskis","55.1560","25.0060","1","Lithuania"
"Misiuniskis","55.9760","25.6220","19","Lithuania"
"Geniai","56.2780","25.0170","2","Lithuania"
"Kirkiliskis","55.9340","24.4230","7","Lithuania"
"Dvaramiskis","55.8610","25.0110","6","Lithuania"
"Jagucioniai","55.3440","23.4420","4","Lithuania"
"Sidariai","55.7320","23.3090","62","Lithuania"
"Simkunai","55.4400","25.8460","4","Lithuania"
"Vydzionys","54.5360","24.3970","33","Lithuania"
"Kelpsiskiai","55.0940","24.8120","2","Lithuania"
"Saugos","55.4633","21.4562","945","Lithuania"
"Pasamane","54.7140","24.7560","4","Lithuania"
"Raudziai","55.4470","21.3030","16","Lithuania"
"Lamsociai","55.4750","21.3470","38","Lithuania"
"Sloviai","55.8370","22.4480","7","Lithuania"
"Zemosios Viesos","55.0740","24.8790","73","Lithuania"
"Raginenai","55.8000","23.8700","30","Lithuania"
"Juozapuvka","55.1380","25.2210","5","Lithuania"
"Brevikiai","56.0333","22.2167","51","Lithuania"
"Apvydzios","55.5354","25.4692","0","Lithuania"
"Musteikiai","55.4870","25.8050","7","Lithuania"
"Musteikiai","55.6400","25.7190","4","Lithuania"
"Upiskes","55.8400","26.1070","1","Lithuania"
"Stasaiciai","55.2640","24.1670","11","Lithuania"
"Vejalaukis","55.6170","24.0500","0","Lithuania"
"Jakai","55.7000","21.2194","603","Lithuania"
"Zebriai","55.6160","22.8520","35","Lithuania"
"Palipse","55.5690","25.3830","0","Lithuania"
"Domantiskiai","55.3030","24.5530","1","Lithuania"
"Aleniskes","55.1330","25.5030","1","Lithuania"
"Pakalnes","54.7000","24.6810","11","Lithuania"
"Kacaiciai","55.8639","21.4235","1","Lithuania"
"Pagulbis","55.3850","25.2390","1","Lithuania"
"Stasenai","55.0560","24.2110","66","Lithuania"
"Pelucmurgiai","54.3470","23.1630","6","Lithuania"
"Pusiliai","55.9230","22.8080","36","Lithuania"
"Dabravole","54.6530","23.2720","9","Lithuania"
"Kyburiai","55.5240","25.7520","23","Lithuania"
"Briendine","55.6220","24.9000","1","Lithuania"
"Jankogaliai","55.2500","24.5610","1","Lithuania"
"Danksiai","55.6890","22.8560","7","Lithuania"
"Puzionys","55.7580","25.2690","0","Lithuania"
"Nausode","56.1800","22.0940","50","Lithuania"
"Obeliskiai","56.3300","22.0470","22","Lithuania"
"Klapatauskiai","55.7160","22.7120","17","Lithuania"
"Randziai","55.6850","23.6830","0","Lithuania"
"Skarvadiskes","54.5320","25.5760","15","Lithuania"
"Krisciskes","54.8790","25.4740","42","Lithuania"
"Negarba","55.9609","21.2033","0","Lithuania"
"Darzupys","55.9860","25.2240","5","Lithuania"
"Girininkai","54.6540","25.0250","0","Lithuania"
"Tribarciai","54.3336","23.0881","15","Lithuania"
"Adamarina","54.5890","23.2530","45","Lithuania"
"Razrivka","55.9333","25.8997","0","Lithuania"
"Macioniai","55.2060","24.2830","0","Lithuania"
"Gaspariskiai","55.5150","25.5520","13","Lithuania"
"Vilkininkai","54.0690","23.8140","50","Lithuania"
"Smilgiai","55.2583","25.3889","0","Lithuania"
"Panevezys","55.7250","24.3639","91054","Lithuania"
"Smilgiai","54.6190","23.4970","269","Lithuania"
"Gintauciai","55.4810","23.3310","111","Lithuania"
"Varlenai","55.4500","24.7000","17","Lithuania"
"Paezerelis","54.8970","24.8840","0","Lithuania"
"Bukiskis","54.8250","25.1400","922","Lithuania"
"Rigmantiskiai","56.3810","24.9390","12","Lithuania"
"Jotyskiai Ii","55.0720","23.2180","44","Lithuania"
"Rukaiciai","56.2370","23.6760","6","Lithuania"
"Baboniskes","54.5120","25.2440","24","Lithuania"
"Baboniskes","54.9270","25.2560","10","Lithuania"
"Vaidatoniai","55.4810","22.6590","34","Lithuania"
"Kileva","55.5250","25.3780","0","Lithuania"
"Nemeiksiai","56.3190","23.7470","10","Lithuania"
"Kiauzeriai","55.8140","23.9780","30","Lithuania"
"Sausbaliai","54.7000","23.2190","122","Lithuania"
"Mazuliai","55.1130","25.7300","15","Lithuania"
"Pusilgiskiai","55.0290","24.6870","14","Lithuania"
"Ignotiskis","55.4060","25.6990","3","Lithuania"
"Pyvorai","55.7900","21.8150","5","Lithuania"
"Narusiai","55.3140","26.0280","0","Lithuania"
"Mitkuskiai","54.9200","25.1500","8","Lithuania"
"Apkartai I","55.7060","26.2240","22","Lithuania"
"Pocelonys","54.3580","24.2640","128","Lithuania"
"Tiryliai","55.7300","26.1790","3","Lithuania"
"Bileisiai","55.7570","25.7370","22","Lithuania"
"Tykle","55.7540","22.5820","1","Lithuania"
"Anapolis","56.1990","23.5860","2","Lithuania"
"Klopai","56.1410","23.6400","0","Lithuania"
"Dovainiskis","55.9510","23.7630","9","Lithuania"
"Gineikonys","54.6500","24.3560","13","Lithuania"
"Eitekonys","54.9170","24.4220","59","Lithuania"
"Zauliskes","54.8170","24.3030","7","Lithuania"
"Mackeliskiai","55.4940","24.8780","24","Lithuania"
"Mazuciai","54.5970","22.8750","116","Lithuania"
"Melduciai","55.8760","25.6770","45","Lithuania"
"Venta","56.1944","22.7000","2168","Lithuania"
"Kanteriskiai","55.2470","21.5670","181","Lithuania"
"Zibenai","54.9110","25.1370","13","Lithuania"
"Klepociai","54.1190","23.5810","64","Lithuania"
"Duobiai","55.5610","25.7960","19","Lithuania"
"Lukaiciai","55.4860","23.1720","0","Lithuania"
"Pakertiskes","54.7360","24.4330","13","Lithuania"
"Vencloviske","55.3290","26.3880","2","Lithuania"
"Santakai","54.8750","22.9640","51","Lithuania"
"Draseikiai","55.6700","24.0740","15","Lithuania"
"Sapiegiske","54.2610","24.3140","11","Lithuania"
"Sniegoniske","55.3690","22.6890","27","Lithuania"
"Pariebiai","54.9450","22.9640","5","Lithuania"
"Maldabudis","54.6390","23.7360","16","Lithuania"
"Jakstaiciukai","55.8940","23.1400","38","Lithuania"
"Noskunai","54.1250","24.6469","61","Lithuania"
"Mantviliskiai","55.6980","23.4440","5","Lithuania"
"Barklainiai","56.0880","24.5730","64","Lithuania"
"Barklainiai","55.9610","24.5380","22","Lithuania"
"Girdziunai","55.5360","26.5150","7","Lithuania"
"Kazliske","55.1290","26.1300","8","Lithuania"
"Slezai","56.2660","23.8770","0","Lithuania"
"Ubiskiai","56.2500","24.8110","6","Lithuania"
"Stanikunai","56.0340","25.2120","63","Lithuania"
"Ciciliskes","55.6770","26.3360","4","Lithuania"
"Garsvenai","55.1230","25.6280","32","Lithuania"
"Garsvenai","55.2750","25.2260","12","Lithuania"
"Krusnekai","54.5330","24.3580","3","Lithuania"
"Kurmoniskes","54.5610","24.1750","0","Lithuania"
"Notenai","55.6010","22.8650","4","Lithuania"
"Melyniai","55.8410","24.6880","4","Lithuania"
"Milioniskes","54.1890","24.3780","22","Lithuania"
"Sadunai","55.7360","25.9250","141","Lithuania"
"Moniskis","55.6120","25.8020","0","Lithuania"
"Klykoliai","56.3610","22.8330","129","Lithuania"
"Medsedziai","55.6560","21.4810","152","Lithuania"
"Pagailasiai","54.8290","25.2060","10","Lithuania"
"Laigiai","55.7250","21.7310","22","Lithuania"
"Buckiemis","54.7170","24.0440","32","Lithuania"
"Laistai","55.6440","21.2060","8","Lithuania"
"Trapikiske","55.3290","26.4160","7","Lithuania"
"Naidunai","54.4330","25.5740","4","Lithuania"
"Barstytaliai","56.1440","21.8670","32","Lithuania"
"Pasvente","55.2190","26.3440","1","Lithuania"
"Pumpuciai","55.4280","24.9110","178","Lithuania"
"Patasine","54.8310","23.2530","277","Lithuania"
"Vencavai","55.6970","25.9670","23","Lithuania"
"Mantvydai","55.4780","21.4610","66","Lithuania"
"Simaniskiai","55.6810","23.2850","3","Lithuania"
"Gasciunai","55.5530","23.8860","10","Lithuania"
"Rosachalina","55.0000","24.9580","0","Lithuania"
"Mediniskes","55.5550","25.7970","0","Lithuania"
"Stabaunycius","55.0580","23.7920","42","Lithuania"
"Naujieji Miezionys","54.2168","25.5700","3","Lithuania"
"Knitiskiai","55.3410","24.9000","7","Lithuania"
"Taucionys","54.4560","24.1500","29","Lithuania"
"Gasciunai","56.1470","23.6250","364","Lithuania"
"Vilkuociai","55.5110","26.4920","5","Lithuania"
"Ertejai","55.6860","25.2610","0","Lithuania"
"Melekonys","54.1420","24.7720","3","Lithuania"
"Kupsciai","55.2970","23.6860","30","Lithuania"
"Guntuliai","55.6690","25.8630","6","Lithuania"
"Magunai","55.0570","25.2010","32","Lithuania"
"Pozaiciai","56.0840","22.5780","0","Lithuania"
"Palukniai","55.4580","25.2000","15","Lithuania"
"Melekonys","54.5670","25.2190","226","Lithuania"
"Kampiniai","54.5080","23.7510","17","Lithuania"
"Girele","55.2210","25.2160","4","Lithuania"
"Arabija","55.0836","25.3851","1","Lithuania"
"Plytine","54.9340","25.4140","5","Lithuania"
"Girele","55.8140","24.7950","0","Lithuania"
"Kaisenai","55.5170","23.3810","2","Lithuania"
"Darbutai","55.3110","23.4280","14","Lithuania"
"Sarakai","54.6560","23.3630","11","Lithuania"
"Padubulis","55.6860","22.5780","0","Lithuania"
"Plytine","55.3390","24.9310","2","Lithuania"
"Plytine","54.5770","24.7510","5","Lithuania"
"Ilgoji Lova","55.9750","23.5390","8","Lithuania"
"Bunikeliai","55.0200","22.7920","27","Lithuania"
"Bunikeliai","55.0460","23.1570","17","Lithuania"
"Pikietai","55.8090","25.5310","6","Lithuania"
"Pikietai","56.0780","25.6270","1","Lithuania"
"Zaulcai","54.6920","24.6580","3","Lithuania"
"Balaganai","54.4860","24.4190","0","Lithuania"
"Naujininkai","55.2940","21.6420","19","Lithuania"
"Petraiciai","56.3420","23.3610","53","Lithuania"
"Judinys","55.4190","24.9280","11","Lithuania"
"Diktariskiai","55.6540","23.4560","36","Lithuania"
"Audiejiske","54.7620","23.2970","3","Lithuania"
"Mantvydziai","56.2740","22.1150","12","Lithuania"
"Dauginiai","56.1440","22.5210","5","Lithuania"
"Vilkiskiai","55.3330","25.0500","3","Lithuania"
"Santupiai","55.6330","26.3340","8","Lithuania"
"Maciuliskiai","54.5890","23.6250","10","Lithuania"
"Uzbrukis","55.6940","22.9720","4","Lithuania"
"Malinava","54.5670","23.6700","6","Lithuania"
"Didieji Bausiai","54.3250","25.4250","306","Lithuania"
"Skaisciai","54.3720","23.0660","24","Lithuania"
"Mikniunai","54.2500","24.2810","23","Lithuania"
"Preikurai","55.6800","22.9660","41","Lithuania"
"Pukeliai","55.8690","24.3860","0","Lithuania"
"Kaunetiskiai","55.5520","23.3560","33","Lithuania"
"Vistelionys","54.5600","24.9290","28","Lithuania"
"Dubiskes","55.6170","25.1190","5","Lithuania"
"Jackiskiai","55.0790","23.9330","4","Lithuania"
"Gegabrasta","55.9660","24.3030","33","Lithuania"
"Gludiskis","56.1560","24.9830","1","Lithuania"
"Dvaralis","56.3030","21.7890","6","Lithuania"
"Antupiai","54.6140","23.1540","80","Lithuania"
"Antupiai","54.5882","25.3984","3","Lithuania"
"Jokubonys","55.0060","25.3680","24","Lithuania"
"Naujikai","56.0360","24.3350","14","Lithuania"
"Sekionys","54.6920","24.1030","74","Lithuania"
"Nekrunai","54.2190","23.5580","20","Lithuania"
"Stebeikiai","54.7330","24.2560","11","Lithuania"
"Lapaika","54.8250","24.7940","0","Lithuania"
"Buvainiai","56.1440","23.3860","10","Lithuania"
"Mateikiskiai","55.2030","25.0500","65","Lithuania"
"Veliapolis","55.4900","24.4870","3","Lithuania"
"Mumaiciai","55.4690","23.6860","7","Lithuania"
"Naujoji Akmene","56.3250","22.8833","7194","Lithuania"
"Kelmai","55.1170","24.6330","12","Lithuania"
"Devynakiai","55.3500","22.3972","3","Lithuania"
"Rimdziai","55.7190","25.3610","0","Lithuania"
"Gudai","55.7070","22.6450","20","Lithuania"
"Pajevonys","54.5311","22.8281","576","Lithuania"
"Jasai","55.7710","25.8780","19","Lithuania"
"Pavajuonis","55.3080","25.7280","6","Lithuania"
"Moluvenai","54.6970","25.0290","25","Lithuania"
"Panoteriai","55.1944","24.4278","360","Lithuania"
"Demeniskiai","54.1830","23.7500","42","Lithuania"
"Bendikai","55.7940","21.1030","7","Lithuania"
"Kalanciai","55.6080","23.5580","5","Lithuania"
"Sateikiai","56.0000","21.6778","676","Lithuania"
"Aukstoji","54.9778","22.8194","9","Lithuania"
"Spaskos","55.2380","25.4380","7","Lithuania"
"Grumbinai","55.6250","25.0000","5","Lithuania"
"Dainiai","55.3440","24.4670","7","Lithuania"
"Pagludziai","55.7650","22.5500","0","Lithuania"
"Aukstoji","55.2333","26.2139","2","Lithuania"
"Tausenai","56.2290","23.4470","4","Lithuania"
"Moline","55.3560","26.4280","1","Lithuania"
"Budiniai","55.6250","26.5080","3","Lithuania"
"Kvedariske","55.7840","23.0430","6","Lithuania"
"Sidabryne II","56.3080","23.5840","4","Lithuania"
"Armuksna","55.3640","24.7970","5","Lithuania"
"Bevirse","54.9130","25.5160","7","Lithuania"
"Pipiriskes","54.7360","24.7420","2","Lithuania"
"Budviete","56.2550","21.5600","42","Lithuania"
"Ilgiziai I","55.3890","23.5220","4","Lithuania"
"Kuliai","55.8000","21.6531","625","Lithuania"
"Pagranda","55.3100","25.8430","0","Lithuania"
"Pagranda","55.5280","25.4890","0","Lithuania"
"Marsoniskes","55.7610","26.1250","6","Lithuania"
"Bekstonys","54.8780","24.7390","15","Lithuania"
"Baltadvaris","55.2250","25.2510","1","Lithuania"
"Pusynelis","55.0390","24.2420","12","Lithuania"
"Kairiskes","54.7640","24.3640","59","Lithuania"
"Olisanka","55.1470","24.7670","1","Lithuania"
"Duobuzele","55.2070","25.2330","10","Lithuania"
"Truikiai","55.9390","21.8720","163","Lithuania"
"Pumpuciai","55.2540","25.2330","27","Lithuania"
"Senamiestis","55.7660","24.3630","53","Lithuania"
"Miskadvaris","54.8540","25.2600","2","Lithuania"
"Raudondvaris","54.8250","25.2830","271","Lithuania"
"Raudondvaris","54.8720","25.5420","182","Lithuania"
"Margiske","55.0840","26.2460","1","Lithuania"
"Kreiviai","55.2390","24.6220","70","Lithuania"
"Akmena","54.9980","25.3690","24","Lithuania"
"Akmena","55.0260","25.2610","23","Lithuania"
"Necioneliai","56.1440","24.3500","6","Lithuania"
"Galvydziai","55.6530","25.2940","10","Lithuania"
"Padvariskes","54.9230","25.2480","29","Lithuania"
"Laukagaliai","55.4820","24.5040","19","Lithuania"
"Stebeikiai","55.9620","24.3940","5","Lithuania"
"Rumpiskenai","55.9970","25.3180","35","Lithuania"
"Prauda","54.0940","24.7440","5","Lithuania"
"Pruseliai","55.0060","23.0360","162","Lithuania"
"Pruseliai","56.0870","25.5130","20","Lithuania"
"Gailioniskiai","56.0300","24.0930","6","Lithuania"
"Sujainiai","55.3720","22.9860","83","Lithuania"
"Mesliukai","54.9040","25.0440","2","Lithuania"
"Verbiskes","54.8780","25.2650","30","Lithuania"
"Eglupis","54.7180","23.3740","3","Lithuania"
"Daumenai","55.3690","23.0060","3","Lithuania"
"Talkininkai","55.4610","22.9170","3","Lithuania"
"Garliava","54.8167","23.8667","9873","Lithuania"
"Daunorava","56.3080","23.5640","9","Lithuania"
"Dusmenys","54.4390","24.5000","181","Lithuania"
"Gureliai","54.9030","24.6610","0","Lithuania"
"Gesviai","55.8920","24.0540","0","Lithuania"
"Maciuliskes","54.6390","23.6150","7","Lithuania"
"Sabijonai","54.8080","23.2170","3","Lithuania"
"Dankstyte","54.7690","24.0220","2","Lithuania"
"Smiltyne","55.7350","24.2450","30","Lithuania"
"Smiltyne","55.9900","24.4650","5","Lithuania"
"Smiltyne","55.5200","23.5640","8","Lithuania"
"Dirmeitai","55.0170","25.4090","17","Lithuania"
"Mickai","54.8310","23.0620","11","Lithuania"
"Lenciai","55.4590","23.5840","1","Lithuania"
"Paserninkai","54.1940","23.8000","103","Lithuania"
"Nugariskes","54.9560","25.2780","9","Lithuania"
"Jonkiske","54.2330","23.7830","5","Lithuania"
"Barzdziai","55.9630","25.2750","6","Lithuania"
"Jakava","54.7860","24.1830","5","Lithuania"
"Ropiena","55.0589","23.1303","1","Lithuania"
"Jurjonai","55.6560","21.4330","28","Lithuania"
"Jurjonai","55.7640","21.5530","28","Lithuania"
"Aukstakalnis","55.4670","25.4380","4","Lithuania"
"Aukstakalnis","55.4340","25.6290","2","Lithuania"
"Pypliai","55.5220","23.6330","26","Lithuania"
"Gervelenai","56.1360","25.1250","22","Lithuania"
"Derveliai","55.8800","23.7470","60","Lithuania"
"Garsviai","56.1500","24.9670","8","Lithuania"
"Senadvaris","55.1710","26.2090","6","Lithuania"
"Senadvaris","55.1204","26.0410","0","Lithuania"
"Pareizgupis","55.3440","23.0110","44","Lithuania"
"Sukeliske","55.5330","26.2710","3","Lithuania"
"Kanyzelis","56.2890","21.5080","74","Lithuania"
"Berzonka","54.7970","24.7860","6","Lithuania"
"Sileikiske","55.2460","26.2860","35","Lithuania"
"Ringailiai","54.6720","24.4060","39","Lithuania"
"Dvyliske","55.4580","22.4780","22","Lithuania"
"Mileikiai","54.9510","25.3380","5","Lithuania"
"Dauginciai","55.9280","21.5420","170","Lithuania"
"Gaigalai","56.1220","25.0940","27","Lithuania"
"Petkunai","55.6560","24.7830","22","Lithuania"
"Smalvos","55.6409","26.3619","212","Lithuania"
"Uzubaliai","55.3470","24.9390","1","Lithuania"
"Neveliskes","54.8330","24.5780","7","Lithuania"
"Uzubaliai","54.7731","25.1950","143","Lithuania"
"Nuotakai","54.8060","24.8470","1","Lithuania"
"Karsteniai","55.8430","22.2520","38","Lithuania"
"Sakvietis","55.3860","22.3670","164","Lithuania"
"Gribziniai","55.7750","21.3830","59","Lithuania"
"Daneikiai","55.6220","25.9830","31","Lithuania"
"Dimgailiai","55.7110","22.8450","5","Lithuania"
"Neravai","54.1890","23.5890","91","Lithuania"
"Neravai","54.2890","23.4860","21","Lithuania"
"Vaineikiai","55.7310","25.5260","12","Lithuania"
"Snipiskiai","55.9820","25.2470","0","Lithuania"
"Klimbale","55.8143","24.4513","8","Lithuania"
"Labuciai","55.7500","23.6570","21","Lithuania"
"Sveksna","55.5167","21.6278","1649","Lithuania"
"Lapsiai","54.9970","24.7250","9","Lithuania"
"Lapsiai","55.0110","24.8970","0","Lithuania"
"Juodzgalys","55.6360","24.9860","6","Lithuania"
"Pajuostis","55.5830","24.8470","13","Lithuania"
"Kryziauka","55.2250","24.6220","3","Lithuania"
"Spernia","54.3530","23.6640","175","Lithuania"
"Zemaiteliai","55.9140","24.8190","0","Lithuania"
"Seskupis","55.7930","22.8160","6","Lithuania"
"Medzialenke","56.2180","22.4020","12","Lithuania"
"Pasvogine","55.4120","26.1440","2","Lithuania"
"Ruckoniai","55.0720","23.5110","24","Lithuania"
"Mostiskes","54.7719","25.6669","647","Lithuania"
"Gencai","55.9750","21.3030","73","Lithuania"
"Stebekiai II","55.4819","24.4181","0","Lithuania"
"Piliukai","55.6620","23.0380","3","Lithuania"
"Pelene","55.7790","24.0210","1","Lithuania"
"Pasakariskiai","55.3230","26.3780","0","Lithuania"
"Kalniskiai","55.1670","25.3370","8","Lithuania"
"Rimsenai","55.3850","26.2170","65","Lithuania"
"Kalniskiai","55.8860","21.5690","175","Lithuania"
"Repengiai","55.3640","24.0220","7","Lithuania"
"Miliukai","55.1810","24.8310","1","Lithuania"
"Getautai","55.9070","23.9770","3","Lithuania"
"Pakalniai","54.5930","25.4910","9","Lithuania"
"Slepeciai","55.5840","25.9180","60","Lithuania"
"Stakariskes","55.0260","25.5230","7","Lithuania"
"Dauskiai","55.6140","21.7560","6","Lithuania"
"Pakalniai","54.3940","22.7760","8","Lithuania"
"Ruzgai","56.3470","22.1780","179","Lithuania"
"Paulenka","54.1470","24.0580","0","Lithuania"
"Ruzgai","55.7420","25.3330","4","Lithuania"
"Petrosiai","55.8650","22.8070","1","Lithuania"
"Raudonpamusis","56.0720","24.0780","8","Lithuania"
"Kalniai","54.2850","23.2920","50","Lithuania"
"Tinteliai","55.9220","21.2780","34","Lithuania"
"Antanosa","54.9930","24.7920","3","Lithuania"
"Papurve","55.3550","25.6630","0","Lithuania"
"Motiejiskes","54.6190","25.4250","37","Lithuania"
"Gubariai","55.8020","26.1440","0","Lithuania"
"Margiai","54.0390","24.6940","6","Lithuania"
"Margiai","54.2000","24.2830","4","Lithuania"
"Kaseline","55.2360","25.5460","4","Lithuania"
"Berziniai","56.1310","24.8890","13","Lithuania"
"Kavalciukai","54.3670","23.6170","123","Lithuania"
"Maudziorai","55.8480","22.6290","73","Lithuania"
"Katiliai","54.6280","25.4280","42","Lithuania"
"Sausilis","55.8640","22.1480","10","Lithuania"
"Stulgeliai","54.7180","22.7760","58","Lithuania"
"Batenai","55.2050","25.2480","6","Lithuania"
"Eiciunai","55.0280","23.3640","18","Lithuania"
"Greikonys","54.5470","24.2220","51","Lithuania"
"Kakliniskes","54.7940","24.6500","13","Lithuania"
"Gureliai","55.1370","25.6980","8","Lithuania"
"Girnakaliai","54.7640","24.7190","19","Lithuania"
"Dainiskes","54.7140","24.5080","7","Lithuania"
"Kusiai","55.4570","21.9690","35","Lithuania"
"Aukstuoliai","55.9750","24.6890","10","Lithuania"
"Liaumuskos","55.4630","25.5700","2","Lithuania"
"Petkaiciai","55.3590","22.6490","66","Lithuania"
"Slabadele","55.5470","24.1080","14","Lithuania"
"Buciai","55.7350","24.1250","20","Lithuania"
"Pentvirsiai","54.8990","23.2460","11","Lithuania"
"Bartkelevicizna","55.1940","24.9060","1","Lithuania"
"Eiciunai","54.9530","25.0670","17","Lithuania"
"Budos","54.5830","24.0830","46","Lithuania"
"Auleliai","55.6670","25.4640","221","Lithuania"
"Lozarka","54.2830","23.5280","7","Lithuania"
"Baciuliai","54.9660","25.3200","2","Lithuania"
"Svirnai II","55.3920","24.8890","291","Lithuania"
"Munceliai","55.2170","26.2850","1","Lithuania"
"Pusdesriai","54.9340","22.8750","2","Lithuania"
"Viciunai","54.9840","25.1040","63","Lithuania"
"Pilenai","55.4220","24.8970","2","Lithuania"
"Paliunai","54.3000","23.4000","89","Lithuania"
"Paliunai","54.2080","23.7140","39","Lithuania"
"Paliunai","54.1440","23.7530","13","Lithuania"
"Puknaiciai","55.4310","23.3140","16","Lithuania"
"Kanopenai","55.3890","22.8500","13","Lithuania"
"Jagelava","55.1220","24.0250","4","Lithuania"
"Pamurme","55.2220","26.0930","10","Lithuania"
"Alksnaitis","55.5030","26.4330","3","Lithuania"
"Kacinge","54.1780","24.1530","3","Lithuania"
"Gyliskiai","54.9150","22.8880","0","Lithuania"
"Salociai","56.2360","24.3940","29","Lithuania"
"Slynai","54.4210","23.2990","0","Lithuania"
"Perunai","54.9860","25.3060","37","Lithuania"
"Vaitkiai","55.9460","21.6110","5","Lithuania"
"Aleksandrava","54.6830","24.6420","41","Lithuania"
"Sklioriskiai","55.7020","23.3010","21","Lithuania"
"Prapersa","55.5490","24.3400","6","Lithuania"
"Medingenai","55.8139","22.0667","396","Lithuania"
"Meskiai","55.4710","24.5090","18","Lithuania"
"Andriskiai","54.7170","22.9420","204","Lithuania"
"Galioriskes","54.5660","23.0770","0","Lithuania"
"Zerksciai","56.1810","22.6890","303","Lithuania"
"Juskonys","54.0220","23.7390","63","Lithuania"
"Padembiai","55.4100","24.4300","3","Lithuania"
"Girelka","55.4260","25.5860","4","Lithuania"
"Vainatrakis","54.7920","23.9860","17","Lithuania"
"Kaimenka","54.9820","24.7020","1","Lithuania"
"Pocaiciai","55.2500","22.7600","51","Lithuania"
"Veciai","56.1750","21.3780","7","Lithuania"
"Civyliskis","55.4610","25.2170","5","Lithuania"
"Noreikiai","55.9690","23.2330","123","Lithuania"
"Noreikiai","56.0820","23.4400","52","Lithuania"
"Grajauskai","54.4680","22.9870","30","Lithuania"
"Didzioji Palukne","56.2250","21.4080","11","Lithuania"
"Kryzkelis","54.8220","24.8860","0","Lithuania"
"Mielionys","55.1970","24.8470","5","Lithuania"
"Matjosiske","54.9860","23.2600","17","Lithuania"
"Darvydai","54.9910","24.6910","0","Lithuania"
"Joceliai","55.9570","25.4930","9","Lithuania"
"Pakalniskes","54.9560","25.1390","0","Lithuania"
"Liepine","55.7750","23.4580","2","Lithuania"
"Plentas","56.1030","23.9750","200","Lithuania"
"Bikenai","55.5190","26.3610","15","Lithuania"
"Pasilis","55.9940","23.8580","22","Lithuania"
"Kloniniai Mijaugonys","54.7830","24.6110","182","Lithuania"
"Kupstai","55.8260","24.2730","14","Lithuania"
"Paaldikis","55.1639","25.7528","4","Lithuania"
"Didvyciai","55.9470","21.8170","183","Lithuania"
"Egline","54.4840","25.3160","12","Lithuania"
"Egline","54.9270","25.3240","1","Lithuania"
"Madvilioniai","56.2920","23.8820","4","Lithuania"
"Smiltynai I","54.9640","23.9810","311","Lithuania"
"Boleslava","55.0860","24.7720","4","Lithuania"
"Normanciai","55.7970","23.2940","6","Lithuania"
"Senosios Naniskes","54.3060","24.8940","41","Lithuania"
"Meskonys","54.9300","25.3120","24","Lithuania"
"Pauolis","55.5440","25.6780","12","Lithuania"
"Vasyliskiai","55.1920","24.5250","1","Lithuania"
"Peleniskes","54.6040","24.8860","36","Lithuania"
"Bendiskiai","55.2570","25.1810","1","Lithuania"
"Felicinava","55.9780","22.6200","4","Lithuania"
"Lenciai","55.2920","23.5140","39","Lithuania"
"Dirvonai","55.4420","25.0780","0","Lithuania"
"Ureliai","54.2521","25.7125","28","Lithuania"
"Strazdai","54.9610","24.7820","11","Lithuania"
"Vileikiai","55.6980","23.8940","48","Lithuania"
"Smilgiai","54.9170","24.4610","7","Lithuania"
"Peledkojai","55.7760","22.7520","6","Lithuania"
"Biliunai","55.1970","24.8420","13","Lithuania"
"Samninkeliai","54.4710","24.6790","8","Lithuania"
"Biliunai","54.6820","22.9340","65","Lithuania"
"Patiltiniai","55.8590","26.1870","0","Lithuania"
"Biliunai","55.5450","25.5360","4","Lithuania"
"Kimbariskis I","55.6540","25.8130","1","Lithuania"
"Panedingys","54.2470","24.3190","9","Lithuania"
"Bliuvonys","55.4530","25.0640","12","Lithuania"
"Merkio Vilkiskes","54.4580","25.4040","0","Lithuania"
"Naudziunai","54.5811","24.0081","87","Lithuania"
"Vaskonys","55.5390","26.3570","3","Lithuania"
"Dausiskiai","56.0640","23.5680","2","Lithuania"
"Dausiskiai","56.1330","23.7400","2","Lithuania"
"Sulai","54.4583","23.0278","1","Lithuania"
"Maneiciai","55.6090","25.7260","18","Lithuania"
"Rudninkai","54.3360","23.2260","49","Lithuania"
"Obelninkeliai","54.3170","23.8250","40","Lithuania"
"Smilges","55.7600","25.9150","10","Lithuania"
"Preisiogala","55.0920","24.0670","29","Lithuania"
"Leveikoniai","56.2080","24.2320","2","Lithuania"
"Adomiske","55.1990","26.2600","18","Lithuania"
"Gintalaiciai","56.2890","21.7860","25","Lithuania"
"Luodziai","55.5690","26.1770","23","Lithuania"
"Siesartis","55.2940","24.8940","0","Lithuania"
"Gudoniskes","54.9170","25.3520","9","Lithuania"
"Gudoniskes","54.9790","25.2550","4","Lithuania"
"Pagojis I","56.0440","24.4270","2","Lithuania"
"Raudokle","55.3111","25.1778","4","Lithuania"
"Glumbotiske","55.7950","23.0510","4","Lithuania"
"Aponiskes","54.9250","24.6620","4","Lithuania"
"Plyniai","54.9250","23.1280","111","Lithuania"
"Dirziai","55.9020","23.5350","5","Lithuania"
"Liekiai","55.3720","26.3850","9","Lithuania"
"Kulabiskes","54.4659","24.0677","9","Lithuania"
"Geduziai","55.7390","22.7700","0","Lithuania"
"Cipkiskiai","55.4810","22.5740","13","Lithuania"
"Juciai","55.9320","25.9110","0","Lithuania"
"Medikoniai","55.8810","24.2330","33","Lithuania"
"Paguriai","56.0750","25.1460","2","Lithuania"
"Paliesis","55.3640","25.6350","4","Lithuania"
"Jociunai","55.6160","24.7010","18","Lithuania"
"Seiriskes","54.7280","24.7260","8","Lithuania"
"Berzyte","54.7710","25.7150","1","Lithuania"
"Berzyte","54.4940","25.6080","0","Lithuania"
"Getauciai","56.0850","21.9040","21","Lithuania"
"Bertuliai","56.0990","22.0660","21","Lithuania"
"Pazniokai","55.5140","24.9690","0","Lithuania"
"Tautkunai","55.6830","24.4670","5","Lithuania"
"Tautkunai","56.0320","23.9270","3","Lithuania"
"Mazviliske","55.3920","26.3610","6","Lithuania"
"Mazviliske","55.5090","26.5110","2","Lithuania"
"Galiskes","55.1970","25.5300","1","Lithuania"
"Gelve","55.1050","24.7370","2","Lithuania"
"Vaisgeliskis","55.2920","24.8610","6","Lithuania"
"Vaisgeliskis","55.2140","24.8440","6","Lithuania"
"Duliai","55.6170","25.8920","100","Lithuania"
"Pliauskes I","55.1690","26.0750","13","Lithuania"
"Vazniskiai","54.4530","23.3030","52","Lithuania"
"Kulsenai","56.1890","22.0940","111","Lithuania"
"Pasiausiukas","55.7030","23.1030","1","Lithuania"
"Skirmantiskes","54.7530","24.8940","14","Lithuania"
"Gumbiskis","56.0700","25.1410","2","Lithuania"
"Pamiskiai","56.1020","24.4170","3","Lithuania"
"Meldeikiai","55.9320","25.3420","3","Lithuania"
"Paltiniske","55.3640","22.5680","31","Lithuania"
"Budbaliai","54.5060","23.3330","50","Lithuania"
"Luknenai","55.8190","21.8330","151","Lithuania"
"Dvailiniai","55.0170","25.5140","39","Lithuania"
"Atiskiai","56.1290","24.2790","6","Lithuania"
"Mazuliai","55.7560","23.8170","50","Lithuania"
"Biruciai","55.6350","24.1430","1","Lithuania"
"Slabada","54.7180","23.3950","4","Lithuania"
"Lankos Laukas","55.9420","21.9420","13","Lithuania"
"Rugaliai","55.2056","22.3111","32","Lithuania"
"Pamauciai","56.2430","24.1650","2","Lithuania"
"Suduikiai","55.1560","25.5400","16","Lithuania"
"Pranciskonys","54.8760","25.3000","52","Lithuania"
"Slabada","55.5840","22.7030","14","Lithuania"
"Akolionija","54.9580","25.9330","8","Lithuania"
"Grybenai","55.0840","25.6970","3","Lithuania"
"Eituniske","54.9350","25.8350","0","Lithuania"
"Pluscios","55.5660","22.6930","35","Lithuania"
"Pelediskis","55.8040","24.5630","9","Lithuania"
"Kuna","54.8710","25.3860","17","Lithuania"
"Girialaukis","54.8850","25.3750","2","Lithuania"
"Bujutiske","55.2300","26.2540","2","Lithuania"
"Silonys","54.7220","24.5470","2","Lithuania"
"Paivodys","55.7560","25.4330","6","Lithuania"
"Maciunai","55.5220","24.7280","26","Lithuania"
"Daugalaiciai","56.0900","23.5950","17","Lithuania"
"Azuolyne","54.8170","25.2040","23","Lithuania"
"Azuolyne","55.1970","24.9920","2","Lithuania"
"Pakrovai","55.1740","25.5470","10","Lithuania"
"Pajurgiskes","54.6640","24.5330","2","Lithuania"
"Pezaiciai","55.5830","21.4920","374","Lithuania"
"Lugnaliai","55.8670","21.5580","0","Lithuania"
"Viesintos","55.7000","24.9970","7","Lithuania"
"Linkai","55.4240","25.7380","4","Lithuania"
"Bajoraiciai","55.5890","23.0160","2","Lithuania"
"Lopatiskes","54.5130","25.4400","20","Lithuania"
"Mazuliai","56.3170","22.7060","10","Lithuania"
"Naujakuriai","54.4180","25.5510","10","Lithuania"
"Juodzioniai","56.2500","24.8920","33","Lithuania"
"Vilkaraisciai","55.0700","25.6070","3","Lithuania"
"Graumine","55.8000","21.2920","88","Lithuania"
"Mackonys","54.6810","24.6890","4","Lithuania"
"Boguliuba","54.8880","24.8470","1","Lithuania"
"Pazveriniai","55.8460","24.0340","7","Lithuania"
"Lapedziai","55.5390","25.1080","0","Lithuania"
"Gumbeliai","54.3110","23.4580","24","Lithuania"
"Jasvilonys","55.7170","24.7070","62","Lithuania"
"Plepiskiai","55.4750","25.3170","3","Lithuania"
"Budezeriai","54.6120","23.0430","5","Lithuania"
"Naujasode","54.8330","25.5190","21","Lithuania"
"Gaudziociai","56.3140","22.8280","39","Lithuania"
"Papsiai","55.5920","25.3720","26","Lithuania"
"Slavinka","55.1410","25.6900","0","Lithuania"
"Kirkliai","56.1620","22.2410","5","Lithuania"
"Krakunai","54.1500","25.6167","86","Lithuania"
"Kreivuke","54.4060","23.1890","67","Lithuania"
"Klykunai","55.4920","25.2330","12","Lithuania"
"Jugalinas","54.7170","24.2170","2","Lithuania"
"Padvarninkai II","55.5230","22.7560","18","Lithuania"
"Klykunai","54.8140","24.8500","13","Lithuania"
"Lemucionys","54.8920","24.8000","0","Lithuania"
"Gibiseliai","55.8670","21.1250","32","Lithuania"
"Draseikiai","55.0000","24.0810","124","Lithuania"
"Bacioniai","55.8814","23.4379","2","Lithuania"
"Karaziskes","54.5750","24.8470","48","Lithuania"
"Ustrone II","55.4440","25.2330","0","Lithuania"
"Kuciske","54.7420","23.3370","16","Lithuania"
"Pabereziai","55.4140","25.3280","0","Lithuania"
"Mackonys","55.3810","24.9830","6","Lithuania"
"Remeisiai","55.2030","25.1140","16","Lithuania"
"Eidminiskiai","55.9480","25.9080","8","Lithuania"
"Bareisiai","55.9590","25.5050","6","Lithuania"
"Aleksandriskiai","55.0370","25.3320","4","Lithuania"
"Katiniske","55.3590","25.9180","8","Lithuania"
"Zemaiteliai","54.4310","24.1890","11","Lithuania"
"Dvaralaukiai","56.1990","24.1940","0","Lithuania"
"Alksniakiemis","54.6280","24.0580","36","Lithuania"
"Vidukle","55.4028","22.8972","1678","Lithuania"
"Cebeliske","54.8610","23.8030","14","Lithuania"
"Voriske","55.6390","22.6850","0","Lithuania"
"Pikeliske","55.7710","23.1670","78","Lithuania"
"Naujasedziai","55.3190","24.4310","9","Lithuania"
"Naujasedziai","55.3780","24.6190","5","Lithuania"
"Kukuliskiai","55.7830","26.1870","4","Lithuania"
"Rutuliskes","55.7640","26.0860","1","Lithuania"
"Naujasedziai","54.6300","25.5160","78","Lithuania"
"Naujasedziai","54.5540","25.6010","21","Lithuania"
"Vabaliskes","54.8930","25.2760","10","Lithuania"
"Zabalina","55.5740","25.8160","1","Lithuania"
"Miesteliskiai","55.9070","25.3430","5","Lithuania"
"Dobilyne","55.5250","25.3530","1","Lithuania"
"Kanciunai","55.0060","24.9010","1","Lithuania"
"Polianka","55.4310","26.3680","4","Lithuania"
"Baibiai","55.6280","25.9580","255","Lithuania"
"Doskonys","54.3610","24.3750","111","Lithuania"
"Vindeikiai","54.9972","24.8028","160","Lithuania"
"Martiniskenai","55.9550","25.4030","25","Lithuania"
"Sirvintos","55.0470","24.9420","744","Lithuania"
"Riklikai","55.3810","24.9000","22","Lithuania"
"Kriaukenai","55.8400","23.6570","3","Lithuania"
"Baltuciai","55.4180","25.4280","2","Lithuania"
"Verduliai","55.7830","23.6190","14","Lithuania"
"Krumpiai","55.9180","23.8490","5","Lithuania"
"Malioriske","55.6480","22.9110","6","Lithuania"
"Damononys","54.4000","24.6610","26","Lithuania"
"Rubikiai","55.5167","25.2500","326","Lithuania"
"Dagliliai","55.8640","25.7250","34","Lithuania"
"Bulotai","54.7780","24.4310","5","Lithuania"
"Naujiena","55.0000","23.6280","57","Lithuania"
"Puoriai","54.9870","24.9720","66","Lithuania"
"Saviskes","54.5200","24.4860","12","Lithuania"
"Lazdiniai","55.1920","26.6330","70","Lithuania"
"Pasiliai","54.6350","23.1300","0","Lithuania"
"Pasiliai","55.5750","25.5550","5","Lithuania"
"Kupsciai","55.4360","23.3780","23","Lithuania"
"Baubliai","56.1310","22.9190","47","Lithuania"
"Girele","55.4330","24.8810","18","Lithuania"
"Girele","55.6420","25.3030","0","Lithuania"
"Pasiliai","54.7294","25.2050","105","Lithuania"
"Kumpikai","56.0530","21.3610","173","Lithuania"
"Dabitai","55.0530","22.9910","73","Lithuania"
"Palacionys","54.0190","23.5920","2","Lithuania"
"Ignotiskis","55.9780","25.8950","11","Lithuania"
"Padrutupiai","55.2250","22.3930","29","Lithuania"
"Krunai","54.9583","24.8728","3","Lithuania"
"Akmenyne","55.3250","25.7940","1","Lithuania"
"Malgazatava","55.4830","24.8690","0","Lithuania"
"Klebonai","55.3530","21.7360","6","Lithuania"
"Paazvinte","55.4580","26.0180","1","Lithuania"
"Skuige","54.6060","23.7890","33","Lithuania"
"Kasiai","55.8020","23.9410","3","Lithuania"
"Misiunai","55.1920","26.1650","16","Lithuania"
"Pazaliese","54.9200","25.6390","6","Lithuania"
"Burtkaimis","55.2110","24.7440","11","Lithuania"
"Jaurai","55.3520","25.2580","9","Lithuania"
"Jaurai","55.1140","25.2880","8","Lithuania"
"Barbarauka","55.5670","25.6400","2","Lithuania"
"Kaukazas","54.9800","24.0750","24","Lithuania"
"Margionys","54.0000","24.2833","58","Lithuania"
"Liciskenai","54.5970","24.2110","101","Lithuania"
"Kryziauka","55.1310","24.4560","26","Lithuania"
"Patilciai","55.1460","25.6770","4","Lithuania"
"Teneniai","55.4611","21.9139","369","Lithuania"
"Naujokaiciai","55.0480","23.1800","15","Lithuania"
"Juljanava","55.1720","24.1170","10","Lithuania"
"Zalioji","55.6250","25.4220","12","Lithuania"
"Zalioji","55.5690","24.8140","3","Lithuania"
"Baliskiai","54.9510","23.2320","22","Lithuania"
"Antanaiciai","54.9430","25.0410","49","Lithuania"
"Milvydai","54.2835","25.3950","41","Lithuania"
"Zalioji","55.5220","26.1970","7","Lithuania"
"Saukotas I","55.5770","23.3860","26","Lithuania"
"Antasvente","55.0920","25.6180","4","Lithuania"
"Ringe","55.3670","24.6750","0","Lithuania"
"Puodziai","55.4390","23.9360","2","Lithuania"
"Mackoniskes","54.5890","24.6100","41","Lithuania"
"Saseliai","55.5520","23.6710","5","Lithuania"
"Gulbinenai","56.0810","24.6470","271","Lithuania"
"Daugeliskiai","55.1000","23.5390","345","Lithuania"
"Pasiekos","54.3240","23.1480","0","Lithuania"
"Stirbaiciai","56.0000","21.7550","90","Lithuania"
"Daugeliskiai","55.1680","23.3840","0","Lithuania"
"Bliudziskiai","54.5660","23.3030","17","Lithuania"
"Kalniskiai II","55.9250","25.7340","0","Lithuania"
"Gudlaukis","55.0010","22.9200","51","Lithuania"
"Kirkunai","55.6920","24.4090","26","Lithuania"
"Kantuciai","55.7260","23.1300","0","Lithuania"
"Jocionys","54.5310","24.5750","23","Lithuania"
"Buriskes","54.4530","24.2830","10","Lithuania"
"Miegonys","56.0030","25.6340","73","Lithuania"
"Bikiske","54.5410","25.6830","13","Lithuania"
"Karyznos","55.5840","22.6050","16","Lithuania"
"Kuodiskiai","56.0830","25.2840","0","Lithuania"
"Dasiunai","55.1640","23.8440","56","Lithuania"
"Liminiskes","55.6690","26.1090","0","Lithuania"
"Kalnai","55.6400","23.4130","4","Lithuania"
"Prusine","54.9410","25.3830","9","Lithuania"
"Zilinciskes","54.4170","24.4310","1","Lithuania"
"Paluobiai","54.8810","23.2610","432","Lithuania"
"Paluobiai","55.0350","23.4460","17","Lithuania"
"Praniai","55.1390","24.6640","0","Lithuania"
"Degsniai","55.7270","25.4490","6","Lithuania"
"Degsniai","55.5530","24.7890","5","Lithuania"
"Skrupiske","55.1450","26.2730","0","Lithuania"
"Skriaudutis","54.5760","23.4040","19","Lithuania"
"Tamosiskiai","55.1670","25.0690","6","Lithuania"
"Astrovka","55.9800","25.7490","0","Lithuania"
"Suvartuva","55.7150","22.9820","7","Lithuania"
"Kavoliskes","55.7420","26.1780","0","Lithuania"
"Kavoliskes","55.7110","26.3180","0","Lithuania"
"Mikaline","54.5510","23.2880","0","Lithuania"
"Izabeline","54.7960","25.1380","22","Lithuania"
"Liudvinavas","54.4833","23.3528","1055","Lithuania"
"Laibagaliai","54.1670","23.5830","29","Lithuania"
"Ginteniai","55.9040","22.6720","96","Lithuania"
"Daveniai","55.2220","25.1250","14","Lithuania"
"Sedvygai","54.8640","23.2790","19","Lithuania"
"Pabilociai","55.0570","25.0150","4","Lithuania"
"Miezonys","55.1420","25.4920","202","Lithuania"
"Rusiai","54.9610","24.6190","34","Lithuania"
"Vazgirdonys","54.3439","24.5611","96","Lithuania"
"Uzumiskiai","55.1420","23.9170","76","Lithuania"
"Azubenis","54.4510","25.6140","16","Lithuania"
"Putinai","54.7770","25.6560","6","Lithuania"
"Cibavas","54.4060","23.0970","44","Lithuania"
"Putinai","54.7750","22.9150","28","Lithuania"
"Gaiziunai","54.5580","24.4240","8","Lithuania"
"Plausiniai","55.2810","23.2500","11","Lithuania"
"Rudupis","54.7160","23.4120","17","Lithuania"
"Suginciai","56.3610","22.8940","65","Lithuania"
"Juostininkai","55.6140","24.7470","71","Lithuania"
"Degutiske II","55.3810","26.3430","6","Lithuania"
"Stulpinai","55.9720","22.3240","36","Lithuania"
"Torieliskiai","54.4960","22.8370","5","Lithuania"
"Giraiciai","55.0550","25.5030","28","Lithuania"
"Tartokas","55.4700","26.1790","2","Lithuania"
"Siukstoniai","56.0760","24.1850","31","Lithuania"
"Noriuneliai","56.2140","24.0850","3","Lithuania"
"Grazciai","55.5030","24.1160","4","Lithuania"
"Girkantiske","55.8170","22.1780","42","Lithuania"
"Puntukas","55.4753","25.0525","0","Lithuania"
"Skaiste","56.0575","25.3744","1","Lithuania"
"Buteikiai","55.4170","25.0970","19","Lithuania"
"Geluciai","55.3680","24.8330","0","Lithuania"
"Miskadvaris","55.8600","23.7710","0","Lithuania"
"Anupriskes","54.7110","24.8930","2","Lithuania"
"Pociuneliai","56.2480","23.5440","7","Lithuania"
"Stakmanavas","54.3730","23.3940","2","Lithuania"
"Diciunai","55.9150","24.2730","8","Lithuania"
"Duciai","56.0830","23.9150","39","Lithuania"
"Puplaiskyne","56.1750","24.2470","2","Lithuania"
"Lodiske","54.8840","23.4870","17","Lithuania"
"Salomiskis","54.8170","24.2810","5","Lithuania"
"Pasperiai","54.9230","24.9180","99","Lithuania"
"Mekiai","55.7970","23.1230","15","Lithuania"
"Antasava","55.9056","24.8056","227","Lithuania"
"Pajuodziukai","55.6600","24.4290","1","Lithuania"
"Sukaiciai","55.6390","21.6190","198","Lithuania"
"Akmeniske","55.2820","26.3510","3","Lithuania"
"Daujotai","56.2670","21.6560","122","Lithuania"
"Skaidiskes","54.6081","25.3861","4133","Lithuania"
"Skiduliske","55.6700","26.5610","0","Lithuania"
"Pukeniskiai","55.1020","25.5960","0","Lithuania"
"Rimgaudiskis","55.9990","25.3400","5","Lithuania"
"Jadvygava","55.1060","24.3360","11","Lithuania"
"Lugeliai","55.6370","26.2980","1","Lithuania"
"Jadvygava","55.7760","23.0070","8","Lithuania"
"Mureikai","54.8280","23.1150","5","Lithuania"
"Varnupiai","54.4833","23.5167","210","Lithuania"
"Endrietiskiai","55.9370","22.6720","9","Lithuania"
"Pienagalys","55.6170","24.9780","1","Lithuania"
"Minderiskiai","55.0940","24.5890","4","Lithuania"
"Vileikiskiai","55.1900","25.2680","2","Lithuania"
"Kamorunai","54.2140","24.7360","37","Lithuania"
"Bielkiske","54.9890","26.0170","9","Lithuania"
"Petrosiunai","55.2780","26.6320","0","Lithuania"
"Dudos","55.4500","25.0420","0","Lithuania"
"Dingiskiai","54.4720","23.7190","22","Lithuania"
"Alukenai","55.5310","24.7330","18","Lithuania"
"Apascia","56.0440","25.1830","167","Lithuania"
"Strimina","54.2830","23.9310","1","Lithuania"
"Meskasalis","54.2860","24.1390","113","Lithuania"
"Sakiniai","55.7390","21.3360","64","Lithuania"
"Krivasiunai","54.7750","24.7750","21","Lithuania"
"Jautakia","56.3020","22.2150","12","Lithuania"
"Kazimieravas","54.4280","24.3580","20","Lithuania"
"Vinksniniai","56.2250","24.8890","62","Lithuania"
"Vistycio Laukas I","54.4700","22.7780","61","Lithuania"
"Vidulaukis","55.6890","24.0110","0","Lithuania"
"Kazimieravas","55.4250","26.4100","20","Lithuania"
"Livintai","54.9330","24.3330","42","Lithuania"
"Karveliskes","54.6750","24.3030","13","Lithuania"
"Karveliskes","54.7470","24.5440","5","Lithuania"
"Zegliai","54.8240","23.0480","28","Lithuania"
"Vyzuniskes","54.9920","25.3800","2","Lithuania"
"Dvarciai","54.5700","25.6330","33","Lithuania"
"Trepkalniai","55.6190","21.5780","29","Lithuania"
"Dvarciai","54.2640","24.3970","9","Lithuania"
"Pagrandai","54.3940","23.3750","17","Lithuania"
"Gaukeliskes","55.0110","25.3850","13","Lithuania"
"Pestiniai","55.5940","25.3530","5","Lithuania"
"Kudoriskis","55.4060","25.3310","2","Lithuania"
"Pabartoniai","55.0580","24.1670","5","Lithuania"
"Lelerviskiai","55.1250","23.6190","35","Lithuania"
"Babrauka","54.4660","24.4390","1","Lithuania"
"Pavisincia","54.3910","25.3420","33","Lithuania"
"Lazdyneliai","55.5190","24.1100","15","Lithuania"
"Kretinga","55.8758","21.2508","16580","Lithuania"
"Kidoliskiai","54.5920","23.3470","53","Lithuania"
"Panarve","54.2440","23.5500","67","Lithuania"
"Skapiskes","54.8630","25.3500","4","Lithuania"
"Jankunai","56.1920","23.3420","160","Lithuania"
"Karuzai","54.2780","23.4810","108","Lithuania"
"Naujiniske","54.9610","25.8590","1","Lithuania"
"Baltisius","55.3730","25.4420","3","Lithuania"
"Sakuociai","55.9530","21.5090","9","Lithuania"
"Vidumiskis","55.2500","24.6360","4","Lithuania"
"Michalinavas","54.9520","26.0690","0","Lithuania"
"Norgelai","55.6360","21.7250","8","Lithuania"
"Miezaiciai","55.7330","23.6000","165","Lithuania"
"Aviliai","54.8280","24.4250","74","Lithuania"
"Antadure","55.2560","25.4420","4","Lithuania"
"Ramoniunai","55.1490","26.5520","3","Lithuania"
"Kumpiske","55.7550","23.0530","9","Lithuania"
"Akmeniai","54.6150","24.5510","17","Lithuania"
"Tartaliskis","55.7950","24.2170","3","Lithuania"
"Davonys","55.0120","24.6580","14","Lithuania"
"Nosenai","55.2460","25.2540","61","Lithuania"
"Smilgiskiai","55.2710","25.3390","17","Lithuania"
"Siliniskes","55.7100","26.2080","8","Lithuania"
"Juodlaukis","55.2000","24.5020","7","Lithuania"
"Babtai","55.0917","23.7944","1563","Lithuania"
"Pramedziava","55.2610","23.2140","348","Lithuania"
"Mateikiai","55.6830","22.9620","32","Lithuania"
"Kukuliskiai","55.7830","21.0920","45","Lithuania"
"Juodynelis","55.2069","25.9242","0","Lithuania"
"Diliauskai","56.0690","24.4440","206","Lithuania"
"Kibildziai","55.8040","23.9520","6","Lithuania"
"Sulaiciai","55.3860","23.6640","10","Lithuania"
"Guriai","55.5600","26.4820","8","Lithuania"
"Veriugiskes","55.6540","25.9870","0","Lithuania"
"Kalniskiai","55.4720","21.9190","107","Lithuania"
"Lauzupis","55.6300","24.1250","0","Lithuania"
"Moline","54.1110","24.6860","4","Lithuania"
"Posventis","54.6690","24.0530","46","Lithuania"
"Luksiskiai","54.6200","23.1240","0","Lithuania"
"Salamiestis","55.9417","24.8778","252","Lithuania"
"Matuizos","54.2833","24.6833","1201","Lithuania"
"Gailioniai","55.1970","24.4890","2","Lithuania"
"Rudokai","55.0680","25.3490","7","Lithuania"
"Paginai","54.2810","25.4860","0","Lithuania"
"Vaitutiskiai","55.4940","25.1500","6","Lithuania"
"Savitiske","55.5940","22.7210","14","Lithuania"
"Pantakoniai","56.0430","24.2190","17","Lithuania"
"Margiai","56.2330","23.9330","79","Lithuania"
"Margiai","55.9620","23.9550","3","Lithuania"
"Gilvyciukai","55.9137","22.9827","5","Lithuania"
"Naujadvaris","55.7550","26.1740","1","Lithuania"
"Tarakai","55.2360","24.4530","23","Lithuania"
"Berziniai","54.0860","23.7670","18","Lithuania"
"Karveliskes","54.8597","25.4258","13","Lithuania"
"Riogliskiai","55.4170","23.2610","13","Lithuania"
"Palapoje","54.8580","24.7390","0","Lithuania"
"Juodlaukis","55.5970","22.9560","2","Lithuania"
"Slabodka","54.3080","24.3530","11","Lithuania"
"Antalieziai","55.3270","25.2990","58","Lithuania"
"Antezeris","55.4560","25.1670","1","Lithuania"
"Baruoliskis","55.8600","24.6490","3","Lithuania"
"Saugailiai","55.4000","23.2920","145","Lithuania"
"Aukstoja","54.6420","24.4080","5","Lithuania"
"Janapole","55.8170","22.3700","41","Lithuania"
"Meskuciai","55.3220","24.4170","14","Lithuania"
"Juskaiciai","55.4360","21.7420","220","Lithuania"
"Sausininkai","54.5160","22.9620","67","Lithuania"
"Zabyne","56.1170","24.5170","30","Lithuania"
"Zabyne","56.1840","24.2380","2","Lithuania"
"Sietynas","54.8360","24.1250","50","Lithuania"
"Bitinai","54.9540","25.5930","23","Lithuania"
"Andrikava","55.9041","25.8180","8","Lithuania"
"Lenkaliai","55.8050","22.4580","4","Lithuania"
"Prapuolai","54.7433","25.0675","19","Lithuania"
"Skrynes","55.1190","24.0420","16","Lithuania"
"Kirzine","54.8158","25.2014","7","Lithuania"
"Perkunai","55.7360","21.5060","48","Lithuania"
"Streziunai","54.1250","24.8000","50","Lithuania"
"Salomenka","55.2450","26.4290","26","Lithuania"
"Krantai","55.5240","23.0380","0","Lithuania"
"Naujikai","55.7580","25.3110","10","Lithuania"
"Drabunai","56.3170","24.6250","17","Lithuania"
"Kirsliai","54.9940","22.6450","5","Lithuania"
"Didzialaukis","55.4660","25.7080","4","Lithuania"
"Uztenenis","55.4420","21.6830","25","Lithuania"
"Poskiske","55.2920","23.2670","10","Lithuania"
"Lakinskai","54.4210","23.3300","0","Lithuania"
"Grigaliai","55.5490","24.4220","1","Lithuania"
"Pajiesys","54.7560","23.9000","120","Lithuania"
"Katutiskes","54.4910","25.5200","7","Lithuania"
"Baroniske","55.1790","25.8140","8","Lithuania"
"Naujadalis","55.1900","26.1350","0","Lithuania"
"Sredninkai","54.5970","24.5210","3","Lithuania"
"Isdagai","55.1980","25.5100","7","Lithuania"
"Pavirinciai","55.4360","25.0390","33","Lithuania"
"Sileliai","55.0070","24.8350","5","Lithuania"
"Preikape","55.2394","23.6078","35","Lithuania"
"Leliskiai","56.0380","24.6200","21","Lithuania"
"Pabaliskiai","54.6940","23.9530","46","Lithuania"
"Pabaliskiai","54.7780","23.7080","14","Lithuania"
"Obeline","54.8589","25.2117","3","Lithuania"
"Gailiai","56.2890","25.0110","2","Lithuania"
"Sileliai","54.9410","25.8240","0","Lithuania"
"Kamsa","55.2130","25.2170","0","Lithuania"
"Sakniai","54.8860","24.4770","5","Lithuania"
"Varupis","55.6430","24.2400","2","Lithuania"
"Kaimyneliai","54.9580","24.8200","8","Lithuania"
"Siksneliskiai","56.0570","24.4330","15","Lithuania"
"Musninkai","54.9469","24.8419","415","Lithuania"
"Buksniai","54.8740","22.8990","12","Lithuania"
"Ragaune","55.1340","24.9750","14","Lithuania"
"Zadiskes","54.4560","24.2610","15","Lithuania"
"Pakauskiai","55.8750","22.3810","0","Lithuania"
"Paplanskai","54.4530","23.9720","12","Lithuania"
"Jonikai","55.9550","22.0140","24","Lithuania"
"Zideikonys","54.6140","24.0750","4","Lithuania"
"Ismanai","54.5690","23.9170","36","Lithuania"
"Spiegai","55.9980","25.0790","0","Lithuania"
"Kraujuciai","54.7740","23.2150","7","Lithuania"
"Sakaline","55.7540","22.4440","0","Lithuania"
"Pozingiai","55.5890","21.4690","65","Lithuania"
"Baryskiai","56.1190","25.1690","25","Lithuania"
"Daniliskiai","56.0500","24.5660","39","Lithuania"
"Dudineliai","55.5970","21.6110","37","Lithuania"
"Rapkiskes","55.7700","26.0190","0","Lithuania"
"Paraudine","55.2190","25.1420","7","Lithuania"
"Varkaliskiai","55.2530","24.8310","104","Lithuania"
"Uoksai","55.6450","24.4260","48","Lithuania"
"Samaliske","55.6970","21.4920","121","Lithuania"
"Saugelaukis","56.2500","23.6920","137","Lithuania"
"Sikuniai","55.3140","25.3770","4","Lithuania"
"Blauzdziunai","56.3170","23.9110","96","Lithuania"
"Stragnai I","55.5610","21.3360","70","Lithuania"
"Geidziai","56.2890","22.2470","192","Lithuania"
"Prudai","55.1440","24.8250","2","Lithuania"
"Perkuniske","55.3720","23.2170","0","Lithuania"
"Braziukai","54.8920","23.4860","115","Lithuania"
"Siurpiskiai","54.9930","22.8680","9","Lithuania"
"Patytaukys","55.5870","23.1720","14","Lithuania"
"Ivanuvka","56.1980","23.5110","0","Lithuania"
"Paazuoliai","55.2414","25.5839","18","Lithuania"
"Paazuoliai","55.3580","25.2060","14","Lithuania"
"Paazuoliai","55.0980","25.5210","13","Lithuania"
"Rudupiai","55.9170","22.4220","128","Lithuania"
"Samaliava","54.9310","24.5670","0","Lithuania"
"Leckava","56.3939","22.2389","235","Lithuania"
"Sibiciai","55.7070","23.9960","25","Lithuania"
"Sausine","54.9920","23.8500","183","Lithuania"
"Dumblys","55.4470","24.6890","0","Lithuania"
"Drasenai","55.6200","25.8260","38","Lithuania"
"Ceponiai","56.1550","23.1060","34","Lithuania"
"Trivalakiai","56.1410","23.6950","22","Lithuania"
"Daugirdai","54.4330","23.8080","84","Lithuania"
"Gryksiai","55.9080","21.3190","9","Lithuania"
"Pazeviskiai","55.9630","25.2050","15","Lithuania"
"Grabniokas","55.1250","25.4680","2","Lithuania"
"Palepsai","55.6090","22.8420","13","Lithuania"
"Noselenai","54.8960","25.7120","24","Lithuania"
"Antanuvka","55.2648","25.1982","5","Lithuania"
"Strazdai","54.3810","23.4240","21","Lithuania"
"Salagalys","55.9660","25.3250","2","Lithuania"
"Eizeliskiai","55.5170","25.4640","0","Lithuania"
"Visaginas","55.6000","26.4333","18514","Lithuania"
"Kryziskes","54.5430","25.1770","17","Lithuania"
"Vieksniai","56.2389","22.5139","2126","Lithuania"
"Moniunai","55.9020","23.9030","8","Lithuania"
"Moniunai","56.1990","23.8920","5","Lithuania"
"Peleniai","55.3290","26.0200","13","Lithuania"
"Pagiriai","55.5030","25.0030","130","Lithuania"
"Savitiskis","55.7990","23.9820","0","Lithuania"
"Palaiskalnis","55.7450","22.8810","7","Lithuania"
"Skrebiskiai","56.2530","24.7890","1","Lithuania"
"Antakalnis I","55.2390","24.8220","43","Lithuania"
"Gavenai","56.1280","24.7690","13","Lithuania"
"Pakarvine","55.0680","25.9730","0","Lithuania"
"Biliskiukai","55.6360","22.8450","13","Lithuania"
"Grambaviskiai","55.7000","21.3530","44","Lithuania"
"Markiskes","54.7360","25.6710","5","Lithuania"
"Slavinciskes","54.3750","24.3080","14","Lithuania"
"Palabazys","55.2930","25.9350","3","Lithuania"
"Siponiai","55.4167","23.8167","96","Lithuania"
"Patasiskes","54.5740","23.2850","31","Lithuania"
"Labunava","55.7100","22.5530","32","Lithuania"
"Salos","54.2250","23.4610","183","Lithuania"
"Kirdeikiske","55.1140","25.9810","3","Lithuania"
"Batkunai","55.7490","23.4420","67","Lithuania"
"Juodgiris","55.2000","23.6250","2","Lithuania"
"Galminiai","55.6320","25.9970","17","Lithuania"
"Kuodziai","55.5810","21.2940","94","Lithuania"
"Simaniske","55.0450","26.1440","30","Lithuania"
"Simaniske","55.1920","26.4850","7","Lithuania"
"Paluobiskiai","54.5280","23.4560","0","Lithuania"
"Santara","54.5720","22.8710","0","Lithuania"
"Gulbinai","55.5760","23.5800","39","Lithuania"
"Pagoje","55.2330","24.7000","10","Lithuania"
"Bijunai","54.8250","23.8000","78","Lithuania"
"Pinigeliai II","55.7860","24.4430","4","Lithuania"
"Janaslavas","54.1720","23.4940","20","Lithuania"
"Ragunai","54.8930","25.4660","46","Lithuania"
"Turzenai","54.9830","24.0920","83","Lithuania"
"Trapeliai","55.0840","25.1550","57","Lithuania"
"Islauzai","55.4290","24.4100","4","Lithuania"
"Skaptatai","55.9640","25.1270","0","Lithuania"
"Svetlava","55.2680","25.2970","0","Lithuania"
"Pasakiai","55.5920","23.8390","128","Lithuania"
"Pakalniskiai","54.9280","24.7330","44","Lithuania"
"Poliesis","54.6940","24.5420","0","Lithuania"
"Pakalniskiai","54.9030","23.3870","8","Lithuania"
"Naujakiemis","55.5410","25.5980","12","Lithuania"
"Naujakiemis","55.5360","25.7740","2","Lithuania"
"Pakalniskiai","55.2690","23.6060","19","Lithuania"
"Naujakiemis","54.7197","25.5231","93","Lithuania"
"Naujakiemis","54.8380","25.2640","25","Lithuania"
"Naujakiemis","54.8081","25.6950","17","Lithuania"
"Naujakiemis","54.5770","25.4190","3","Lithuania"
"Silagaliu Medinai","54.9810","24.4310","0","Lithuania"
"Kumeciai I","54.6000","23.0080","8","Lithuania"
"Sauluciai","54.7580","24.3030","44","Lithuania"
"Jerzuvka","55.4420","24.8720","3","Lithuania"
"Migonys","54.7250","24.2140","83","Lithuania"
"Areliskes","55.7670","25.9760","1","Lithuania"
"Miskineliai","55.7360","25.2610","4","Lithuania"
"Simanciai","55.1720","25.5090","18","Lithuania"
"Papersoksnis","55.1811","25.8278","5","Lithuania"
"Sindriai","55.5830","25.2970","9","Lithuania"
"Uzlieknis","55.8830","21.9030","148","Lithuania"
"Opaniskis","55.3420","24.9470","15","Lithuania"
"Kazarieza","55.3120","25.5210","2","Lithuania"
"Slabada","55.4580","24.1660","5","Lithuania"
"Pagulianka II","54.5840","24.5860","0","Lithuania"
"Slabada","54.6560","24.1890","17","Lithuania"
"Trikampiai","54.3203","23.1636","0","Lithuania"
"Zeliankos","55.0020","26.2050","5","Lithuania"
"Pazalioji","55.3170","21.7250","9","Lithuania"
"Slabada","55.3920","23.0420","389","Lithuania"
"Padysnis I","55.4220","26.3690","9","Lithuania"
"Padysnis I","55.3230","26.6410","4","Lithuania"
"Sarapiniskes","54.3667","24.5500","181","Lithuania"
"Karaliai","55.4900","24.4710","18","Lithuania"
"Raudone","54.8800","25.5380","6","Lithuania"
"Raudone","55.0080","25.3390","2","Lithuania"
"Aukstieji Levikainiai","55.5340","23.5140","1","Lithuania"
"Pauliukiskes","54.7240","25.6100","24","Lithuania"
"Kazokine","55.2890","26.2060","97","Lithuania"
"Margyne","55.4350","22.5130","0","Lithuania"
"Magule","55.2640","25.1790","4","Lithuania"
"Gacionys","55.8090","25.6690","12","Lithuania"
"Zujai","55.2860","24.8470","26","Lithuania"
"Graziskiai","54.5490","23.6930","2","Lithuania"
"Medinos","54.5670","23.8000","0","Lithuania"
"Gervenupis","54.8390","24.1390","200","Lithuania"
"Sarkenai","55.4640","24.7310","4","Lithuania"
"Barkiskes","54.5800","25.2750","21","Lithuania"
"Pagojai","55.4670","23.2250","2","Lithuania"
"Gnievai","54.9750","23.1110","1","Lithuania"
"Orkiai","55.4970","22.8740","14","Lithuania"
"Banaiciai","55.0153","22.6997","16","Lithuania"
"Daujoteliai","55.3170","23.5780","13","Lithuania"
"Pazardis","54.8470","24.3920","12","Lithuania"
"Pilviskiai","54.7222","23.2222","2305","Lithuania"
"Pagojai","55.6650","23.6700","3","Lithuania"
"Jagminiske","55.6940","23.1570","15","Lithuania"
"Sirviniai","54.5940","24.0610","12","Lithuania"
"Raguvele","54.8710","25.5140","7","Lithuania"
"Raguvele","54.4990","25.4530","8","Lithuania"
"Pavirvyte","55.9750","22.5500","6","Lithuania"
"Kulesai","55.3530","21.6690","249","Lithuania"
"Ringeliske","54.0530","23.9750","19","Lithuania"
"Paunguriai","54.6050","24.7360","4","Lithuania"
"Kurmaiciai","56.1640","23.6560","113","Lithuania"
"Valmoniai","55.9470","24.2130","17","Lithuania"
"Uzlaidine","55.4960","21.9890","3","Lithuania"
"Paraistys","55.1610","26.2790","2","Lithuania"
"Nakvosai","56.1890","24.1680","2","Lithuania"
"Gedrimai","56.2690","21.8830","143","Lithuania"
"Bagdongiris","56.0380","23.5200","12","Lithuania"
"Odesina","55.2440","26.4620","2","Lithuania"
"Zadavainiai","55.5910","25.8830","10","Lithuania"
"Gerveliske","55.4210","26.2750","0","Lithuania"
"Truskava","55.4306","24.2278","129","Lithuania"
"Gaiziunai","55.1310","25.5780","20","Lithuania"
"Grabniokai","54.5760","24.5980","2","Lithuania"
"Nukovscizna","54.9610","25.0450","0","Lithuania"
"Kveiliai","55.9260","22.3840","48","Lithuania"
"Degesiskes","55.6510","26.2850","10","Lithuania"
"Kalnujai","55.2810","21.7610","43","Lithuania"
"Selenai","55.7720","21.2780","29","Lithuania"
"Vaicaiciai","56.2220","21.9280","102","Lithuania"
"Kudabiske","55.2630","26.6490","3","Lithuania"
"Mazoji Palukne","56.2190","21.4360","1","Lithuania"
"Pelysiai","55.7280","25.1060","34","Lithuania"
"Jundulai","56.1310","21.7250","21","Lithuania"
"Kazliske","55.2400","26.3750","2","Lithuania"
"Kabaliskiai","56.0180","23.6700","7","Lithuania"
"Kaukenai","55.4500","23.1170","0","Lithuania"
"Janapolis","55.6130","22.6590","15","Lithuania"
"Janapolis","55.5120","23.0370","12","Lithuania"
"Betygala","55.3611","23.3667","488","Lithuania"
"Sepeta","55.8060","25.0360","535","Lithuania"
"Juozapava","55.1360","24.6000","2","Lithuania"
"Stugliai","55.4770","25.8470","35","Lithuania"
"Stravai","55.8400","25.7630","16","Lithuania"
"Martynonys","55.9880","25.0990","14","Lithuania"
"Vaiciunai","55.9080","25.4280","4","Lithuania"
"Krutuliai","54.9690","23.1160","4","Lithuania"
"Gliebiskis","54.7360","24.2220","7","Lithuania"
"Mazieji Mostaiciai","55.8110","21.7070","63","Lithuania"
"Tarprubeziai","54.4560","23.1280","220","Lithuania"
"Pylimai","54.7580","24.8420","445","Lithuania"
"Daunoraiciai","56.2967","23.5156","5","Lithuania"
"Ceberakai","55.5840","26.5140","0","Lithuania"
"Banda","55.6840","26.3620","1","Lithuania"
"Sabaliavas","54.3192","23.1086","3","Lithuania"
"Saukliai","55.5560","21.4030","14","Lithuania"
"Burksai","55.7690","23.1010","3","Lithuania"
"Paseire","54.1500","23.8640","8","Lithuania"
"Lesciai","55.2250","23.5920","6","Lithuania"
"Grumbinai","55.7410","25.6430","4","Lithuania"
"Maciuniskes","55.1510","25.5250","6","Lithuania"
"Juskenai","55.7190","26.0420","0","Lithuania"
"Smalina","55.6220","25.1440","0","Lithuania"
"Bartkiske I","55.6890","26.4470","106","Lithuania"
"Gerveliske","55.6140","26.1400","0","Lithuania"
"Vanageliske","55.6870","26.4230","0","Lithuania"
"Pavasijai","54.8370","22.9780","7","Lithuania"
"Ruckunai","55.0060","23.6890","2","Lithuania"
"Pastriunys","55.0810","23.6420","4","Lithuania"
"Petrasiunai","55.2080","24.8890","10","Lithuania"
"Naudziai","54.5310","25.3270","691","Lithuania"
"Pakritizis","55.5830","24.6510","14","Lithuania"
"Pavieseciai","55.7153","24.2722","65","Lithuania"
"Burgaiciai","55.3889","23.0031","10","Lithuania"
"Liuliskiai","56.3290","22.0240","36","Lithuania"
"Maksvytiskiai","55.7830","24.3750","30","Lithuania"
"Knezai","56.0500","21.3920","2","Lithuania"
"Liepalotas","54.6750","23.9530","62","Lithuania"
"Liepalotas","54.6910","23.7580","0","Lithuania"
"Verbuskes","54.6500","25.5167","85","Lithuania"
"Azpurviai","55.5750","21.4500","24","Lithuania"
"Kreciunai","54.8560","24.6760","0","Lithuania"
"Nosvaiciai","55.7130","25.5750","1","Lithuania"
"Paduobiai","55.1810","24.1110","12","Lithuania"
"Moceikai","55.5170","24.4720","8","Lithuania"
"Katineliai","54.9970","23.1250","10","Lithuania"
"Svedakampis","54.2830","23.4560","3","Lithuania"
"Drapaliai","54.1720","23.9110","15","Lithuania"
"Gumiltenai","55.8490","22.7910","15","Lithuania"
"Dvarcius","55.7880","22.6740","27","Lithuania"
"Keturnaujiena","54.8360","22.9320","10","Lithuania"
"Marciukonys","54.2500","23.5530","16","Lithuania"
"Svalkuniske","55.2020","26.4820","27","Lithuania"
"Seibutonys","54.7250","24.8190","1","Lithuania"
"Jundiskes","54.2300","24.8350","21","Lithuania"
"Medikuiciai","56.3250","23.7370","0","Lithuania"
"Lailunai","55.9890","25.1110","264","Lithuania"
"Luksakaimis","54.9670","23.6970","21","Lithuania"
"Puodziai","56.1310","24.3970","175","Lithuania"
"Vismaldai","55.8190","22.2230","22","Lithuania"
"Puodziai","55.4810","23.4890","12","Lithuania"
"Mieziskiai","55.6600","24.5410","0","Lithuania"
"Opsrutai I","54.5910","23.6840","52","Lithuania"
"Gaideliai","55.6510","25.8810","2","Lithuania"
"Goriskis","55.5978","23.3694","0","Lithuania"
"Antandraja","55.6130","25.7670","64","Lithuania"
"Gegiedziai","56.1140","23.8810","138","Lithuania"
"Kandreneliai","55.8470","25.2580","15","Lithuania"
"Sabaliai","54.9330","25.3860","16","Lithuania"
"Lelai","55.8510","22.2440","3","Lithuania"
"Putriai","56.1010","24.2770","9","Lithuania"
"Kloviniai","55.5030","25.6560","157","Lithuania"
"Budele","55.0480","23.1240","4","Lithuania"
"Uzupiai","54.5240","22.8980","19","Lithuania"
"Pasiliai","55.6990","24.7010","17","Lithuania"
"Valakbudis","54.9310","22.8860","0","Lithuania"
"Putriai","55.2470","23.4580","27","Lithuania"
"Luokesa","55.2030","25.4080","127","Lithuania"
"Ilguociai","55.7780","23.5610","109","Lithuania"
"Ilgasilis","55.7930","25.8800","2","Lithuania"
"Preibe","55.5240","24.1440","0","Lithuania"
"Sakuteliai","55.5030","21.4000","209","Lithuania"
"Zaborija","55.4210","26.4000","0","Lithuania"
"Stanislavuvka","55.2170","24.8860","8","Lithuania"
"Alekniskis","55.0770","24.8330","3","Lithuania"
"Simkunai","56.1800","23.4400","43","Lithuania"
"Kunigine","56.1310","21.3720","3","Lithuania"
"Kacenai","55.2250","24.3080","0","Lithuania"
"Pakruojis","55.9809","23.8551","4632","Lithuania"
"Majeliai","56.1460","24.1640","0","Lithuania"
"Kemsyne","55.7940","26.0560","0","Lithuania"
"Daukantai","54.6420","24.1060","20","Lithuania"
"Daukantai","55.7150","23.9070","26","Lithuania"
"Baltraitiske","55.2060","23.1330","138","Lithuania"
"Perlojus","55.2700","25.9680","0","Lithuania"
"Kukliai","54.2030","23.5560","247","Lithuania"
"Silaineliai","55.2530","24.0670","7","Lithuania"
"Daugeliskiai","55.2330","23.5360","7","Lithuania"
"Masiuliai","55.2390","25.0610","16","Lithuania"
"Blandziai","55.2420","23.6390","29","Lithuania"
"Lipniskis","55.9040","24.4600","0","Lithuania"
"Didzioji Trakiske","54.7075","23.4814","14","Lithuania"
"Jurgenai","55.4750","24.8310","26","Lithuania"
"Linkaviciai","56.1140","24.0420","517","Lithuania"
"Sirviai","54.3270","25.5120","38","Lithuania"
"Samaniskes","54.7190","23.6780","10","Lithuania"
"Sakalninkai","54.5840","25.4050","2","Lithuania"
"Bagdonava","55.0440","24.1640","2","Lithuania"
"Nerupis","55.3310","24.9640","4","Lithuania"
"Udininkai","54.2110","23.4170","3","Lithuania"
"Pasubate","55.9990","25.8940","0","Lithuania"
"Aidieciai","55.2980","25.5270","11","Lithuania"
"Gudeliai II","55.4090","24.4570","4","Lithuania"
"Pluotine","55.8510","22.3000","19","Lithuania"
"Palaivis","55.5180","21.9940","35","Lithuania"
"Dunokai","55.1980","22.2860","32","Lithuania"
"Dubos","55.6440","24.4030","1","Lithuania"
"Vilkatenai","55.4330","24.9610","13","Lithuania"
"Vejelka","55.0900","24.8300","4","Lithuania"
"Voverine","55.8750","24.2190","19","Lithuania"
"Prysai","55.3030","23.4000","1","Lithuania"
"Meletiskes","55.7930","25.8920","2","Lithuania"
"Lauzai","55.3780","23.2000","39","Lithuania"
"Vazdeles","55.6560","24.7580","2","Lithuania"
"Kirsiai","56.0000","22.4500","113","Lithuania"
"Zemaiciai","55.3920","23.8520","12","Lithuania"
"Voveriskiai","55.5810","21.3190","59","Lithuania"
"Raudondvaris","54.9431","23.7833","4142","Lithuania"
"Pieniuoce","54.1469","23.5639","0","Lithuania"
"Dauznagiai","55.5810","23.4740","21","Lithuania"
"Padabinka","55.6700","26.4060","0","Lithuania"
"Varputenai","55.8810","22.8830","320","Lithuania"
"Jakubiskiai","54.1580","24.0690","43","Lithuania"
"Zvyriai","55.3150","26.5060","8","Lithuania"
"Steponiai","56.0080","25.5530","23","Lithuania"
"Ramoniskiai I","54.9140","24.8270","0","Lithuania"
"Mazieji Budezeriai","54.6280","23.0470","434","Lithuania"
"Naujasalis","55.4630","26.2120","9","Lithuania"
"Naujasalis","55.2780","26.2280","8","Lithuania"
"Laukianka","55.0510","26.0260","0","Lithuania"
"Dilbai","55.8710","22.3300","26","Lithuania"
"Pakalnuciai","55.6020","23.4320","15","Lithuania"
"Kulsiskiai","55.1280","24.2970","2","Lithuania"
"Naujieji Kalviai","54.1754","25.6815","2","Lithuania"
"Miknonys","54.5060","23.6690","109","Lithuania"
"Butkunai","55.6100","24.4660","2","Lithuania"
"Sesuoliai","55.1611","25.3528","7","Lithuania"
"Silniskiai","54.9700","25.7360","16","Lithuania"
"Kamuze","55.2250","25.5492","3","Lithuania"
"Antupe","56.4030","24.8390","10","Lithuania"
"Kulsiskiai","55.7230","22.3010","10","Lithuania"
"Juodalaukis","55.4350","26.3000","0","Lithuania"
"Delnica","54.3500","23.4670","12","Lithuania"
"Naujalaukis II","54.6500","24.5140","5","Lithuania"
"Medsodziai","55.5740","23.3010","0","Lithuania"
"Daujociai","55.6890","25.4170","261","Lithuania"
"Bieliunai","55.7861","25.9403","2","Lithuania"
"Bauzelis","55.7380","22.2760","14","Lithuania"
"Moliai","54.8420","25.7780","2","Lithuania"
"Benaiciai","56.1016","21.2418","41","Lithuania"
"Taurage","55.2514","22.2903","21516","Lithuania"
"Mazoji Panemune","56.3420","24.6360","1","Lithuania"
"Grabava","54.7470","23.8390","35","Lithuania"
"Ruzgiskes","55.5140","25.8010","6","Lithuania"
"Versiai","54.8611","23.0689","589","Lithuania"
"Mockava","54.3083","23.3056","92","Lithuania"
"Ausieniskes","54.7890","24.7810","91","Lithuania"
"Rudenai","54.5340","23.7350","56","Lithuania"
"Vilkabaliai","54.4650","23.1250","6","Lithuania"
"Pikciuniskiai","55.1160","25.5880","3","Lithuania"
"Dembina","54.4920","24.5070","6","Lithuania"
"Lygumai","54.6840","23.4350","42","Lithuania"
"Uzberzynis","55.8760","22.7030","1","Lithuania"
"Zeliunai","55.9000","25.9500","6","Lithuania"
"Karsakiskis","55.7920","24.5780","169","Lithuania"
"Garbuvas","55.2910","24.5800","4","Lithuania"
"Pakrovka","55.5420","23.3790","6","Lithuania"
"Lokine","55.3220","24.5330","31","Lithuania"
"Kalakutiske","55.7100","21.9300","72","Lithuania"
"Girkaliai","56.1510","22.2120","16","Lithuania"
"Sirvuciai","55.8090","23.3150","11","Lithuania"
"Zyboliai","55.9030","25.8270","18","Lithuania"
"Zyboliai","55.9730","25.5130","17","Lithuania"
"Svaiginiai","54.9800","22.6510","4","Lithuania"
"Skrebuliai","55.1670","25.3710","23","Lithuania"
"Nevezninkai","55.5640","24.8360","10","Lithuania"
"Aleksandriskes","54.9230","25.4900","28","Lithuania"
"Guduline","54.9120","25.0380","64","Lithuania"
"Aleksandriskes","54.5650","24.7470","51","Lithuania"
"Adamavas","54.9370","25.7960","2","Lithuania"
"Rudiliai","55.2640","25.4820","46","Lithuania"
"Barzdziunai","54.9953","25.5414","10","Lithuania"
"Rudiliai","55.7610","24.9000","395","Lithuania"
"Kepuriskis","55.8690","25.2560","0","Lithuania"
"Lauckaimis","54.7470","22.8330","117","Lithuania"
"Dvarapievis","55.2090","26.3830","5","Lithuania"
"Dubninkai","54.6350","24.8890","1","Lithuania"
"Bliuvai","54.7700","23.0240","5","Lithuania"
"Babiniske","55.6440","23.0330","2","Lithuania"
"Paguobys","55.4470","25.6070","2","Lithuania"
"Semeliskes","54.6810","24.6670","44","Lithuania"
"Aukstuoliukai","55.4060","23.6940","3","Lithuania"
"Nakruniske","54.2580","23.7500","15","Lithuania"
"Miezaiciai","55.7060","22.8860","38","Lithuania"
"Zeimiai","55.2860","24.6810","303","Lithuania"
"Akmeniai","55.7880","24.7300","60","Lithuania"
"Zibuliai","55.3810","23.5190","202","Lithuania"
"Klisiai","55.1000","22.7580","121","Lithuania"
"Pamoterys","54.7530","23.9640","5","Lithuania"
"Tarnava","55.7780","25.7230","5","Lithuania"
"Bagusiai","54.5070","25.4380","31","Lithuania"
"Dalickai","55.9340","24.4590","1","Lithuania"
"Paloniai","55.7780","22.5870","17","Lithuania"
"Tivole","55.1940","24.9250","0","Lithuania"
"Lapurviai","55.9090","22.4380","5","Lithuania"
"Sosnuvka","55.1040","25.5510","2","Lithuania"
"Karalinavas","54.9083","25.6806","2","Lithuania"
"Karalinavas","55.0867","26.1989","0","Lithuania"
"Drucminai","54.0750","24.7360","20","Lithuania"
"Moline","54.7000","23.8030","3","Lithuania"
"Garanciske","54.7360","23.8170","3","Lithuania"
"Skaistakaimis","55.0750","22.9470","200","Lithuania"
"Gecionys","54.9420","24.6140","11","Lithuania"
"Nesteriskis","54.9560","24.7380","0","Lithuania"
"Dvariskiai II","55.4280","24.3360","5","Lithuania"
"Kalediskiai","54.1000","23.5331","16","Lithuania"
"Augmenai","55.6560","23.6640","115","Lithuania"
"Upyna","55.4492","22.4450","375","Lithuania"
"Kupciskiai","54.6520","23.2580","2","Lithuania"
"Nemencine","54.8330","25.4980","128","Lithuania"
"Sudeikiai","55.4690","24.7860","1","Lithuania"
"Senaziske","54.7900","23.3910","21","Lithuania"
"Palimsys","54.7720","24.3610","12","Lithuania"
"Palnycia","54.3490","23.2690","5","Lithuania"
"Alsakiai","54.6450","24.8420","8","Lithuania"
"Sliekiai","56.1910","23.5020","7","Lithuania"
"Gineikiai","55.5390","22.4940","211","Lithuania"
"Puntuzai","54.7540","25.6950","18","Lithuania"
"Stripiniai","56.2890","21.8250","23","Lithuania"
"Kasauskai","54.3580","23.2560","10","Lithuania"
"Vasilenai","55.6690","22.5000","144","Lithuania"
"Norgeliskes","54.4500","24.0940","107","Lithuania"
"Vainezeris","54.0781","23.6781","23","Lithuania"
"Degsnes","54.3667","24.8000","68","Lithuania"
"Degsnes","54.1970","24.2940","2","Lithuania"
"Gilaiciai","56.0740","21.7570","65","Lithuania"
"Vardziukiemis","55.5010","26.2270","34","Lithuania"
"Mikalina","54.0500","23.8420","10","Lithuania"
"Pusynas","55.5500","26.4690","11","Lithuania"
"Padubiai","55.0210","25.4860","5","Lithuania"
"Kalviai","55.6360","21.2970","75","Lithuania"
"Sunele","55.6950","26.1480","33","Lithuania"
"Medininkai","56.1360","21.3970","6","Lithuania"
"Spalviskiai","56.1530","24.5720","6","Lithuania"
"Norgeliskiai","55.3610","23.4140","5","Lithuania"
"Jokubonys","56.2530","24.6610","0","Lithuania"
"Karauskiai","55.7620","23.0610","1","Lithuania"
"Mankunai","55.1640","24.5470","43","Lithuania"
"Kalviai","55.3740","25.2210","17","Lithuania"
"Siline","55.7730","25.5120","0","Lithuania"
"Paduobys","56.1030","25.6440","0","Lithuania"
"Remeikiai","56.1070","25.6140","14","Lithuania"
"Remeikiai","55.9300","25.8720","3","Lithuania"
"Palaukiskiai","55.6610","25.3920","6","Lithuania"
"Drukteniske","55.6380","22.5320","6","Lithuania"
"Siline","55.0250","26.1220","19","Lithuania"
"Budos","56.0020","23.0350","10","Lithuania"
"Uzpelkiai","55.7740","23.0750","4","Lithuania"
"Sciuriskiai","55.1830","25.4550","7","Lithuania"
"Toluciai","55.6300","23.2000","44","Lithuania"
"Toluciai","55.8520","22.9200","3","Lithuania"
"Naujikai","56.0550","25.1630","1","Lithuania"
"Naujikai","55.9320","25.4640","0","Lithuania"
"Bekupe","55.1080","25.2110","276","Lithuania"
"Ismonys","54.5690","24.7360","122","Lithuania"
"Kilova","55.1560","23.4970","62","Lithuania"
"Pogarenda","53.9360","24.4810","0","Lithuania"
"Ruginiai","55.1530","24.5440","3","Lithuania"
"Zinduliai","54.9840","25.0090","8","Lithuania"
"Medomiskiai","56.0470","21.2190","62","Lithuania"
"Juodkiskiai","55.2860","24.0190","0","Lithuania"
"Masliske","55.1810","26.1640","24","Lithuania"
"Opsrutai II","54.5720","23.5890","107","Lithuania"
"Dubenai","55.7470","22.7970","125","Lithuania"
"Kazokai","56.1030","23.6990","8","Lithuania"
"Pasekse","55.6130","25.9160","8","Lithuania"
"Obeline","54.6690","23.6720","0","Lithuania"
"Kurys","55.7780","24.0450","10","Lithuania"
"Sileliai","55.3600","25.6190","1","Lithuania"
"Agurkiske","54.9230","23.3370","13","Lithuania"
"Ramoniskiai","54.6750","23.2780","318","Lithuania"
"Motiejunai","55.0390","25.0170","217","Lithuania"
"Motiejunai","55.0910","24.8150","25","Lithuania"
"Kazokai","55.4490","24.0570","43","Lithuania"
"Kulniskiai","55.1280","24.6890","39","Lithuania"
"Dekinteliai","55.2640","21.7360","1","Lithuania"
"Podubiciai","54.0330","24.7720","3","Lithuania"
"Grubai","55.5420","25.2440","0","Lithuania"
"Pikzirniai","54.8980","23.0970","16","Lithuania"
"Siurmonys","54.7703","24.9550","3","Lithuania"
"Naraukelis","54.6690","23.7940","3","Lithuania"
"Delyne","55.2050","25.9910","4","Lithuania"
"Gasiuliske","55.1030","26.2020","1","Lithuania"
"Lakaja","55.1830","25.6940","25","Lithuania"
"Rozalimas","55.8833","23.8833","928","Lithuania"
"Jaunionys","54.5310","24.3110","16","Lithuania"
"Nabazai","56.0230","22.5380","8","Lithuania"
"Junonys","54.4750","23.9690","12","Lithuania"
"Amerika","54.5900","24.4690","0","Lithuania"
"Gobiskiai","54.6090","23.1520","8","Lithuania"
"Gramiskiai","55.0530","25.4800","0","Lithuania"
"Katkai","55.8330","21.2780","96","Lithuania"
"Senautis","54.6310","23.8250","21","Lithuania"
"Svelniai","55.4080","23.2640","0","Lithuania"
"Skapiskis","55.9030","25.1970","17","Lithuania"
"Becionys","55.3260","26.2060","16","Lithuania"
"Marijonavas","55.4480","26.1380","5","Lithuania"
"Gilupis","56.2110","25.0670","0","Lithuania"
"Biliunai","55.3331","23.1861","45","Lithuania"
"Savidonys","55.1690","24.7060","14","Lithuania"
"Raukstonys","55.7330","25.1640","5","Lithuania"
"Jarmaliskes","54.7170","24.7750","4","Lithuania"
"Degesiai","55.6710","25.6230","29","Lithuania"
"Egline","55.0560","24.5640","6","Lithuania"
"Ratupe","55.1080","24.8750","7","Lithuania"
"Giedraiciai","56.1790","23.8640","24","Lithuania"
"Giedraiciai","55.5690","23.5420","155","Lithuania"
"Meleniskes","55.0108","25.6761","2","Lithuania"
"Mikoliunai","55.4780","26.2170","0","Lithuania"
"Rudzionys","55.5860","24.9640","0","Lithuania"
"Nakstiskes","55.0070","25.2710","10","Lithuania"
"Kalesninkai","54.5380","25.5660","38","Lithuania"
"Jatkuniskes","55.7330","25.9630","0","Lithuania"
"Kursiai","55.6110","23.2100","62","Lithuania"
"Klaipeda","55.7075","21.1428","164310","Lithuania"
"Gaidziai","55.6440","25.2310","8","Lithuania"
"Zardeliai","55.8630","23.7440","36","Lithuania"
"Pakubetiskiai I","55.2583","25.4236","14","Lithuania"
"Sutkiai","55.0260","22.8190","60","Lithuania"
"Dapkiskiai","54.6250","23.2200","11","Lithuania"
"Vilkupiai","54.6970","22.8360","163","Lithuania"
"Dapkiskiai","55.2778","22.2417","432","Lithuania"
"Jakiskiai","56.1810","23.5280","211","Lithuania"
"Gegute","54.1610","23.6440","31","Lithuania"
"Vidgireliai","54.5170","23.6340","3","Lithuania"
"Andrioniskis","55.8320","26.0850","2","Lithuania"
"Biliunai","55.7330","24.4800","22","Lithuania"
"Baltakarciai","55.9010","25.4230","19","Lithuania"
"Siaudine","55.9860","25.1250","0","Lithuania"
"Kasiulkai","55.3220","23.4720","7","Lithuania"
"Naujokai","55.2470","24.2580","27","Lithuania"
"Lenkeliai","55.3690","23.2470","97","Lithuania"
"Vyzuoneles","56.1100","25.5050","3","Lithuania"
"Ramonai","54.1640","24.6670","0","Lithuania"
"Gediminas","55.4840","25.6210","56","Lithuania"
"Degsne","55.3960","26.2370","0","Lithuania"
"Juodziunai","55.7390","25.1170","18","Lithuania"
"Dakciai","55.9960","23.5290","9","Lithuania"
"Meiriskes","55.8150","26.0950","1","Lithuania"
"Karsunalaukis","54.8980","25.0980","7","Lithuania"
"Kaspariskiai","55.6310","21.2310","28","Lithuania"
"Norkunai","54.4970","23.9440","15","Lithuania"
"Platumai","55.1560","25.9810","135","Lithuania"
"Vilkupis","54.9220","23.2270","4","Lithuania"
"Butenai","55.7610","25.1810","52","Lithuania"
"Pamaleisys","55.7150","25.5040","1","Lithuania"
"Grigaliunai","54.7060","23.6320","17","Lithuania"
"Meskine","55.0344","22.8374","2","Lithuania"
"Penkininkai","54.6050","24.8320","18","Lithuania"
"Miskenai","56.3500","22.2560","1","Lithuania"
"Abrieskai","55.6310","23.4790","0","Lithuania"
"Pakalniai","54.5700","25.3590","28","Lithuania"
"Kulkiai","55.3830","23.2190","10","Lithuania"
"Jakspelkis","55.7210","22.9840","4","Lithuania"
"Balos","55.5210","22.8530","9","Lithuania"
"Kieciai","55.3250","23.1940","17","Lithuania"
"Puikiske","55.7410","22.9660","3","Lithuania"
"Kareiviskes","54.8510","25.6720","2","Lithuania"
"Kuliniai","55.3630","25.9690","6","Lithuania"
"Kazareska","55.1030","24.8610","1","Lithuania"
"Kareiviskes","54.5530","24.4610","2","Lithuania"
"Jurbarkas","55.0778","22.7756","9711","Lithuania"
"Kimsai","54.4289","23.2481","12","Lithuania"
"Peleniai","54.4470","23.0750","6","Lithuania"
"Asmenos Kelias","54.6460","25.3290","10","Lithuania"
"Jasiunai","54.4420","25.3310","266","Lithuania"
"Pasvines","55.8270","22.9890","48","Lithuania"
"Jasiunai","55.1800","26.2740","0","Lithuania"
"Lamokai","56.0220","24.7970","41","Lithuania"
"Paivoniskes","55.8290","25.9210","0","Lithuania"
"Pakalniskiai","55.3030","23.1810","8","Lithuania"
"Pakalniskiai","55.4440","23.3080","1","Lithuania"
"Pakalniskiai","55.4610","23.1640","0","Lithuania"
"Pakalniskiai","55.3360","23.3580","0","Lithuania"
"Varsedziai","55.4972","22.3806","157","Lithuania"
"Pakalne","55.1690","24.6330","8","Lithuania"
"Pakalne","55.3330","24.8250","1","Lithuania"
"Sergeicikai II","54.9390","24.0670","18","Lithuania"
"Pakalniskiai","55.6810","24.1080","7","Lithuania"
"Pakalniskiai","55.9450","24.2230","14","Lithuania"
"Luobine","54.8920","23.7420","10","Lithuania"
"Pakalniskiai","55.7690","23.8440","345","Lithuania"
"Pakalniskiai","55.8040","23.3910","12","Lithuania"
"Svirpliai","56.3170","23.6010","25","Lithuania"
"Narto Naujiena","54.5242","23.3814","16","Lithuania"
"Liudgarda","55.0600","25.5200","5","Lithuania"
"Didziakaimis","55.3890","25.0860","70","Lithuania"
"Vydeikiai","55.9690","21.7610","119","Lithuania"
"Kuosiskiai","55.9680","23.8660","11","Lithuania"
"Pagirgzdutis","55.7010","22.4880","22","Lithuania"
"Azukriaunis","55.9730","25.9290","6","Lithuania"
"Gurava","55.7900","22.6140","13","Lithuania"
"Neliubiskis","55.7860","25.6220","20","Lithuania"
"Jasiskiai","55.0540","24.8490","0","Lithuania"
"Silute","55.3500","21.4833","15902","Lithuania"
"Rociske","55.3140","23.3780","0","Lithuania"
"Azutakis","54.9510","25.6860","9","Lithuania"
"Cistabora","55.0570","25.5480","5","Lithuania"
"Dvariunai","55.6660","26.5370","2","Lithuania"
"Karaliai","54.6780","23.0470","267","Lithuania"
"Maciunai","55.1810","26.3560","9","Lithuania"
"Vasiuliai","55.3580","26.3160","20","Lithuania"
"Buivydonys","54.7440","24.3920","17","Lithuania"
"Morkuniskiai","55.7030","25.4560","0","Lithuania"
"Papeleke","55.5781","25.8758","0","Lithuania"
"Joniskis","55.6260","24.4970","12","Lithuania"
"Tolimenai","55.5190","26.0630","13","Lithuania"
"Semeniskiai","56.1580","24.9470","6","Lithuania"
"Juodinkiai","56.0620","22.2780","4","Lithuania"
"Nevirza","55.6240","25.5590","2","Lithuania"
"Azuolyne","55.1360","24.4810","7","Lithuania"
"Viestovenai","55.8360","21.7140","265","Lithuania"
"Azuolyne","55.6150","22.6370","2","Lithuania"
"Zabarauskai","54.6500","24.5320","0","Lithuania"
"Zabarauskai","54.5540","24.5210","17","Lithuania"
"Rubelninkai","55.2750","26.3580","103","Lithuania"
"Balceriskes","54.7720","24.8440","180","Lithuania"
"Sliziskiai","55.2900","25.4630","2","Lithuania"
"Rakatanskai","54.3060","24.2970","15","Lithuania"
"Kalvarija","54.4147","23.2281","3766","Lithuania"
"Panemune","54.1530","23.9750","9","Lithuania"
"Malavole","54.8030","24.9310","3","Lithuania"
"Selverava","55.1540","23.6830","17","Lithuania"
"Papeciai","54.2640","23.5440","57","Lithuania"
"Randamonys","54.0553","24.2128","0","Lithuania"
"Miskiskiai II","55.2480","25.3560","12","Lithuania"
"Savulkos","54.2690","24.2750","14","Lithuania"
"Kartena","55.9194","21.4694","931","Lithuania"
"Cekonys","54.9160","25.1870","15","Lithuania"
"Sakalyne","55.6390","24.1440","0","Lithuania"
"Joksiai","55.9360","25.1580","0","Lithuania"
"Seniava","54.5940","24.4000","0","Lithuania"
"Didzioji Kirsna","54.3390","23.5060","103","Lithuania"
"Krasnasiolka","54.8920","24.7140","19","Lithuania"
"Pasventys","54.6500","24.4640","2","Lithuania"
"Pasventys","55.0830","22.6080","70","Lithuania"
"Bendrove","55.3236","25.8628","5","Lithuania"
"Guleliai","55.4390","25.4090","0","Lithuania"
"Pavasuokiai I","55.6880","24.6530","7","Lithuania"
"Makniunalauke","55.3860","26.2710","34","Lithuania"
"Liepalauke","55.7200","26.1970","0","Lithuania"
"Slabada","54.7110","25.6190","178","Lithuania"
"Slabada","54.5167","25.5667","62","Lithuania"
"Slabada","54.5450","25.3220","20","Lithuania"
"Pastoviskis","55.2025","25.8114","1","Lithuania"
"Voskoniai","55.8830","23.5690","129","Lithuania"
"Dickaimis","55.3890","23.4080","0","Lithuania"
"Slabada","54.5770","24.8690","44","Lithuania"
"Slabada","55.2640","24.9500","52","Lithuania"
"Slabada","55.1940","24.7780","17","Lithuania"
"Slabada","55.1420","24.5750","13","Lithuania"
"Slabada","55.2360","25.0170","11","Lithuania"
"Levaniskis","56.0160","24.3020","10","Lithuania"
"Didvejis","55.4310","22.9610","28","Lithuania"
"Panemuninkai","54.4920","24.0360","154","Lithuania"
"Burciske","55.6490","22.6600","8","Lithuania"
"Ziogai","55.9310","25.1750","3","Lithuania"
"Katinai","54.8150","23.3990","71","Lithuania"
"Kumpolka","55.8950","25.9310","1","Lithuania"
"Dvareliskiai","55.1970","25.0830","16","Lithuania"
"Paraude","55.4550","25.5830","5","Lithuania"
"Liudvinava","55.1610","22.9380","78","Lithuania"
"Lesiskis","54.6610","23.7940","0","Lithuania"
"Mozuriske","55.3290","25.9880","2","Lithuania"
"Egiptas","55.1240","25.6480","4","Lithuania"
"Dambrotiskis","55.9800","25.6400","13","Lithuania"
"Pravydziai","55.3890","24.9390","25","Lithuania"
"Markiniske","55.4220","26.3070","3","Lithuania"
"Ozeliai","56.0170","24.2370","2","Lithuania"
"Kalneliai","55.6160","24.3530","7","Lithuania"
"Mazeliai","55.4670","24.9190","113","Lithuania"
"Plonenas","56.2310","24.1140","25","Lithuania"
"Mazioniai","56.0910","23.6900","16","Lithuania"
"Pagedociukas","55.4470","23.0190","5","Lithuania"
"Karkline","54.8440","25.6990","0","Lithuania"
"Karkline","54.9090","25.5690","0","Lithuania"
"Katiliskes","56.3360","23.2910","15","Lithuania"
"Silai","55.6750","25.0000","13","Lithuania"
"Silai","55.4110","25.2720","4","Lithuania"
"Medingenai","55.5910","23.1150","14","Lithuania"
"Kampiniai","55.4500","25.3670","1","Lithuania"
"Zekiskes","54.9870","25.2610","5","Lithuania"
"Berniunai","55.2720","25.9600","69","Lithuania"
"Miklusenai","54.4417","23.9972","1044","Lithuania"
"Suvalkeliai","54.4360","23.3030","137","Lithuania"
"Glatkiskes","54.8500","25.0930","18","Lithuania"
"Ukrinai","56.3000","22.1000","484","Lithuania"
"Salele","55.2340","26.3110","3","Lithuania"
"Liepkalnis","56.1100","22.3290","10","Lithuania"
"Dvarnapolis I","55.4800","26.1430","5","Lithuania"
"Vaitakarcmis","54.3720","24.7390","4","Lithuania"
"Ryliskes","54.8431","25.2411","3","Lithuania"
"Katleriskiai","55.5330","25.3720","4","Lithuania"
"Karkuciai","54.7140","24.6750","6","Lithuania"
"Pavyzulionele","54.9440","25.2980","11","Lithuania"
"Daugailiai","55.5889","25.8361","351","Lithuania"
"Naidai","55.0970","25.0890","19","Lithuania"
"Liepeliskiai","55.1270","25.6150","6","Lithuania"
"Kuzeliskes","54.7180","25.6760","5","Lithuania"
"Rubikiai","56.0180","25.7750","5","Lithuania"
"Obsruteliai","54.5940","23.3060","6","Lithuania"
"Milasiskes","55.1390","25.4830","2","Lithuania"
"Noskuneliai","54.6500","24.5830","11","Lithuania"
"Uzudvaris","54.6040","25.4770","21","Lithuania"
"Jaciuniskes","55.4260","25.8670","8","Lithuania"
"Butkai","55.5939","21.3169","51","Lithuania"
"Kereziai","56.1470","22.6690","13","Lithuania"
"Ezeriske","55.5700","26.2861","0","Lithuania"
"Derkinciai","56.1470","21.7690","51","Lithuania"
"Maldziunai","55.1180","25.7710","26","Lithuania"
"Diliava","56.0420","24.9370","0","Lithuania"
"Buciunai","56.0180","25.8290","77","Lithuania"
"Vidziunai","55.3740","25.5830","4","Lithuania"
"Omentiskiai","54.6870","23.1770","8","Lithuania"
"Pamaisupys","54.8270","23.8260","2","Lithuania"
"Viktoriske","55.5640","26.2910","3","Lithuania"
"Daucioniai","55.0750","23.4310","20","Lithuania"
"Ziezmariai","54.8056","24.4389","3268","Lithuania"
"Birbilai","55.1590","23.1420","15","Lithuania"
"Daucionys","54.8950","25.2140","11","Lithuania"
"Paplestakiai","55.8530","22.8390","30","Lithuania"
"Milastonys","54.2920","23.8640","6","Lithuania"
"Geguzkalnis","55.8210","22.3870","4","Lithuania"
"Bruskiskes","54.6089","25.5639","33","Lithuania"
"Naikmiske","55.7370","22.6790","0","Lithuania"
"Darbalaukis","54.4860","24.3310","9","Lithuania"
"Pakubetiskiai II","55.2720","25.4320","8","Lithuania"
"Rudele","54.3510","23.3110","60","Lithuania"
"Vilkai","56.0130","25.4440","9","Lithuania"
"Karvys","54.8778","25.1333","335","Lithuania"
"Medsedziai","56.2310","21.8470","27","Lithuania"
"Pigonys","54.9360","24.7630","15","Lithuania"
"Zelsva","54.4310","23.4030","653","Lithuania"
"Dirzonys","54.8470","24.8330","7","Lithuania"
"Buisai","55.9990","22.5490","8","Lithuania"
"Kruopainiai","55.7700","22.5360","7","Lithuania"
"Markutiskiai","55.1390","24.3940","81","Lithuania"
"Kumonys","55.1020","25.6480","9","Lithuania"
"Cedroniske","55.7430","23.0010","2","Lithuania"
"Laitiesiniai","56.1650","23.8520","9","Lithuania"
"Civiskiai","55.5400","25.4740","11","Lithuania"
"Kriveikiskis","54.8810","24.8680","1","Lithuania"
"Babiagura","54.6530","24.2420","5","Lithuania"
"Skruzdelyne","56.2380","24.4560","0","Lithuania"
"Oniunai","55.8390","24.8110","12","Lithuania"
"Siline","55.4220","25.0030","0","Lithuania"
"Iziniskiai","55.4060","22.8190","15","Lithuania"
"Balsenai","55.6060","21.6670","156","Lithuania"
"Darzininkai","54.7500","22.9140","258","Lithuania"
"Ozkyciai","55.8920","24.2220","20","Lithuania"
"Pasiliai","55.0610","23.5140","11","Lithuania"
"Gyviskiai","54.4780","23.4670","165","Lithuania"
"Pasiliai","54.3350","23.3290","5","Lithuania"
"Klaisiai","56.1470","22.9390","179","Lithuania"
"Pasiliai","55.0250","24.1390","29","Lithuania"
"Vaisbuniskiai","54.5150","23.0630","27","Lithuania"
"Strumbagalve","54.2720","23.3580","121","Lithuania"
"Sarkine","55.7950","23.9950","3","Lithuania"
"Markuniske","55.7850","22.6400","10","Lithuania"
"Janauka","55.2780","25.4290","18","Lithuania"
"Janauka","55.2600","25.3140","0","Lithuania"
"Narsutiske","55.3170","26.2030","11","Lithuania"
"Krusonys","54.0940","24.1610","0","Lithuania"
"Ginotai","56.1190","25.6200","5","Lithuania"
"Ciziske","54.9400","25.6160","8","Lithuania"
"Degsniai","56.0380","25.5120","99","Lithuania"
"Degsniai","55.1250","25.1590","6","Lithuania"
"Iciunai","55.8970","25.0110","8","Lithuania"
"Skerpieviai","54.5660","22.9880","11","Lithuania"
"Aukstoji","54.6250","23.5130","24","Lithuania"
"Novoplenta","54.3500","24.2360","6","Lithuania"
"Vadenai","54.2530","24.3030","10","Lithuania"
"Buckunai","55.2260","26.4200","45","Lithuania"
"Kukliai","55.2500","25.9680","59","Lithuania"
"Muse","54.9340","25.1020","0","Lithuania"
"Paraseinys","55.3780","23.0780","33","Lithuania"
"Kabeliai","53.9531","24.2969","168","Lithuania"
"Miezuciai","55.6830","23.1650","3","Lithuania"
"Leitiskes","54.7180","24.8590","3","Lithuania"
"Mimainiai","55.2444","24.3444","166","Lithuania"
"Ciziunai","55.4980","26.4100","20","Lithuania"
"Piktoziai","55.6390","21.4360","48","Lithuania"
"Pagrizai","55.4410","25.3180","0","Lithuania"
"Pameniskis","56.0630","25.2510","2","Lithuania"
"Geniskiai","56.1250","24.7860","0","Lithuania"
"Alksnas","55.5000","26.4240","4","Lithuania"
"Peleniskiai","56.2730","24.5260","0","Lithuania"
"Gustaiciai","54.7100","22.8920","12","Lithuania"
"Paraisciai","55.5190","24.9560","7","Lithuania"
"Paraisciai","55.4110","25.1610","0","Lithuania"
"Seduikiai","55.7360","25.4810","3","Lithuania"
"Trakiniai","55.3810","25.1390","7","Lithuania"
"Trakiniai","55.4500","25.3310","0","Lithuania"
"Pasandravys","55.4390","23.3280","16","Lithuania"
"Molupiai","55.6810","22.5770","2","Lithuania"
"Sirilai","55.3920","24.7110","9","Lithuania"
"Jonaitiskiai","55.8170","23.4060","117","Lithuania"
"Maisiakule","55.3740","25.3050","13","Lithuania"
"Mirkenai","55.4640","25.4910","13","Lithuania"
"Vysniava","55.6070","26.4810","1","Lithuania"
"Kamsciai","55.1903","22.0736","59","Lithuania"
"Levizarai","55.7128","25.6822","4","Lithuania"
"Eibariskiai","55.8330","23.5480","4","Lithuania"
"Rieznycia","54.4940","24.5590","25","Lithuania"
"Graziskiai","55.8420","24.7920","4","Lithuania"
"Gendviliai","55.8960","23.5560","16","Lithuania"
"Senasalis","54.5090","25.5300","61","Lithuania"
"Matiske","54.6570","25.0150","44","Lithuania"
"Dziaugenai","55.4740","22.0880","81","Lithuania"
"Steponiskis","55.6900","24.4910","31","Lithuania"
"Pyragiai","55.5330","23.1970","19","Lithuania"
