"city","lat","lng","population", "country"
"Merida","20.9700","-89.6200","892363","Mexico"
"Tecoman","18.9089","-103.8747","112726","Mexico"
"San Antonio Canada","18.5000","-97.2833","5590","Mexico"
"Nicolas Hidalgo","17.7833","-98.1333","975","Mexico"
"Valle Hermoso","25.6736","-97.8144","68573","Mexico"
"Tuxcueca","20.1553","-103.1847","6702","Mexico"
"Tlahuelilpan","20.1297","-99.2286","17153","Mexico"
"Tala","20.6525","-103.7028","80365","Mexico"
"Navolato","24.7656","-107.7019","28676","Mexico"
"Jacona de Plancarte","19.9500","-102.3167","69744","Mexico"
"Chicxulub Pueblo","21.1364","-89.5167","4080","Mexico"
"X-Hazil Sur","19.3917","-88.0742","1422","Mexico"
"El Mazunte","15.6660","-96.5560","702","Mexico"
"Cuauhtemoc","28.4050","-106.8667","168482","Mexico"
"San Sebastian Coatlan","16.2000","-96.8333","2678","Mexico"
"Zinacantepec","19.2833","-99.7333","136167","Mexico"
"Xtabay","20.8558","-89.2603","110","Mexico"
"Ciudad de Huajuapam de Leon","17.8039","-97.7758","77547","Mexico"
"Nueva Rosita","27.9390","-101.2180","36642","Mexico"
"Ojo Caliente","21.8772","-102.6756","6914","Mexico"
"San Pedro Garza Garcia","25.6667","-100.3000","122009","Mexico"
"Rafael Delgado","18.8167","-97.0667","23112","Mexico"
"Acatlan de Osorio","18.2086","-98.0575","18879","Mexico"
"Coacoatzintla","19.6500","-96.9333","10482","Mexico"
"Pajapan","18.2667","-94.6833","17480","Mexico"
"Escarcega","18.6067","-90.7344","29477","Mexico"
"Progreso de Alvaro Obregon","20.2500","-99.1833","4630","Mexico"
"Catavina","29.7294","-114.7208","159","Mexico"
"Ascension","31.0928","-107.9964","13456","Mexico"
"Paso de Ovejas","19.2850","-96.4400","33392","Mexico"
"Tanya","21.1100","-89.2492","879","Mexico"
"Matias Romero","16.8798","-95.0391","39828","Mexico"
"Santa Catarina Mechoacan","16.3360","-97.8368","4460","Mexico"
"Santiago Tianguistenco","19.1797","-99.4706","64365","Mexico"
"Mariano Escobedo","18.9167","-97.1333","37285","Mexico"
"Saltillo","19.2966","-97.2990","762","Mexico"
"Kantunilkin","21.1000","-87.4833","7150","Mexico"
"Villa Donato Guerra","19.3083","-100.1422","29621","Mexico"
"Puerto Morelos","20.8536","-86.8753","9188","Mexico"
"Alta Cima","23.0611","-99.1986","180","Mexico"
"Las Minas","19.7045","-97.1470","2920","Mexico"
"Choix","26.7061","-108.3219","9306","Mexico"
"Mineral del Chico","20.2031","-98.7478","7980","Mexico"
"Viesca","25.3500","-102.8000","19328","Mexico"
"Santiago Minas","16.4333","-97.1667","1445","Mexico"
"Salinas Victoria","25.9667","-100.3000","27848","Mexico"
"San Antonio Tehuitz","20.8994","-89.5208","724","Mexico"
"Camajapita","20.3500","-103.9167","280","Mexico"
"San Pedro y San Pablo Teposcolula","17.5167","-97.4833","4016","Mexico"
"Huauchinango","20.1767","-98.0528","97753","Mexico"
"Santa Cruz Atizapan","19.1756","-99.4886","8909","Mexico"
"Chikindzonot","20.3333","-88.4864","2699","Mexico"
"Los Haros","22.7667","-102.9628","878","Mexico"
"Contla","19.3333","-98.1667","27610","Mexico"
"Asuncion Nochixtlan","17.4592","-97.2261","18525","Mexico"
"Zapotlan del Rey","20.4674","-102.9248","17893","Mexico"
"Santa Catarina Cuixtla","16.3000","-96.6500","1427","Mexico"
"Amatepec","18.6500","-100.1500","27026","Mexico"
"Ayotoxco de Guerrero","20.1000","-97.4000","8558","Mexico"
"Benito Juarez","20.8833","-98.2000","1069","Mexico"
"Anton Lizardo","19.0500","-95.9833","4586","Mexico"
"Apaxco de Ocampo","19.9733","-99.1700","13836","Mexico"
"San Pedro","25.7589","-102.9844","53688","Mexico"
"Huepac","29.9000","-110.2000","1142","Mexico"
"Guacharachi","27.1500","-107.3167","49689","Mexico"
"Acteal","16.9878","-92.5186","155","Mexico"
"Juan Rodriguez Clara","18.0000","-95.4000","38895","Mexico"
"Orizaba","18.8500","-97.1000","117273","Mexico"
"Lerdo de Tejada","18.6380","-95.5085","19606","Mexico"
"Ucu","21.0308","-89.7469","2601","Mexico"
"Aquila","18.5833","-103.5167","24864","Mexico"
"Dolores Hidalgo Cuna de la Independencia Nacional","21.1516","-100.9369","148173","Mexico"
"Coroneo","20.1333","-100.3333","10347","Mexico"
"San Cristobal Suchixtlahuaca","17.7264","-97.3667","360","Mexico"
"Tuxcacuesco","19.5500","-103.8667","4229","Mexico"
"Santa Isabel","28.3422","-106.3683","1378","Mexico"
"Aguascalientes","21.8760","-102.2960","934424","Mexico"
"San Francisco de los Romo","22.0833","-102.2667","46454","Mexico"
"Ixmiquilpan","20.4861","-99.2589","73903","Mexico"
"Ciudad Lazaro Cardenas","17.9561","-102.1922","79200","Mexico"
"Valle Alto","25.5667","-100.2500","75000","Mexico"
"Santiago Ixcuintepec","16.9333","-95.6167","1598","Mexico"
"Homun","20.7386","-89.2850","6146","Mexico"
"El Higo","21.7667","-98.4500","7844","Mexico"
"Hopelchen","19.7444","-89.8453","7295","Mexico"
"Mixtlan","20.3667","-104.2500","3526","Mexico"
"Chumatlan","20.2000","-97.6000","3880","Mexico"
"Conkal","21.0733","-89.5208","7173","Mexico"
"Juarez","31.7386","-106.4870","1321004","Mexico"
"Juarez","30.3090","-108.0760","1035","Mexico"
"Puerto Escondido","25.8106","-111.3078","2","Mexico"
"Rio Lagartos","21.6000","-88.1667","2218","Mexico"
"Ciudad Obregon","27.4939","-109.9389","405000","Mexico"
"Hocaba","20.8156","-89.2450","4127","Mexico"
"Cocorit","27.5833","-109.9667","7953","Mexico"
"Polaban","20.7333","-89.2183","75","Mexico"
"San Francisco Sola","16.5000","-96.9667","1731","Mexico"
"Santa Maria Apazco","17.6333","-97.1333","1720","Mexico"
"La Trinidad","17.7500","-97.5000","260","Mexico"
"Ciudad Guzman","19.7000","-103.4667","97","Mexico"
"San Miguel Ejutla","16.5833","-96.7333","1014","Mexico"
"Barranca de los Laureles","20.2333","-103.6333","317","Mexico"
"Chicxulub Puerto","21.2939","-89.6083","5052","Mexico"
"Ajacuba","20.0833","-99.1167","17055","Mexico"
"Mineral de Angangueo","19.6178","-100.2856","11120","Mexico"
"Yotholin","20.3264","-89.4550","2035","Mexico"
"San Sebastian Nicananduta","17.5167","-97.6833","1441","Mexico"
"San Juan Petlapa","17.4667","-96.0333","2919","Mexico"
"Zacualpan de Amilpas","18.7836","-98.7594","9370","Mexico"
"Uruachi","27.8672","-108.2158","1199","Mexico"
"San Luis de La Loma","17.2714","-100.8911","11090","Mexico"
"Santa Catarina Ticua","17.0667","-97.5500","1031","Mexico"
"Tonila","19.4261","-103.5319","7919","Mexico"
"San Miguel Huautla","17.7333","-97.1333","1094","Mexico"
"Santa Ana Nextlalpan","19.7167","-99.0667","22507","Mexico"
"Xalapa","19.5400","-96.9275","525147","Mexico"
"Conchos","27.5833","-105.3167","644","Mexico"
"Guanacevi","25.9320","-105.9540","2908","Mexico"
"Rio Grande","20.3712","-103.9599","141","Mexico"
"San Pedro Tapanatepec","16.3667","-94.2000","15152","Mexico"
"Cardonal","20.6167","-99.1167","15876","Mexico"
"Santa Maria Mixtequilla","16.3737","-95.2605","4555","Mexico"
"Colipa","19.9167","-96.7000","5718","Mexico"
"Escalon","26.7517","-104.3403","697","Mexico"
"La Magdalena Chichicaspa","19.4181","-99.3228","12193","Mexico"
"Hidalgo","27.7911","-99.8742","1638","Mexico"
"Chiconcuac","19.5500","-98.9000","19656","Mexico"
"Sultepec","18.8667","-99.9500","24986","Mexico"
"Colonia Venustiano Carranza","32.2275","-115.1703","6098","Mexico"
"Magdalena Mixtepec","16.9000","-96.9000","1375","Mexico"
"Santiago Apostol","16.8167","-96.7167","3995","Mexico"
"Chicoasen","16.9661","-93.1050","5000","Mexico"
"Santiago","25.4333","-100.1333","37886","Mexico"
"Cusihuiriachi","28.2411","-106.8367","63","Mexico"
"Santiago Choapan","17.3667","-95.9167","4983","Mexico"
"Santa Cruz","31.2336","-110.5953","1038","Mexico"
"San Agustin Etla","17.1833","-96.7667","3984","Mexico"
"Saucillo","28.0333","-105.2833","11004","Mexico"
"Ixtapaluca","19.3186","-98.8822","495563","Mexico"
"Zongolica","18.6642","-97.0011","43871","Mexico"
"Tamazula de Victoria","24.9700","-106.9656","2337","Mexico"
"Fronteras","30.8961","-109.5583","874","Mexico"
"Juchitepec","19.0997","-98.8792","23497","Mexico"
"Tezonapa","18.6058","-96.6875","56956","Mexico"
"Arizpe","30.3308","-110.1692","1718","Mexico"
"Allende","28.3333","-100.8333","20694","Mexico"
"Isla Mujeres","21.2084","-86.7115","12491","Mexico"
"El Rosario de Arriba","30.0603","-115.7269","1704","Mexico"
"Alamos","27.0275","-108.9400","24493","Mexico"
"San Telmo","30.9692","-116.0913","29","Mexico"
"Joquicingo","19.0556","-99.5467","11042","Mexico"
"Juchitan de Zaragoza","16.4333","-95.0194","74825","Mexico"
"Ezequiel Montes","20.6667","-99.8833","14053","Mexico"
"San Francisco Tlapancingo","17.4833","-98.2667","2109","Mexico"
"Espita","21.0128","-88.3047","11551","Mexico"
"Tlanalapa","19.8167","-98.6000","8662","Mexico"
"Tepeojuma","18.7167","-98.4500","8492","Mexico"
"Saltillo","25.4333","-101.0000","807537","Mexico"
"Atitalaquia","20.0583","-99.2208","26904","Mexico"
"Pachuca","20.1000","-98.7500","277375","Mexico"
"Cerocahui","27.2978","-108.0553","1556","Mexico"
"San Juan Bautista Jayacatlan","17.4167","-96.8167","1456","Mexico"
"Ciudad Ayala","18.7667","-98.9833","6","Mexico"
"Playa del Carmen","20.6275","-87.0811","252087","Mexico"
"Punta Prieta","28.9289","-114.1556","112","Mexico"
"Magdalena Teitipac","16.9000","-96.5500","4563","Mexico"
"Valle de Juarez","19.8667","-102.8167","5389","Mexico"
"Ciudad Hidalgo","19.6923","-100.5574","122619","Mexico"
"Santa Catalina Quieri","16.3167","-96.2667","871","Mexico"
"Tayoltita","24.0833","-105.9333","5124","Mexico"
"Santa Ana Maya","20.0000","-101.0167","12466","Mexico"
"Tepotzotlan","19.7161","-99.2236","67724","Mexico"
"Salamanca","20.5703","-101.1972","260759","Mexico"
"Magdalena Ocotlan","16.7000","-96.7167","1146","Mexico"
"San Francisco Ozolotepec","16.0667","-96.2167","1940","Mexico"
"El Dorado","24.3228","-107.3630","17365","Mexico"
"Villa Chalcatongo de Hidalgo","17.0322","-97.5709","9066","Mexico"
"Santa Maria Cortijo","16.4500","-98.2833","1075","Mexico"
"Platon Sanchez","21.2833","-98.3667","10009","Mexico"
"San Andres Lagunas","17.5667","-97.5167","483","Mexico"
"Ayutla de los Libres","16.9000","-99.2167","15370","Mexico"
"Santiago Yolomecatl","17.4833","-97.5667","2090","Mexico"
"Villa Hidalgo","17.1833","-96.1833","1917","Mexico"
"Nombre de Dios","23.8500","-104.2333","5302","Mexico"
"Temamatla","19.2028","-98.8700","11206","Mexico"
"Vicente Guerrero","30.7264","-115.9903","12829","Mexico"
"Tepetitan","17.8189","-92.3725","1522","Mexico"
"Balancan","17.8000","-91.5300","11895","Mexico"
"Punta Chueca","29.0150","-112.1617","520","Mexico"
"Santa Maria Coyotepec","16.9833","-96.7000","2971","Mexico"
"Santiago Tulantepec","20.0397","-98.3575","16078","Mexico"
"San Nicolas Tolentino","22.2489","-100.5525","5547","Mexico"
"Kinchil","20.9161","-89.9469","6307","Mexico"
"Becal","20.4414","-90.0275","6511","Mexico"
"Acayucan","17.9422","-94.9103","83817","Mexico"
"Villa Ocampo","26.4500","-105.5167","1076","Mexico"
"Soledad Atzompa","18.7550","-97.1522","23130","Mexico"
"Arivechi","28.9333","-109.1833","1280","Mexico"
"El Salitre","20.5100","-103.8580","2434","Mexico"
"Santa Maria Tlaola","20.1386","-97.9231","1406","Mexico"
"Tamchen","20.8753","-89.9319","6307","Mexico"
"Santa Maria Xadani","16.3667","-95.0167","8795","Mexico"
"Puerto Aventuras","20.5117","-87.2342","5979","Mexico"
"Cosautlan","19.3333","-96.9833","16353","Mexico"
"Tizimin","21.1425","-88.1647","46971","Mexico"
"Hermosillo","29.0989","-110.9542","812229","Mexico"
"Basaseachic","28.2058","-108.2086","1248","Mexico"
"Tepetzintla","19.9667","-97.8333","11622","Mexico"
"Valladolid","20.6894","-88.2017","48973","Mexico"
"Sabanilla","17.2833","-92.5500","26921","Mexico"
"Izamal","20.7303","-86.9650","58","Mexico"
"Santa Catarina Tayata","17.3500","-97.5667","663","Mexico"
"Campeche","19.8500","-90.5306","220389","Mexico"
"San Mateo Rio Hondo","16.1667","-96.5000","3133","Mexico"
"San Andres Zautla","17.2000","-96.8667","4409","Mexico"
"Colombia","27.7033","-99.7594","514","Mexico"
"Lampazos de Naranjo","27.0250","-100.5056","5305","Mexico"
"Zempoala","19.9167","-98.6667","27333","Mexico"
"San Pablo Tijaltepec","17.0167","-97.5167","2504","Mexico"
"Ipazoltic","20.4333","-103.9833","510","Mexico"
"San Miguel Piedras","17.0000","-97.2167","1271","Mexico"
"Temosachi","29.4500","-108.3667","1786","Mexico"
"Dzoncauich","21.1278","-88.8906","2318","Mexico"
"Pajacuaran","20.1178","-102.5667","10014","Mexico"
"Rioverde","21.9300","-99.9800","69613","Mexico"
"Pacula","21.0497","-99.2956","4522","Mexico"
"Santiago Lalopa","17.4167","-96.2500","498","Mexico"
"Polotitlan de la Ilustracion","20.2231","-99.8147","13851","Mexico"
"San Nicolas","16.4333","-96.7500","1135","Mexico"
"Santa Maria Ipalapa","16.6333","-98.0333","4990","Mexico"
"Ciudad del Carmen","18.6333","-91.8333","169466","Mexico"
"San Martin Huamelulpam","17.3972","-97.6014","113","Mexico"
"Frontera Corozal","16.8211","-90.8903","5184","Mexico"
"Tenamaxtlan","20.2167","-104.1670","7005","Mexico"
"Texhuacan","18.6167","-97.0333","5284","Mexico"
"Santiago Zoochila","17.2167","-96.2333","402","Mexico"
"Mayapan","20.4681","-89.2139","3263","Mexico"
"Atengo","20.2167","-104.0833","5475","Mexico"
"Papalotla","19.5622","-98.8578","3766","Mexico"
"San Blas","21.5397","-105.2856","37478","Mexico"
"Chichihualco","17.6550","-99.6740","10690","Mexico"
"San Salvador","20.2833","-99.0153","28637","Mexico"
"San Miguel Suchixtepec","16.0833","-96.4667","2665","Mexico"
"Texmelucan","16.5833","-97.2000","8323","Mexico"
"Tamazulapam Villa del Progreso","17.6750","-97.5714","7707","Mexico"
"San Agustin Amatengo","16.5167","-96.7833","1459","Mexico"
"Chicahua","17.6333","-97.2000","2097","Mexico"
"Santa Maria Tonameca","15.7458","-96.5472","25130","Mexico"
"Nezahualcoyotl","19.4000","-98.9889","1110565","Mexico"
"Maguarichi","27.8581","-107.9939","801","Mexico"
"San Miguel Tecomatlan","17.3833","-97.2667","266","Mexico"
"Huachichil","25.2114","-100.8253","1616","Mexico"
"San Miguel Tenango","16.2667","-95.6000","729","Mexico"
"Santa Cruz Xitla","16.3167","-96.6667","4754","Mexico"
"Aconchi","29.8167","-110.2167","1741","Mexico"
"Tapilula","17.2500","-93.0167","12887","Mexico"
"San Juan Quiahue","16.3000","-97.3167","4286","Mexico"
"El Pescadero","23.3642","-110.1683","3151","Mexico"
"Felipe Carrillo Puerto","19.5786","-88.0453","25744","Mexico"
"Santiago Zacatepec","17.1500","-95.9167","5187","Mexico"
"Santiago Ixtayutla","16.5667","-97.6500","13041","Mexico"
"San Jose Iturbide","21.0000","-100.3833","54661","Mexico"
"Atlatlahucan","18.9350","-98.9000","22079","Mexico"
"San Martin Lachila","16.6167","-96.8500","1087","Mexico"
"Francisco I. Madero","25.7753","-103.2731","50084","Mexico"
"Santa Lucia Monte Verde","16.9500","-97.6667","6398","Mexico"
"San Agustin Tlacotepec","17.2000","-97.5167","929","Mexico"
"Emiliano Zapata","19.6500","-98.5500","12309","Mexico"
"Nopala de Villagran","20.2528","-99.6433","15099","Mexico"
"Mazatlan","23.2200","-106.4200","502547","Mexico"
"Santiago Yaveo","17.3333","-95.7000","6885","Mexico"
"Tuxpan","19.5661","-100.4625","27371","Mexico"
"Matachi","28.8431","-107.7556","1710","Mexico"
"Guerrero Negro","27.9589","-114.0561","14316","Mexico"
"Ciudad Valles","21.9833","-99.0167","176935","Mexico"
"Madera","29.1900","-108.1414","15447","Mexico"
"Oteapan","18.0000","-94.6667","16222","Mexico"
"Ciudad Benito Juarez","25.6500","-100.0833","260683","Mexico"
"Ayapango","19.1264","-98.8028","8864","Mexico"
"Muxupip","21.0419","-89.3297","2399","Mexico"
"Reforma de Pineda","16.4000","-94.4500","2723","Mexico"
"Villa Union","23.9667","-104.0333","10753","Mexico"
"San Pedro Amuzgos","16.6500","-98.1000","6664","Mexico"
"Magdalena Zahuatlan","17.3833","-97.2167","415","Mexico"
"Nopaltepec","19.7819","-98.7125","8182","Mexico"
"Tzintzuntzan","19.6283","-101.5789","12259","Mexico"
"Amatenango de la Frontera","15.4333","-92.1167","30732","Mexico"
"Zimapan","20.7333","-99.3833","34476","Mexico"
"San Luis de la Paz","21.3000","-100.5167","101370","Mexico"
"Nacajuca","18.1692","-93.0197","83356","Mexico"
"Yatzachi","17.2167","-96.2167","641","Mexico"
"Nautla","20.2167","-96.7833","2890","Mexico"
"San Francisco Jaltepetongo","17.3833","-97.2667","949","Mexico"
"Santa Lucia Ocotlan","16.7411","-96.6808","3855","Mexico"
"San Cristobal de la Barranca","21.0444","-103.4292","859","Mexico"
"Temixco","18.8500","-99.2333","116143","Mexico"
"San Simon Almolongas","16.4000","-96.7167","2820","Mexico"
"San Juan Teitipac","16.9333","-96.6000","2619","Mexico"
"Chicoloapan","19.4167","-98.9000","175053","Mexico"
"San Jeronimo Silacayoapilla","17.8086","-97.8456","1391","Mexico"
"Ahuacatlan","21.0536","-104.4869","8819","Mexico"
"Tuxpan","21.8667","-105.4500","34079","Mexico"
"Tenango del Aire","19.1575","-98.8581","10578","Mexico"
"Tierra Blanca","21.1011","-100.1578","14515","Mexico"
"Albarradas","17.0667","-96.2000","7965","Mexico"
"Playa Vicente","17.8333","-95.8167","39205","Mexico"
"Santiago Texcalcingo","18.2000","-96.9667","3098","Mexico"
"Monterrey","25.6667","-100.3000","4295000","Mexico"
"Teococuilco de Marcos Perez","17.3667","-96.6167","1016","Mexico"
"Colonia Calafia","24.0211","-110.2839","1690","Mexico"
"El Oro de Hidalgo","19.8008","-100.1314","31847","Mexico"
"Magdalena Yodocono de Porfirio Diaz","17.3814","-97.3575","1554","Mexico"
"La Rivera","23.5950","-109.5850","2050","Mexico"
"San Pedro Ocotepec","16.9542","-95.8444","1224","Mexico"
"Ciudad Sahagun","19.7714","-98.5803","28609","Mexico"
"Bolonchen de Rejon","20.0042","-89.8594","3975","Mexico"
"Tolcayuca","19.9500","-98.9167","11746","Mexico"
"Nanahuatipam","18.1333","-97.1167","1227","Mexico"
"Amozoc","19.0333","-98.0500","60517","Mexico"
"Santa Maria Chilchotla","18.2333","-96.8167","20328","Mexico"
"Eloxochitlan de Flores Magon","18.1764","-96.8750","4135","Mexico"
"Zumpango del Rio","17.6500","-99.5000","24719","Mexico"
"San Pedro Pochutla","15.7463","-96.4652","13685","Mexico"
"Santa Ana Tavela","16.6561","-95.9061","762","Mexico"
"Santiago Yogana","16.4667","-96.8000","1264","Mexico"
"San Antonio Sinicahua","17.1500","-97.5667","1484","Mexico"
"San Pedro Juchaltengo","16.3400","-97.0872","1561","Mexico"
"San Pedro Jocotipac","17.7667","-97.0667","779","Mexico"
"Santos Reyes Nopala","16.1000","-97.1500","17583","Mexico"
"Linares","24.8597","-99.5679","63104","Mexico"
"Juarez","20.7831","-98.8289","1820","Mexico"
"Ixcatepec","21.2333","-98.0000","13591","Mexico"
"Cardenas","17.9830","-93.3670","79875","Mexico"
"Ciudad Hidalgo","14.6792","-92.1497","14606","Mexico"
"Frontera","18.5336","-92.6469","22795","Mexico"
"Atotonilco de Tula","20.0500","-99.1833","31078","Mexico"
"Tlaquepaque","20.6167","-103.3167","575942","Mexico"
"Tenosique","17.4756","-91.4225","31392","Mexico"
"El Cenicero","19.9025","-99.1353","134","Mexico"
"Parral","26.9333","-105.6667","109510","Mexico"
"Santo Domingo Tepuxtepec","16.9500","-96.0500","4815","Mexico"
"Canatlan","24.5200","-104.7800","10342","Mexico"
"Tapalpa","19.9445","-103.7585","19506","Mexico"
"Puerto Palomas","31.7711","-107.6356","4688","Mexico"
"Guasavito","25.5655","-108.4718","86361","Mexico"
"Martinez de la Torre","20.0667","-97.0500","110415","Mexico"
"Texcoco","19.5200","-98.8800","259308","Mexico"
"Sahuaripa","29.0500","-109.2333","5792","Mexico"
"Villa Purificacion","19.7858","-104.7078","10704","Mexico"
"Santo Tomas Mazaltepec","17.1667","-96.8667","2632","Mexico"
"Loreto","26.0128","-111.3433","20385","Mexico"
"San Jacinto Chilateca","16.8411","-96.6842","641","Mexico"
"Turicato","19.0500","-101.4167","31877","Mexico"
"Altamirano","16.7361","-92.0389","9200","Mexico"
"Tantoyuca","21.3500","-98.2333","23893","Mexico"
"Chavinda","20.0167","-102.4500","10258","Mexico"
"Valle de Bravo","19.1925","-100.1306","61559","Mexico"
"Aporo","19.6697","-100.4097","3218","Mexico"
"San Miguel Amatitlan","17.8911","-98.0239","661","Mexico"
"Sisal Puerto","21.1667","-90.0333","1837","Mexico"
"San Andres Tenejapan","18.7833","-97.1000","2921","Mexico"
"Panindicuaro","19.9828","-101.7606","5565","Mexico"
"Colonia del Sol","22.9125","-109.9208","64055","Mexico"
"Zapotitlan","20.0028","-97.6917","5469","Mexico"
"Lagunas","16.8011","-95.0722","3871","Mexico"
"Cacalchen","20.9822","-89.2278","6787","Mexico"
"San Bernardo","20.6333","-89.9500","421","Mexico"
"El Porvenir de Velasco Suarez","15.4556","-92.2794","14121","Mexico"
"Xayacatlan de Bravo","18.2500","-97.9667","1513","Mexico"
"San Miguel Panixtlahuaca","16.2597","-97.3781","5930","Mexico"
"Chapala","20.2933","-103.1897","21596","Mexico"
"Guachinango","20.5670","-104.3670","4184","Mexico"
"Cosoltepec","18.1333","-97.7833","716","Mexico"
"Comapa","19.1667","-96.8666","19859","Mexico"
"Huitzilan","19.9667","-97.6833","15096","Mexico"
"Tuxpam de Rodriguez Cano","20.9500","-97.4000","143362","Mexico"
"El Desemboque","29.5050","-112.3956","287","Mexico"
"Pluma Hidalgo","15.9258","-96.4178","2871","Mexico"
"San Juan Yaee","17.4333","-96.2833","1481","Mexico"
"Xoxocotla","18.6850","-99.2439","21074","Mexico"
"Chapa de Mota","19.8144","-99.5269","21746","Mexico"
"Dzilam Gonzalez","21.2800","-88.9292","5875","Mexico"
"Bocoyna","27.8403","-107.5892","796","Mexico"
"Cazones de Herrera","20.7000","-97.3000","23675","Mexico"
"Taxco el Viejo","18.4830","-99.5850","3172","Mexico"
"Mecayapan","18.2167","-94.8333","17312","Mexico"
"Texcaltitlan","18.9297","-99.9372","2361","Mexico"
"Suma de Hidalgo","21.0861","-89.1486","1861","Mexico"
"Xagacia","17.1667","-96.2667","1030","Mexico"
"San Juan Guelavia","16.9500","-96.5333","3212","Mexico"
"San Andres","28.5458","-106.5017","662","Mexico"
"Santa Maria Acu","20.5467","-90.1633","1437","Mexico"
"Penjamo","20.4311","-101.7222","40076","Mexico"
"Tatahuicapan","18.2500","-94.7667","15614","Mexico"
"Palmillas","23.3019","-99.5489","1092","Mexico"
"Kopoma","20.6478","-89.8986","2026","Mexico"
"Romita","20.8708","-101.5169","51825","Mexico"
"Actopan","19.5036","-96.6192","43388","Mexico"
"Santa Eulalia","28.5939","-105.8878","7135","Mexico"
"Tuxtepec","18.1000","-96.1167","144555","Mexico"
"Chalchihuites","23.4761","-103.8806","3799","Mexico"
"Santa Cruz de las Flores","20.3917","-103.9508","1531","Mexico"
"General Zaragoza","23.8667","-97.8833","5942","Mexico"
"Bustamante","23.4353","-99.7569","1392","Mexico"
"Tuxtla","16.7528","-93.1167","598710","Mexico"
"San Esteban Atatlahuca","17.0664","-97.6775","3596","Mexico"
"Santa Clara","21.3733","-89.0153","45","Mexico"
"Panaba","21.2964","-88.2706","5232","Mexico"
"Tlalixtac de Cabrera","17.0667","-96.6500","10208","Mexico"
"Ixtenco","19.2514","-97.8942","6791","Mexico"
"Boca del Rio","19.1056","-96.1078","138058","Mexico"
"Calderitas","18.5544","-88.2583","5326","Mexico"
"Dziuche","19.8978","-88.8069","2870","Mexico"
"Akil","20.2656","-89.3478","10176","Mexico"
"Yucuquimi de Ocampo","17.5806","-97.8906","2260","Mexico"
"Ciudad Rio Bravo","25.9861","-98.0889","101481","Mexico"
"Suchitepec","17.9667","-97.6500","440","Mexico"
"San Cristobal Lachirioag","17.3333","-96.1667","1206","Mexico"
"San Pablo Anicano","18.1167","-98.0833","3534","Mexico"
"Huitzilac","19.0283","-99.2672","4568","Mexico"
"Primero de Mayo","22.9617","-98.9522","2445","Mexico"
"San Andres Paxtlan","16.2167","-96.5000","4295","Mexico"
"Piste","20.6981","-88.5886","5528","Mexico"
"Tekit","20.5322","-89.3314","9834","Mexico"
"Punta Colonet","31.0733","-116.2078","3752","Mexico"
"Chemax","20.6550","-87.9372","14885","Mexico"
"Queretaro","20.5875","-100.3928","804663","Mexico"
"La Garita","19.7667","-103.1167","1060","Mexico"
"San Felipe Jalapa de Diaz","18.0716","-96.5352","27979","Mexico"
"Santa Cruz Xoxocotlan","17.0264","-96.7333","93188","Mexico"
"Villa Union","23.1883","-106.2158","13404","Mexico"
"Sabinas","27.8600","-101.1200","63522","Mexico"
"San Juan Mixtepec","17.3000","-97.8333","6680","Mexico"
"San Juan Mixtepec","16.2667","-96.3000","660","Mexico"
"Cunduacan","18.0667","-93.1667","81392","Mexico"
"Morelia","19.7683","-101.1894","784776","Mexico"
"Nuevo Progreso","26.0561","-97.9522","10178","Mexico"
"Veracruz","19.1903","-96.1533","552156","Mexico"
"San Martin Tilcajete","16.8589","-96.6950","1821","Mexico"
"San Pedro Atoyac","16.5000","-97.9833","4539","Mexico"
"Mama","20.4772","-89.3650","2876","Mexico"
"Tampico Alto","22.1167","-97.8000","2126","Mexico"
"Doctor Mora","21.1425","-100.3192","24976","Mexico"
"Bernal","20.7389","-99.9400","2909","Mexico"
"Texistepec","17.9000","-94.8167","20887","Mexico"
"Huasca de Ocampo","20.2028","-98.5758","15201","Mexico"
"Ventanilla","15.6700","-96.5790","99","Mexico"
"Nopala","17.8000","-97.5333","720","Mexico"
"Santiago Ixcuintla","21.8110","-105.2079","18365","Mexico"
"Mesatunych","21.0764","-89.2008","600","Mexico"
"San Luis Rio Colorado","32.4767","-114.7625","192739","Mexico"
"Teabo","20.3997","-89.2844","6115","Mexico"
"Santa Isabel Cholula","19.0000","-98.3667","9236","Mexico"
"Ojinaga","29.5644","-104.4164","28040","Mexico"
"Sacalum","20.4950","-89.5897","3721","Mexico"
"Mazatan","29.0167","-110.1333","500000","Mexico"
"Pureparo de Echaiz","19.9000","-102.0000","15255","Mexico"
"Huanimaro","20.3675","-101.4969","19693","Mexico"
"Apulco","21.3833","-102.6667","1453","Mexico"
"Santiago Yosondua","16.8833","-97.5667","8330","Mexico"
"Tultitlan de Mariano Escobedo","19.6450","-99.1694","486998","Mexico"
"San Mateo Nejapam","17.6500","-98.4167","1144","Mexico"
"Santa Lucia","16.1833","-96.6333","3361","Mexico"
"Santiago Teyahualco","19.6667","-99.1333","47547","Mexico"
"Tianguistengo","20.7278","-98.6289","13478","Mexico"
"Tixkokob","21.0022","-89.3936","10968","Mexico"
"Villa Victoria","19.4333","-100.0000","77819","Mexico"
"Ciudad Guadalupe Victoria","24.4497","-104.1225","16506","Mexico"
"Jocotepec","20.1667","-103.2833","46521","Mexico"
"Santa Maria Chachoapam","17.5500","-97.3000","733","Mexico"
"Naica","27.8508","-105.4964","4938","Mexico"
"Zacualtipan","20.6500","-98.6500","25987","Mexico"
"Jalpa de Mendez","18.1764","-93.0631","83356","Mexico"
"Soledad Etla","17.1667","-96.8167","5591","Mexico"
"Naranjal","18.8122","-96.9621","4559","Mexico"
"Chimaltitan","21.7797","-103.7808","3383","Mexico"
"Santa Ines Yatzeche","16.8000","-96.7500","952","Mexico"
"Oxcum","20.9436","-89.7631","1175","Mexico"
"San Francisco Chapulapa","17.9333","-96.7500","2045","Mexico"
"San Antonio","23.8081","-110.0569","463","Mexico"
"Santiago Teotongo","17.7333","-97.5333","931","Mexico"
"Guadalupe Ramirez","17.7550","-98.1642","901","Mexico"
"Topolobampo","25.6056","-109.0500","6361","Mexico"
"San Jose de Gracia","20.6744","-102.5669","4910","Mexico"
"San Jose Independencia","18.2500","-96.6500","3867","Mexico"
"Ixtapan del Oro","19.2614","-100.2628","6349","Mexico"
"El Refugio","26.3633","-104.4514","12","Mexico"
"San Mateo Etlatongo","17.4167","-97.2667","1107","Mexico"
"Fresnillo de Trujano","17.9075","-98.1361","328","Mexico"
"Real de Catorce","23.6897","-100.8875","1392","Mexico"
"Jaltocan","21.1333","-98.5383","10265","Mexico"
"Ecatepec","19.6097","-99.0600","1656107","Mexico"
"San Cristobal Amatlan","16.3167","-96.4000","5148","Mexico"
"Pustunich","20.3678","-89.5128","2480","Mexico"
"Cuautitlan","19.6833","-99.1833","110385","Mexico"
"Huaquechula","18.7667","-98.5500","26114","Mexico"
"Acula","18.5167","-95.7833","5350","Mexico"
"Santa Catarina Loxicha","16.0667","-96.7500","3905","Mexico"
"San Pedro Molinos","17.1167","-97.5500","668","Mexico"
"Tezontepec","19.8833","-98.8167","10723","Mexico"
"Guanajuato","21.0178","-101.2567","171709","Mexico"
"San Pedro","23.9275","-110.2644","568","Mexico"
"Ejido Jalapa","32.4664","-115.1978","671","Mexico"
"Villa Aldama","19.6500","-97.2333","11760","Mexico"
"Pedro Celestino Negrete","24.7260","-102.9840","43447","Mexico"
"Jalpan","21.2167","-99.4725","22025","Mexico"
"Chihuahua","28.6353","-106.0889","878062","Mexico"
"Etchojoa","26.8667","-109.6500","56129","Mexico"
"Santa Maria Huazolotitlan","16.3014","-97.9125","11400","Mexico"
"San Pedro Totolapam","16.6667","-96.3000","2626","Mexico"
"Asuncion Cuyotepeji","17.9303","-97.6733","930","Mexico"
"Cordoba","18.8942","-96.9347","218153","Mexico"
"Fuentes del Valle","19.6325","-99.1386","74087","Mexico"
"Zacualpan","20.4333","-98.3500","7194","Mexico"
"Cerro Azul","21.2000","-97.7331","23573","Mexico"
"Esteros","22.5194","-98.1267","2132","Mexico"
"Santa Ana Chiautempan","19.3167","-98.1833","46776","Mexico"
"San Pedro Martir Yucuxaco","17.4333","-97.6167","1239","Mexico"
"Tapalapa","17.1833","-93.1000","3839","Mexico"
"Santa Cruz Tayata","17.3564","-97.5686","583","Mexico"
"Magdalena Tequisistlan","16.3992","-95.6033","6038","Mexico"
"Penamiller","21.0519","-99.8150","17007","Mexico"
"Villa Talea de Castro","17.3617","-96.2483","2279","Mexico"
"Tamazunchale","21.2667","-98.7833","72685","Mexico"
"Santiago Nejapilla","17.4333","-97.3667","202","Mexico"
"Xalatlaco","19.1811","-99.4164","26865","Mexico"
"Loche","21.3883","-88.1453","1237","Mexico"
"Dzidzantun","21.2472","-89.0417","8119","Mexico"
"Autlan de Navarro","19.7667","-104.3667","60572","Mexico"
"San Martin de los Canseco","16.6500","-96.7333","851","Mexico"
"Chiapa de Corzo","16.7083","-93.0169","45077","Mexico"
"Acanceh","20.8133","-89.4524","10968","Mexico"
"Ciudad Tula","23.0000","-99.7200","10043","Mexico"
"Ixtapan de la Sal","18.8333","-99.6833","30073","Mexico"
"San Martin Zacatepec","17.8000","-98.0667","1265","Mexico"
"San Pedro del Gallo","25.5500","-104.3000","634","Mexico"
"Santa Gertrudis","16.7833","-96.8000","2914","Mexico"
"Ciudad de Atlixco","18.9000","-98.4500","125000","Mexico"
"Heroica Ciudad de Tlaxiaco","17.2077","-97.6798","21391","Mexico"
"San Andres Huayapam","17.1000","-96.6667","5336","Mexico"
"San Luis Soyatlan","20.1976","-103.3064","3097","Mexico"
"Las Norias de Ojo Caliente","21.8893","-102.2160","3741","Mexico"
"Santiago","23.4819","-109.7183","752","Mexico"
"Santo Tomas Jalieza","16.8447","-96.6706","3617","Mexico"
"Yaxcaba","20.5481","-88.8272","3007","Mexico"
"Canelas","25.1000","-106.5667","734","Mexico"
"Landero y Coss","19.7333","-96.8500","1534","Mexico"
"Santa Ana Yaremi","17.3833","-96.6167","918","Mexico"
"Xpujil","18.5056","-89.3972","3984","Mexico"
"San Juan de Guadalupe","24.6167","-102.7667","1712","Mexico"
"El Tule","27.0333","-106.3000","1869","Mexico"
"San Carlos Yautepec","16.5000","-96.1000","12101","Mexico"
"Santiago Maravatio","20.1667","-101.0000","6670","Mexico"
"Santo Domingo Tomaltepec","17.0667","-96.6167","2988","Mexico"
"Santiago Tepextla","16.3410","-98.4475","3208","Mexico"
"Maravilla Tenejapa","16.1333","-91.2833","12945","Mexico"
"Paso de la Reina","16.2505","-97.5965","519","Mexico"
"X-Can","20.8583","-87.6681","5191","Mexico"
"Ex-Hacienda Delicias","28.1861","-105.5289","774","Mexico"
"Guadalajara","20.6767","-103.3475","5253000","Mexico"
"Tecamac","19.7131","-98.9683","364579","Mexico"
"Hunkanab","20.9639","-89.8569","466","Mexico"
"Santiago Astata","15.9833","-95.6667","3708","Mexico"
"Santa Isabel","32.6314","-115.5756","33604","Mexico"
"San Pedro Huilotepec","16.2500","-95.1500","3146","Mexico"
"Acuitzio del Canje","19.5000","-101.3333","11425","Mexico"
"Zipolite","15.6621","-96.5117","931","Mexico"
"Abasolo","20.4511","-101.5289","27389","Mexico"
"Coneto de Comonfort","24.9833","-104.9333","858","Mexico"
"Mazapa","15.3833","-92.1833","7769","Mexico"
"Tlapanaloya","19.9358","-99.1019","6466","Mexico"
"Tultepec","19.6850","-99.1281","91808","Mexico"
"Santa Maria Yosoyua","17.1167","-97.5000","1514","Mexico"
"Acapulco de Juarez","16.8636","-99.8825","687608","Mexico"
"Cihuatlan","19.2500","-104.5667","30241","Mexico"
"San Jose de Gracia","22.1500","-102.4167","8896","Mexico"
"Ocosingo","16.9072","-92.0961","41878","Mexico"
"San Sebastian Rio Hondo","16.1667","-96.4500","3587","Mexico"
"Cuilapan de Guerrero","16.9972","-96.7817","21597","Mexico"
"Tepatlan","20.1000","-97.8167","3838","Mexico"
"Hostotipaquillo","21.0588","-104.0508","9761","Mexico"
"Nicolas Bravo","29.3517","-107.9339","1862","Mexico"
"San Francisco Grande","20.6994","-88.4725","1603","Mexico"
"Noria de Paso Hondo","21.8578","-102.2060","2539","Mexico"
"Tixmehuac","20.2353","-89.1083","2392","Mexico"
"Comitan","16.2511","-92.1342","170000","Mexico"
"Lagos de Moreno","21.3564","-101.9292","164981","Mexico"
"Creel","27.7522","-107.6347","5026","Mexico"
"San Juan Yatzona","17.4000","-96.1667","474","Mexico"
"Citlaltepec","21.3435","-97.8920","12109","Mexico"
"Izucar de Matamoros","18.6000","-98.4667","41042","Mexico"
"Poza Rica de Hidalgo","20.5333","-97.4500","200119","Mexico"
"San Mateo Sindihui","17.0000","-97.3500","2019","Mexico"
"Las Veredas","23.1500","-109.7000","10478","Mexico"
"Santa Maria Zoquitlan","16.5500","-96.3833","2939","Mexico"
"Santa Cecilia","25.4750","-103.3569","4061","Mexico"
"Morelos","26.6708","-107.6775","813","Mexico"
"Rodeo","25.1833","-104.0667","4666","Mexico"
"Buenavista","19.6083","-99.1694","206081","Mexico"
"Yaganiza","17.1333","-96.2333","1063","Mexico"
"San Pedro Chacabal","21.1347","-89.1917","765","Mexico"
"Zacatelco","19.2167","-98.2333","38466","Mexico"
"Tlaxcoapan","20.0953","-99.2200","26758","Mexico"
"Melchor Ocampo","19.7083","-99.1444","37706","Mexico"
"Santa Cruz Mixtepec","16.8000","-96.8667","3425","Mexico"
"Texan Palomeque","20.9325","-89.8294","3264","Mexico"
"Acala","16.5533","-92.8069","13889","Mexico"
"San Pedro Ixcatlan","18.1500","-96.5000","11653","Mexico"
"Ciudad Lopez Mateos","19.5500","-99.2833","489937","Mexico"
"Santiago del Rio","17.4484","-98.0911","518","Mexico"
"Ciudad Insurgentes","25.2617","-111.7744","11503","Mexico"
"San Jacinto","20.3590","-103.9330","227","Mexico"
"Valentin Gomez Farias","28.2269","-106.5936","106","Mexico"
"Buctzotz","21.2017","-88.7928","7515","Mexico"
"Yaxcopoil","20.8207","-89.7421","1149","Mexico"
"Tepango","20.0028","-97.7969","3947","Mexico"
"Jalcomulco","19.3333","-96.7667","5006","Mexico"
"Cerro Moneda","17.0125","-95.9192","546","Mexico"
"Portezuelo","20.4876","-99.3068","1834","Mexico"
"Villa Hidalgo","21.6667","-102.6000","20257","Mexico"
"Uayma","20.7333","-88.3167","3126","Mexico"
"Zapotlan de Juarez","19.9667","-98.8500","16493","Mexico"
"Santo Domingo del Estado","17.1558","-97.8472","927","Mexico"
"Jerez de Garcia Salinas","22.6481","-102.9903","57610","Mexico"
"San Pablo de las Salinas","19.6656","-99.0917","189453","Mexico"
"Tzucacab","20.0708","-89.0506","9967","Mexico"
"Zihuatanejo","17.6444","-101.5511","104609","Mexico"
"Pabellon de Hidalgo","22.1744","-102.3411","4316","Mexico"
"Cabo San Lucas","22.8897","-109.9156","81111","Mexico"
"Ocampo","28.1933","-108.3667","527","Mexico"
"Minatitlan","17.9833","-94.5500","356020","Mexico"
"Ciudad Madero","22.2500","-97.8333","209175","Mexico"
"Jaltenango","15.8725","-92.7250","10427","Mexico"
"Atlautla","19.0000","-98.7167","27663","Mexico"
"Sudzal","20.8697","-88.9883","1261","Mexico"
"Choyab","20.5325","-89.7011","89","Mexico"
"Teziutlan","19.8178","-97.3667","92170","Mexico"
"Santa Catarina Otzolotepec","18.5667","-97.2500","67611","Mexico"
"Tototlan","20.5333","-102.7833","23171","Mexico"
"Santiago Altitlan","17.1000","-95.9500","2920","Mexico"
"Mineral del Monte","20.1333","-98.6667","11944","Mexico"
"Kikil","21.2075","-88.1683","173","Mexico"
"Todos Santos","23.4486","-110.2233","6485","Mexico"
"Badiraguato","25.3631","-107.5517","3725","Mexico"
"Chacmay","21.0500","-88.8917","452","Mexico"
"Miramar","22.3375","-97.8694","118614","Mexico"
"Ticul","20.3953","-89.5339","32796","Mexico"
"Cuautepec de Hinojosa","20.1500","-98.4333","45527","Mexico"
"San Luis del Cordero","25.4167","-104.2667","1584","Mexico"
"Zimatlan de Alvarez","16.8667","-96.7833","19849","Mexico"
"Tetela del Volcan","18.8931","-98.7297","10199","Mexico"
"Mesa del Cobre","20.3500","-104.0167","89","Mexico"
"Paracho de Verduzco","19.6500","-102.0667","37464","Mexico"
"Paso del Correo","20.4478","-97.3200","1240","Mexico"
"Tijuana","32.5250","-117.0333","2384609","Mexico"
"Granados","29.8667","-109.2833","938","Mexico"
"San Felipe","21.4833","-101.2167","106952","Mexico"
"Santa Ana del Valle","16.9931","-96.4714","2067","Mexico"
"Aldama","22.9194","-98.0736","13661","Mexico"
"Huandacareo","19.9906","-101.2750","11592","Mexico"
"Santa Maria Sola","16.5667","-97.0000","1471","Mexico"
"San Miguel del Puerto","15.9167","-96.1667","8362","Mexico"
"San Julian","21.0167","-102.1667","15890","Mexico"
"Ocuilan de Arteaga","19.0000","-99.4000","26332","Mexico"
"Jiquilpan de Juarez","19.9942","-102.7172","65000","Mexico"
"Tepeyahualco","18.8162","-97.8777","3534","Mexico"
"Mahicab","20.9808","-88.3839","1","Mexico"
"Tula de Allende","20.0500","-99.3500","103919","Mexico"
"Nueva Ciudad Guerrero","26.5661","-99.2272","4477","Mexico"
"Hueyapan de Ocampo","18.1500","-95.1500","43309","Mexico"
"Atenguillo","20.3706","-104.5125","3899","Mexico"
"Santiago Xiacui","17.3000","-96.4500","1736","Mexico"
"Salvatierra","20.2156","-100.8961","34066","Mexico"
"Puertecitos","30.3506","-114.6389","41","Mexico"
"Rayon","19.1481","-99.5800","8590","Mexico"
"Loma Blanca","31.5797","-106.2989","2169","Mexico"
"San Patricio","19.2000","-104.6833","7569","Mexico"
"Chiconamel","21.2333","-98.4500","1517","Mexico"
"Yobain","21.2325","-89.1167","1820","Mexico"
"Altamirano","30.3550","-108.4956","255","Mexico"
"San Antonio Enchisi","19.7072","-99.7867","110560","Mexico"
"San Juan Coatzospam","18.0500","-96.7500","1808","Mexico"
"San Jose Estancia Grande","16.3667","-98.2500","1059","Mexico"
"Concepcion Papalo","17.8421","-96.8816","2934","Mexico"
"Moroleon","20.1333","-101.2000","41909","Mexico"
"Santa Catarina Juquila","16.2364","-97.2919","15987","Mexico"
"Estacion Conchos","27.9767","-105.2872","1670","Mexico"
"Hunucma","21.0153","-89.8744","24910","Mexico"
"El Salto","23.7823","-105.3585","24241","Mexico"
"San Andres Yutatio","17.6078","-97.8942","695","Mexico"
"Santa Ana Ateixtlahuaca","18.2097","-96.9058","516","Mexico"
"San Juan Ixcaquixtla","18.4500","-97.8167","8752","Mexico"
"Tochimiltzingo","18.8000","-98.3167","1198","Mexico"
"San Dionisio del Mar","16.3217","-94.7569","5127","Mexico"
"Acatlan","20.1444","-98.4383","17914","Mexico"
"Santiago Xanica","16.0000","-96.2333","3101","Mexico"
"Tecolutla","20.4797","-97.0100","24258","Mexico"
"Apatzingan de la Constitucion","19.0886","-102.3508","128250","Mexico"
"La Huacana","18.9625","-101.8069","9374","Mexico"
"Ahualulco de Mercado","20.6992","-103.9556","23362","Mexico"
"Santiago Camotlan","17.4500","-96.1833","3082","Mexico"
"Colotepec","17.0411","-99.2128","2808","Mexico"
"Alvaro Obregon","18.2942","-88.6558","2869","Mexico"
"San Jeronimo Acazulco","19.2667","-99.4167","4827","Mexico"
"Comonfort","20.7167","-100.7667","67642","Mexico"
"Oxkutzkab","20.3028","-89.4183","23096","Mexico"
"Soto","28.2994","-106.1339","177","Mexico"
"Ayahualtempa","17.4578","-99.0372","837","Mexico"
"San Andres Dinicuiti","17.6833","-97.7333","2112","Mexico"
"Celestun","20.8583","-90.4000","6269","Mexico"
"Zacatepec","18.6833","-99.1833","36159","Mexico"
"Palau","27.9167","-101.4167","16133","Mexico"
"Xanaguia","16.0901","-96.2442","748","Mexico"
"Francisco I. Madero","22.6500","-104.2833","4550","Mexico"
"Monjas","16.3667","-96.6333","2722","Mexico"
"Xocchel","20.8333","-89.1833","3229","Mexico"
"Ocampo","21.6500","-101.5000","23500","Mexico"
"San Salvador El Seco","19.1333","-97.6500","30303","Mexico"
"Encarnacion de Diaz","21.5167","-102.2333","53555","Mexico"
"Santiago Huajolotitlan","17.8256","-97.7314","4083","Mexico"
"Tancitaro","19.3378","-102.3630","31100","Mexico"
"Santo Tomas Ocotepec","17.1500","-97.7500","3705","Mexico"
"Tlalnepantla","19.5367","-99.1947","750224","Mexico"
"Santo Domingo Yanhuitlan","17.5167","-97.3333","1503","Mexico"
"Ciudad de Huitzuco","18.3000","-99.3500","16025","Mexico"
"Tizayuca","19.8333","-98.9833","100563","Mexico"
"Zacualpan","18.7197","-99.7800","13800","Mexico"
"General Cepeda","25.3790","-101.4790","4382","Mexico"
"El Arenal","20.2167","-98.9167","15037","Mexico"
"Apango","17.7414","-99.3281","3981","Mexico"
"Tepezala","22.2167","-102.1667","20926","Mexico"
"Tecuanipan","19.0167","-98.4000","6265","Mexico"
"San Gabriel Mixtepec","16.0828","-97.1000","4836","Mexico"
"Amatlan de Canas","20.8000","-104.4000","3275","Mexico"
"Santiago Tilantongo","17.2500","-97.2833","2956","Mexico"
"Xalisco","21.4481","-104.9000","21899","Mexico"
"Tekal de Venegas","21.0125","-88.9478","2562","Mexico"
"Trinidad Zaachila","16.9167","-96.8000","3032","Mexico"
"Martires de Tacubaya","16.5333","-98.2500","1424","Mexico"
"Singuilucan","19.9675","-98.5178","13143","Mexico"
"Capulhuac","19.2000","-99.4667","30838","Mexico"
"Chocaman","19.0167","-97.0333","21102","Mexico"
"Colonia General Felipe Angeles","23.9167","-104.6000","20511","Mexico"
"Tlaltenango de Sanchez Roman","21.7815","-103.3059","58560","Mexico"
"San Antonino Castillo Velasco","16.8031","-96.6839","6009","Mexico"
"Tanetze de Zaragoza","17.3667","-96.3000","1707","Mexico"
"Cajonos","17.1667","-96.2833","1089","Mexico"
"Magdalena","20.9092","-103.9803","22643","Mexico"
"Huejotitan","27.0667","-106.2000","345","Mexico"
"Reynosa","26.0922","-98.2778","725793","Mexico"
"Huachinera","30.2000","-108.9500","1147","Mexico"
"Matamoros","25.5330","-103.2500","48511","Mexico"
"San Andres Duraznal","17.1333","-92.8083","2987","Mexico"
"Santiago Textitlan","16.7028","-97.2806","4170","Mexico"
"Kantunil","20.7958","-89.0347","3491","Mexico"
"Rodeo de San Antonio","20.3122","-101.5050","1596","Mexico"
"San Agustin Atenango","17.6000","-98.0167","1760","Mexico"
"Valle de Santiago","20.3928","-101.1969","141058","Mexico"
"San Cristobal Amoltepec","17.2833","-97.5667","1004","Mexico"
"Garcia","25.8167","-100.5833","145867","Mexico"
"Villagran","20.5170","-100.9830","45941","Mexico"
"Santa Maria Jaltianguis","17.3667","-96.5333","499","Mexico"
"El Walamo","23.1375","-106.2467","3085","Mexico"
"Macuspana","17.7667","-92.6000","30661","Mexico"
"Timul","21.1922","-89.3931","943","Mexico"
"San Pedro Ocopetatillo","18.2000","-96.9167","790","Mexico"
"Hecelchakan","20.1667","-90.1333","10285","Mexico"
"Bokoba","21.0064","-89.1794","2052","Mexico"
"Huehuetla","20.1039","-97.6251","18803","Mexico"
"Jimenez","27.1300","-104.9067","34281","Mexico"
"Diaz","31.1667","-108.0000","1000","Mexico"
"San Juan Teposcolula","17.5506","-97.4256","1228","Mexico"
"Fresnillo","23.1750","-102.8675","110892","Mexico"
"Santiago Nuyoo","17.0167","-97.7667","1820","Mexico"
"Solosuchiapa","17.4000","-93.0167","8082","Mexico"
"Mecatlan","20.2135","-97.6574","12332","Mexico"
"Gomez Farias","23.0461","-99.1542","883","Mexico"
"Huiloapan","18.8167","-97.1500","7221","Mexico"
"Tonala","16.0894","-93.7514","35322","Mexico"
"San Miguel Coatlan","16.2000","-96.7000","3178","Mexico"
"San Andres Cabecera Nueva","16.8833","-97.6833","2819","Mexico"
"La Ventana","24.0503","-109.9889","255","Mexico"
"Angel R. Cabada","18.5969","-95.4453","11689","Mexico"
"Urique","27.2167","-107.9167","1102","Mexico"
"Santo Domingo Armenta","16.3167","-98.3667","3469","Mexico"
"Misantla","19.9333","-96.8500","64249","Mexico"
"San Nicolas de los Garza","25.7500","-100.2833","476761","Mexico"
"Santiago","18.4500","-95.8333","5790","Mexico"
"Tahmek","20.8742","-89.2561","3493","Mexico"
"Temoris","27.2667","-108.2500","2053","Mexico"
"Coatepec","19.4553","-96.9586","92127","Mexico"
"Los Angeles Tetela","18.8912","-98.1684","2237","Mexico"
"Santa Maria Alotepec","17.0833","-95.8500","2766","Mexico"
"Tatatila","19.7000","-97.1167","5767","Mexico"
"Benito Juarez","26.8667","-105.2167","1671","Mexico"
"Campo El Aguajito","25.2667","-107.4500","100","Mexico"
"Colonia Alvaro Obregon","28.7469","-106.9089","2241","Mexico"
"Timucuy","20.8106","-89.5133","3872","Mexico"
"Santo Domingo de Morelos","15.8330","-96.6681","1620","Mexico"
"San Juan de Sabinas","27.9167","-101.3000","63522","Mexico"
"Apaseo el Alto","20.4500","-100.6167","64443","Mexico"
"Mexicali","32.6633","-115.4678","1102342","Mexico"
"Chan-Kom","20.5681","-88.5133","685","Mexico"
"Jose Maria Morelos","19.7500","-88.7000","11750","Mexico"
"Zapotitlan Palmas","17.8889","-97.8178","1431","Mexico"
"Santos Reyes Tepejillo","17.4333","-97.9333","980","Mexico"
"Chilpancingo","17.5500","-99.5000","187251","Mexico"
"Heroica Matamoros","25.8797","-97.5042","520367","Mexico"
"Xochiatipan de Castillo","20.8333","-98.2850","18157","Mexico"
"La Gloria","19.3981","-97.2812","2243","Mexico"
"San Baltazar Chichicapam","16.7667","-96.4833","2494","Mexico"
"San Miguel Mixtepec","16.7833","-96.9833","2644","Mexico"
"Tlacotalpan","18.6167","-95.6667","8853","Mexico"
"Santa Maria Lachixio","16.7167","-97.0167","1844","Mexico"
"Cantamayec","20.4675","-89.0800","1695","Mexico"
"Santa Cruz Tacahua","16.9333","-97.5000","1116","Mexico"
"San Ildefonso Amatlan","16.3333","-96.4833","2407","Mexico"
"Acatzingo","18.9817","-97.7822","52078","Mexico"
"Santo Domingo Nuxaa","17.2167","-97.1167","3124","Mexico"
"Santa Maria Petapa","16.8167","-95.1167","16518","Mexico"
"San Fernando","24.8504","-98.1600","29171","Mexico"
"Tenabo","20.0333","-90.2167","7543","Mexico"
"Abasolo","24.0559","-98.3733","11862","Mexico"
"Tempoal de Sanchez","21.5167","-98.3833","12237","Mexico"
"Panuco","22.0500","-98.1833","33122","Mexico"
"Filomeno Mata","20.2000","-97.7000","18367","Mexico"
"Tecax","20.2019","-89.2881","50.789","Mexico"
"Chapab","20.4583","-89.4583","2141","Mexico"
"La Moncada","20.2667","-100.8000","5100","Mexico"
"Mineral de Pozos","21.2219","-100.4956","2629","Mexico"
"Meoqui","28.2722","-105.4819","22574","Mexico"
"San Juan de los Planes","23.9674","-109.9355","902","Mexico"
"Tuxpan de Bolanos","21.8750","-104.0130","1269","Mexico"
"Santa Maria Guenagati","16.7333","-95.3500","3168","Mexico"
"San Juanito","27.9700","-107.6003","10535","Mexico"
"Naco","31.3269","-109.9478","6401","Mexico"
"El Fuerte","26.4214","-108.6200","12566","Mexico"
"Teya","21.0489","-89.0733","1975","Mexico"
"Cuautitlan Izcalli","19.6500","-99.2500","511675","Mexico"
"Tomochic","28.3475","-107.8461","2818","Mexico"
"Ramos Arizpe","25.5500","-100.9667","48228","Mexico"
"San Miguel Peras","16.9372","-97.0103","3287","Mexico"
"Magdalena Jaltepec","17.3167","-97.2167","3149","Mexico"
"Ciudad Sabinas Hidalgo","26.5000","-100.1833","32047","Mexico"
"Ocampo","22.8444","-99.3358","5095","Mexico"
"Francisco Leon","17.3167","-93.2500","7430","Mexico"
"Venustiano Carranza","20.1158","-102.6542","24708","Mexico"
"San Pedro Yeloixtlahuacan","18.1217","-98.1100","3320","Mexico"
"Tihosuco","20.1958","-88.3736","4994","Mexico"
"San Jose Villa de Allende","19.3747","-100.1475","52641","Mexico"
"Cuzama","20.7420","-89.3163","3721","Mexico"
"Santiago Tenango","17.3167","-97.0000","1995","Mexico"
"Galeana","24.8333","-100.0667","38930","Mexico"
"Xico","19.4170","-97.0000","38198","Mexico"
"La Pe","16.6333","-96.8000","2632","Mexico"
"Dzonot Carretero","21.4019","-87.8775","2184","Mexico"
"Guerrero","28.5478","-107.4856","7751","Mexico"
"Alfajayucan","20.4000","-99.3500","16859","Mexico"
"San Antonio Chel","20.9961","-89.8142","220","Mexico"
"San Felipe Tejalapan","17.1111","-96.8542","7862","Mexico"
"San Juan de Allende","27.0056","-105.2839","287","Mexico"
"La Palmita","25.9295","-99.3031","25","Mexico"
"Castanos","26.7833","-101.4167","22401","Mexico"
"Los Mazos","19.5700","-103.5000","190","Mexico"
"San Quintin","30.5603","-115.9425","4777","Mexico"
"San Quintin","30.4837","-115.9500","5433","Mexico"
"Teocuitatlan de Corona","20.0918","-103.3785","10317","Mexico"
"Nuevo Lajitas","29.1428","-103.7683","46","Mexico"
"Santiago Nacaltepec","17.5167","-96.9333","1785","Mexico"
"Tlaxcalantongo","20.3150","-97.8728","1885","Mexico"
"Cueramaro","20.6258","-101.6739","25610","Mexico"
"La Mision","21.1000","-99.1333","10096","Mexico"
"Aldama","28.8386","-105.9111","24761","Mexico"
"San Francisco Lachigolo","17.0000","-96.6000","3854","Mexico"
"Morelos","27.4667","-99.6497","96","Mexico"
"Acambay","19.9539","-99.8431","56847","Mexico"
"Cuitzeo del Porvenir","19.9686","-101.1394","28227","Mexico"
"Tacambaro de Codallos","19.2356","-101.4569","76661","Mexico"
"Las Coloradas","21.6081","-87.9839","1151","Mexico"
"San Mateo Pinas","16.0000","-96.3333","2084","Mexico"
"Soteapan","18.2333","-94.8667","35155","Mexico"
"Cuatro Cienegas de Carranza","26.9861","-102.0664","10309","Mexico"
"Temascalapa","19.8000","-98.9000","33063","Mexico"
"Guadalupe","22.7528","-102.5078","215000","Mexico"
"Asuncion Tlacolulita","16.3000","-95.7167","758","Mexico"
"Abasolo","27.1833","-101.4167","1130","Mexico"
"Matamoros","26.7625","-105.5847","2615","Mexico"
"Tlahuiltepa","20.9233","-98.9497","9264","Mexico"
"Texcatepec","20.5833","-98.3667","10934","Mexico"
"San Antonio Acutla","17.7333","-97.5000","249","Mexico"
"San Juan Ihualtepec","17.6667","-98.2833","580","Mexico"
"Xochistlahuaca","16.7914","-98.2419","28089","Mexico"
"Imuris","30.7667","-110.8333","9921","Mexico"
"Perote","19.5620","-97.2420","37516","Mexico"
"Tlalnelhuayocan","19.5667","-96.9667","18715","Mexico"
"San Francisco","20.5333","-102.5000","5167","Mexico"
"Santo Domingo Tehuantepec","16.3184","-95.2478","64639","Mexico"
"Yajalon","17.1852","-92.3272","37833","Mexico"
"Arteaga","25.4453","-100.8467","8446","Mexico"
"Jilotepec","19.9519","-99.5328","100808","Mexico"
"Ojuelos de Jalisco","21.8642","-101.5933","11881","Mexico"
"Jimenez","29.0697","-100.6750","1160","Mexico"
"La Union","17.9667","-101.8167","3079","Mexico"
"Parras de la Fuente","25.4403","-102.1792","45423","Mexico"
"San Juan Guichicovi","16.9667","-95.0833","27646","Mexico"
"San Agustin Chayuco","16.4000","-97.8000","4099","Mexico"
"Teotlaltzingo","19.2322","-98.5017","10456","Mexico"
"Temascal","18.2394","-96.4031","6566","Mexico"
"Huixcolotla","18.9219","-97.7708","14810","Mexico"
"San Jeronimo Tecoatl","18.1667","-96.9167","1590","Mexico"
"Lopez","27.0000","-105.0333","2184","Mexico"
"Ayoquezco de Aldama","16.6833","-96.7833","4418","Mexico"
"San Juan la Cienega","17.8500","-98.2833","547","Mexico"
"Sahcaba","20.7911","-89.1814","1922","Mexico"
"Elota","23.9694","-106.7117","784","Mexico"
"San Juan Evangelista","17.8833","-95.1333","33929","Mexico"
"Ciudad Constitucion","25.0322","-111.6703","45888","Mexico"
"Jocotitlan","19.7072","-99.7867","55403","Mexico"
"San Mateo Tlapiltepec","17.8000","-97.4167","224","Mexico"
"Nuevo Mexico","20.7500","-103.4330","42246","Mexico"
"Sanata Lucia","19.7481","-98.9825","3639","Mexico"
"Tlacolula de Matamoros","16.9542","-96.4792","22545","Mexico"
"Nativitas","17.6667","-97.3333","585","Mexico"
"Almoloya de Alquisiras","18.8500","-99.8500","14196","Mexico"
"Chapultenango","17.3333","-93.1333","7644","Mexico"
"Santo Tomas Tamazulapam","16.2667","-96.5833","2132","Mexico"
"Coycoyan de las Flores","17.2713","-98.2741","9936","Mexico"
"Tlalmanalco","19.2044","-98.8025","46130","Mexico"
"Carlos A. Carrillo","18.3667","-95.7500","24565","Mexico"
"Miahuatlan","18.5667","-97.4333","25228","Mexico"
"Miahuatlan","18.2833","-97.2833","13159","Mexico"
"Teoloyucan","19.7442","-99.1811","63115","Mexico"
"Tlalixcoyan","18.8031","-96.0611","37857","Mexico"
"Tequisquiapan","20.5206","-99.8958","54929","Mexico"
"Chiauzingo","17.7419","-98.6972","1331","Mexico"
"Santa Cruz Itundujia","16.8667","-97.6500","11616","Mexico"
"Soyaniquilpan","19.9892","-99.4361","10719","Mexico"
"Iturbide","24.7253","-99.9000","1896","Mexico"
"San Antonio Tepetlapa","16.5333","-98.0667","4245","Mexico"
"Moris","28.1492","-108.5194","1799","Mexico"
"Tlacote el Alto","20.6833","-100.5333","518","Mexico"
"Yucuyachi","17.6167","-98.2000","936","Mexico"
"Tlajomulco de Zuniga","20.4736","-103.4431","727750","Mexico"
"Santa Maria del Tule","17.0465","-96.6363","8918","Mexico"
"Degollado","20.4667","-102.1500","21226","Mexico"
"Ayotzintepec","17.6667","-96.1333","7102","Mexico"
"Cuautitlan","19.4333","-104.3000","18138","Mexico"
"Zinacantan","16.7597","-92.7222","36489","Mexico"
"Loreto","22.2667","-101.9833","43411","Mexico"
"Cuichapa","18.7667","-96.8667","12238","Mexico"
"Santa Barbara","26.8133","-105.8203","8765","Mexico"
"Cuautla","18.8167","-98.9500","175208","Mexico"
"Santo Domingo Ozolotepec","16.1500","-96.3167","870","Mexico"
"Santa Maria Texmelucan","19.2833","-98.4333","135500","Mexico"
"Santa Cruz Zenzontepec","16.5333","-97.5000","18512","Mexico"
"Mapastepec","15.4198","-92.9492","47932","Mexico"
"San Miguel Achiutla","17.3000","-97.4833","712","Mexico"
"Santiago Tetepec","16.3333","-97.7500","4994","Mexico"
"La Cruz","27.5733","-99.5958","159","Mexico"
"San Dionisio Ocotlan","16.7500","-96.6833","1077","Mexico"
"Apozol","21.4667","-103.0833","5000","Mexico"
"San Isidro Ochil","20.6361","-89.3422","965","Mexico"
"El Barrio de la Soledad","16.8000","-95.1167","14277","Mexico"
"La Paz","28.2047","-106.4714","677","Mexico"
"Los Guerrero","20.4333","-103.8833","674","Mexico"
"Tejupilco","18.9058","-100.1528","71077","Mexico"
"Pineda","18.1667","-100.7500","842","Mexico"
"Yepachic","28.4219","-108.3775","750","Mexico"
"Huatabampo","26.8304","-109.6300","30426","Mexico"
"Tahdziu","20.2022","-88.9431","3742","Mexico"
"Kochol","20.6200","-90.1594","1560","Mexico"
"Las Chinacas","27.2428","-108.6472","308","Mexico"
"Soledad de Graciano Sanchez","22.1833","-100.9333","215968","Mexico"
"Santa Maria Ozolotepec","16.1333","-96.3500","3894","Mexico"
"Cholula de Rivadabia","19.0633","-98.3064","193554","Mexico"
"Gomez Palacio","25.5611","-103.4983","327985","Mexico"
"Popolnah","20.9933","-87.5642","3276","Mexico"
"Ocampo","27.3139","-102.3972","3679","Mexico"
"San Agustin de las Juntas","17.0000","-96.7167","9342","Mexico"
"Cienega de Zimatlan","16.8833","-96.7667","2953","Mexico"
"Tepakan","21.0486","-89.0389","2064","Mexico"
"Emilio Portes Gil","19.3068","-97.5113","2985","Mexico"
"Valle de Guadalupe","21.0000","-102.6167","6924","Mexico"
"San Andres Sinaxtla","17.4667","-97.2833","716","Mexico"
"San Andres Solaga","17.2667","-96.2333","1671","Mexico"
"Los Mochis","25.7835","-108.9937","256613","Mexico"
"San Felipe del Progreso","19.7125","-99.9511","100201","Mexico"
"Cadereyta","20.7000","-99.8167","13347","Mexico"
"San Francisco del Mar","16.3394","-94.5150","7650","Mexico"
"Gonzalez","22.8281","-98.4306","11212","Mexico"
"San Pablo Cuatro Venados","17.0000","-96.9000","1411","Mexico"
"Heroica Caborca","30.7167","-112.1500","59922","Mexico"
"San Francisco del Rincon","21.0228","-101.8600","113570","Mexico"
"San Marcos","20.7833","-104.1833","3783","Mexico"
"Matehuala","23.6528","-100.6444","67717","Mexico"
"San Rafael","27.4886","-107.8881","2160","Mexico"
"Tapachula","14.9000","-92.2667","320451","Mexico"
"Ciudad Cuauhtemoc","15.6669","-92.0042","2325","Mexico"
"Ignacio de la Llave","18.6618","-95.9721","17105","Mexico"
"Santa Maria Penoles","17.0778","-97.0014","646","Mexico"
"Santa Maria Camotlan","17.9000","-97.6833","1568","Mexico"
"Trapiche de Labra","20.5390","-103.8200","1115","Mexico"
"Samalayuca","31.3414","-106.4783","1474","Mexico"
"Santa Maria del Rosario","17.3517","-97.5936","482","Mexico"
"Valle del Rosario","27.3167","-106.3000","263","Mexico"
"Juchitan","16.6256","-98.6353","2944","Mexico"
"Momax","21.9333","-103.3167","1626","Mexico"
"Calnali","20.9000","-98.5833","17163","Mexico"
"Empalme","27.9617","-110.8125","42516","Mexico"
"Lototla","20.8392","-98.7178","9541","Mexico"
"Hueypoxtla","19.9000","-99.0833","3989","Mexico"
"Tamiahua","21.2794","-97.4469","23120","Mexico"
"Yahualica","20.9531","-98.3800","22228","Mexico"
"Namurachi","27.3739","-107.8850","4","Mexico"
"Santiago Amoltepec","16.6167","-97.5000","12683","Mexico"
"Nurio","19.6554","-102.1305","4299","Mexico"
"Porvenir","31.2394","-105.8753","1253","Mexico"
"Ciudad Victoria","23.7333","-99.1333","305155","Mexico"
"Sayula de Aleman","17.8833","-94.9500","32721","Mexico"
"Santa Catarina Tlaltempan","18.6171","-98.0796","756","Mexico"
"San Bernardo","25.9833","-105.5500","700","Mexico"
"Magdalena de Kino","30.6167","-111.0500","23359","Mexico"
"Puerto Angel","15.6667","-96.4906","2440","Mexico"
"Oaxaca","17.0833","-96.7500","300050","Mexico"
"Ojitos","24.3090","-103.3456","1800","Mexico"
"San Lorenzo Cuaunecuiltitla","18.2000","-96.9000","807","Mexico"
"Zinaparo","20.1667","-102.0000","3200","Mexico"
"Rodolfo Sanchez Taboada","31.7958","-116.5911","15038","Mexico"
"Golfo de Santa Clara","31.6867","-114.5000","3967","Mexico"
"Ciudad Cerralvo","26.0899","-99.6147","7169","Mexico"
"Malinalco","18.9483","-99.4947","22970","Mexico"
"Coatecas Altas","16.5392","-96.6689","4823","Mexico"
"Kaxatah","21.0950","-89.2539","982","Mexico"
"Valle de Zaragoza","27.4572","-105.8108","2223","Mexico"
"Coixtlahuaca","17.7167","-97.3167","2687","Mexico"
"Vicente Guerrero","23.7500","-103.9833","15982","Mexico"
"Potrero del Llano","29.2122","-104.4433","120","Mexico"
"Chilcuautla","20.3333","-99.2333","15284","Mexico"
"Teteles de Avila Castillo","19.8500","-97.4500","5869","Mexico"
"San Felipe","31.0275","-114.8353","19204","Mexico"
"Chachahuantla","20.2756","-98.1503","20619","Mexico"
"Tlacolula","20.0000","-97.0000","23865","Mexico"
"Zumpango","19.7969","-99.0992","50742","Mexico"
"Calvillo","21.8500","-102.7167","19742","Mexico"
"Nicolas Romero","19.5833","-99.3667","366602","Mexico"
"Xocempich","20.7708","-88.5722","611","Mexico"
"Santiago Tuxtla","18.4654","-95.3000","57466","Mexico"
"Teojomulco","16.6000","-97.2333","5093","Mexico"
"San Antonio de los Morales","20.5815","-100.9095","1808","Mexico"
"Camaron de Tejeda","19.0167","-96.6167","2019","Mexico"
"San Mateo Penasco","17.1500","-97.5333","2062","Mexico"
"Yucuita","17.5000","-97.2667","567","Mexico"
"Tataltepec de Valdes","16.3064","-97.5461","8869","Mexico"
"Angostura","25.3653","-108.1622","5086","Mexico"
"Tomatlan","19.9333","-105.2333","35824","Mexico"
"Santiago de Anaya","20.3844","-98.9647","14066","Mexico"
"Santiago Papasquiaro","25.0439","-105.4192","26121","Mexico"
"San Juan Atzompa","18.7575","-98.0236","856","Mexico"
"Cruz de Juanacaxtle","20.7489","-105.3822","1621","Mexico"
"Tekat","21.0958","-89.4722","579","Mexico"
"San Juan Zitlaltepec","19.7167","-99.0500","19600","Mexico"
"Tinguindin","19.7333","-102.4830","14532","Mexico"
"San Jose Tenango","18.1500","-96.7333","18316","Mexico"
"Santa Maria Ajoloapan","19.9692","-99.0353","9185","Mexico"
"Tlaxcala","19.3191","-98.1998","14692","Mexico"
"Santa Barbara","21.5383","-101.3775","2058","Mexico"
"San Agustinillo","15.6667","-96.5500","229","Mexico"
"San Pedro Taviche","16.6364","-96.5372","1208","Mexico"
"Lerma","19.2847","-99.5119","105578","Mexico"
"La Cruz","23.9214","-106.8919","15657","Mexico"
"Bacalar","18.6769","-88.3953","11084","Mexico"
"Coyame","29.4614","-105.0972","709","Mexico"
"Calabacillas","23.2178","-99.7350","792","Mexico"
"San Pedro Jicayan","16.4167","-97.9833","12387","Mexico"
"Santo Tomas de los Platanos","19.1817","-100.2589","8888","Mexico"
"Tlaltetela","19.3167","-96.9000","15818","Mexico"
"Cansahcab","21.1572","-89.1019","4580","Mexico"
"Chalma","18.9322","-99.4358","1701","Mexico"
"Temascaltepec de Gonzalez","19.0433","-100.0414","30336","Mexico"
"Nacuche","20.9228","-88.2958","1130","Mexico"
"Agua Blanca Iturbide","20.3500","-98.3500","8443","Mexico"
"Santa Maria Totolapilla","16.6167","-95.6333","839","Mexico"
"Jilotlan de los Dolores","19.3708","-103.0197","9917","Mexico"
"Nicolas Flores","20.7669","-99.1514","6202","Mexico"
"La Cruz","27.8639","-105.1964","1671","Mexico"
"Cadereyta Jimenez","25.6000","-100.0000","86445","Mexico"
"San Ignacio","23.9367","-106.4275","4543","Mexico"
"Rosales","28.2000","-105.5500","5570","Mexico"
"Ocoyoacac","19.2739","-99.4606","61805","Mexico"
"Puerto San Carlos","24.7894","-112.1083","5538","Mexico"
"Alamo","20.9167","-97.6750","25159","Mexico"
"Santa Lucia del Camino","17.0667","-96.6833","49459","Mexico"
"Tehuipango","18.5167","-97.0500","26322","Mexico"
"San Pedro Martir Quiechapa","16.4167","-96.2500","693","Mexico"
"Caracuaro","18.9851","-101.0416","9485","Mexico"
"Tampico","22.2553","-97.8686","314418","Mexico"
"Tasquillo","20.6167","-99.2500","15429","Mexico"
"Tecuala","22.4004","-105.4600","14921","Mexico"
"Basuchil","28.5167","-107.4000","1451","Mexico"
"San Francisco Huehuetlan","18.2000","-96.9500","991","Mexico"
"Eloxochitlan","18.5088","-96.9227","12520","Mexico"
"San Jeronimo Coatlan","16.2333","-96.8667","5019","Mexico"
"Villa del Carbon","19.7272","-99.5417","39587","Mexico"
"Ignacio Manuel Altamirano","19.2875","-88.5747","574","Mexico"
"San Bartolo Tutotepec","20.4000","-98.2000","17837","Mexico"
"Totutla","19.2167","-96.9667","17428","Mexico"
"Tlachichilco","20.6217","-98.1994","10729","Mexico"
"Vicam Pueblo","27.6422","-110.2897","8578","Mexico"
"Olintla","20.1000","-97.6833","11517","Mexico"
"San Jose de los Reynoso","21.0236","-102.4058","1200","Mexico"
"Tepetlaoxtoc","19.5731","-98.8203","25523","Mexico"
"Catemaco","18.4167","-95.1167","27615","Mexico"
"Ocotlan de Morelos","16.7914","-96.6750","21676","Mexico"
"El Refugio","20.6706","-103.7378","372","Mexico"
"Tekom","20.6022","-88.2644","2540","Mexico"
"San Francisco Cajonos","17.3167","-96.2500","440","Mexico"
"Constancia del Rosario","17.0333","-97.9333","3947","Mexico"
"El Rosario","22.9922","-105.8572","16002","Mexico"
"Chichimila","20.6308","-88.2172","5528","Mexico"
"San Francisco Cahuacua","16.9000","-97.3000","3379","Mexico"
"San Martin Itunyoso","17.2333","-97.8833","2298","Mexico"
"Tekanto","21.0106","-89.1056","3105","Mexico"
"Otumba","19.6969","-98.7547","29873","Mexico"
"Candelaria","18.1844","-91.0461","9812","Mexico"
"El Espinal","16.4906","-95.0444","8575","Mexico"
"La Magdalena Tlatlauquitepec","18.7500","-98.1000","650","Mexico"
"Ejido Emiliano Zapata","17.7803","-101.7225","593","Mexico"
"El Sitio","21.9667","-101.5833","1381","Mexico"
"Santa Catarina Ayotzingo","19.2647","-98.8975","10702","Mexico"
"Jaltenco","19.7511","-99.0931","26359","Mexico"
"Agua Prieta","31.3258","-109.5489","79138","Mexico"
"Salina Cruz","16.1671","-95.2000","81063","Mexico"
"Las Delicias","28.2000","-105.5000","114783","Mexico"
"Coahuitlan","20.2667","-97.7167","8566","Mexico"
"Santa Ines del Monte","16.9333","-96.8500","2372","Mexico"
"Nacozari Viejo","30.4200","-109.6500","11872","Mexico"
"Apizaco","19.4167","-98.1333","81565","Mexico"
"San Francisco Chindua","17.4167","-97.3167","791","Mexico"
"Sisoguichi","27.7858","-107.4964","1097","Mexico"
"Sayula","19.8836","-103.5972","36778","Mexico"
"El Oro","26.8592","-105.8475","4249","Mexico"
"Tlacolulan","19.6667","-97.0000","11431","Mexico"
"Mariscal de Juarez","17.8667","-98.1333","3486","Mexico"
"Tezoatlan de Segura y Luna","17.6500","-97.8167","11034","Mexico"
"Mazatlan Villa de Flores","18.0167","-96.9167","13097","Mexico"
"San Buenaventura","19.2641","-99.6746","48037","Mexico"
"San Pedro Martir","16.7436","-96.7119","1694","Mexico"
"Puerto Penasco","31.3167","-113.5369","62177","Mexico"
"Guadalupe","31.3897","-106.1014","3022","Mexico"
"Temosachic","28.9533","-107.8306","1841","Mexico"
"San Raymundo Jalpam","16.9667","-96.7333","3336","Mexico"
"Xochicoatlan","20.7767","-98.6800","6954","Mexico"
"Tzitzio","19.4449","-100.9085","8966","Mexico"
"San Andres Yaa","17.3000","-96.1500","422","Mexico"
"San Lucas Quiavini","16.9000","-96.4667","1736","Mexico"
"San Mateo Cajonos","17.1500","-96.2000","616","Mexico"
"Ejido Michoacan de Ocampo","32.4667","-115.3086","3086","Mexico"
"Villa de Zaachila","16.9508","-96.7492","43279","Mexico"
"La Estancia","29.7933","-110.2111","713","Mexico"
"San Cristobal","16.7367","-92.6383","158027","Mexico"
"Jacala","21.0053","-99.1719","12057","Mexico"
"Ensenada","31.8578","-116.6058","522768","Mexico"
"Toluca","19.2925","-99.6569","819561","Mexico"
"San Martin Hidalgo","20.4350","-103.9286","27777","Mexico"
"San Buenaventura","29.8333","-107.4667","6957","Mexico"
"Valparaiso","22.7667","-103.5667","12919","Mexico"
"Santa Cruz Amilpas","17.0667","-96.6833","12814","Mexico"
"Tixpehual","20.9778","-89.4417","5690","Mexico"
"Tecozautla","20.5333","-99.6333","31609","Mexico"
"Balleza","26.9500","-106.3500","2087","Mexico"
"Tecali","18.9011","-97.9700","21992","Mexico"
"Tres Valles","18.2367","-96.1369","44978","Mexico"
"La Junta","28.4778","-107.3317","8930","Mexico"
"San Agustin","31.5156","-106.2597","1359","Mexico"
"Los Barriles","23.6800","-109.6994","1174","Mexico"
"Berriozabal","16.7993","-93.2725","51722","Mexico"
"Yutanduchi de Guerrero","17.0333","-97.3000","1129","Mexico"
"San Sebastian Abasolo","16.9833","-96.5833","1933","Mexico"
"Barranca de los Otates","20.2667","-103.6667","1182","Mexico"
"Zacatecas","22.7736","-102.5736","138152","Mexico"
"Xcalakoop","20.6508","-88.5264","1313","Mexico"
"Atarjea","21.2678","-99.7183","5610","Mexico"
"Cheran","19.6833","-101.9500","19081","Mexico"
"Santa Cruz de Bravo","17.5817","-98.2231","356","Mexico"
"San Miguel de Allende","20.9142","-100.7436","139297","Mexico"
"San Bruno","27.1603","-112.1586","623","Mexico"
"San Andres Zabache","16.6000","-96.8500","739","Mexico"
"Rincon de Romos","22.2333","-102.3167","27988","Mexico"
"Hidalgotitlan","17.7833","-94.6333","19587","Mexico"
"San Jose Lachiguiri","16.3667","-96.3500","3251","Mexico"
"Ixhuatlancillo","18.9000","-97.1500","24896","Mexico"
"Mier","26.4306","-99.1486","4762","Mexico"
"Valle de Allende","26.9333","-105.4000","4185","Mexico"
"San Juan Achiutla","17.3444","-97.5069","376","Mexico"
"San Agustin Yatareni","17.0833","-96.6667","4334","Mexico"
"Ciudad Lerdo","25.5500","-103.5167","79669","Mexico"
"Ejido Agiabampo","27.1947","-109.5419","409","Mexico"
"San Sebastian Tecomaxtlahuaca","17.3500","-98.0333","8352","Mexico"
"San Juan Lajarcia","16.5000","-95.9167","607","Mexico"
"Jesus Maria","21.9667","-102.3500","43012","Mexico"
"Santo Domingo Ixcatlan","16.9167","-97.5333","652","Mexico"
"Amatitan","20.8333","-103.7167","15344","Mexico"
"San Rafael","20.1889","-96.8658","29631","Mexico"
"Sunuapa","17.4833","-93.2500","2283","Mexico"
"La Barca","20.2903","-102.5456","35345","Mexico"
"El Centenario","24.1025","-110.4144","6068","Mexico"
"Huehuetoca","19.8342","-99.2033","59721","Mexico"
"Batopilas","27.0267","-107.7394","1220","Mexico"
"San Joaquin","20.9833","-99.5000","8865","Mexico"
"Acambaro","20.0361","-100.7314","57972","Mexico"
"Ahuehuetitlan","17.6667","-98.3167","2360","Mexico"
"Chalchihuitan","16.9667","-92.6500","16803","Mexico"
"Temoaya","19.4686","-99.5933","77714","Mexico"
"Citilcum","20.9528","-89.1164","2247","Mexico"
"Concordia","23.2883","-106.0675","8328","Mexico"
"Chucandiro","19.9003","-101.3317","4559","Mexico"
"Guerrero","28.3083","-100.3769","959","Mexico"
"Coahuayutla de Guerrero","18.3167","-101.8167","1373","Mexico"
"Chapantongo","20.2833","-99.4000","11389","Mexico"
"Carichi","27.9167","-107.0500","1672","Mexico"
"Axapusco","19.7194","-98.7972","21915","Mexico"
"La Piedad","20.3333","-102.0167","99837","Mexico"
"Santa Maria Nduayaco","17.4103","-97.4972","466","Mexico"
"Amatenango del Valle","16.5333","-92.4333","9913","Mexico"
"Paraiso","18.3961","-93.2128","86632","Mexico"
"Bahia Kino","28.9833","-111.9333","6050","Mexico"
"Akumal","20.4000","-87.3211","1310","Mexico"
"San Miguel Ocotenco","18.9833","-97.4500","23824","Mexico"
"Chan Cenote","20.9911","-87.7850","2225","Mexico"
"Apan","19.7000","-98.4333","39247","Mexico"
"Esperanza","27.5800","-109.9298","3836","Mexico"
"Huamantla","19.3133","-97.9228","51996","Mexico"
"Zacoalco de Torres","20.2333","-103.5833","28205","Mexico"
"Santa Maria Quiegolani","16.2667","-96.0500","1924","Mexico"
"Quila","24.4167","-107.2167","1023","Mexico"
"Cotaxtla","18.8333","-96.3833","1167","Mexico"
"Ixhuatlan de Madero","20.6833","-98.0167","54132","Mexico"
"San Francisco Logueche","16.3500","-96.3833","2787","Mexico"
"Tequixquiac","19.9097","-99.1417","22676","Mexico"
"San Jeronimo Xayacatlan","18.2333","-97.9167","3441","Mexico"
"Soledad de Doblado","19.0447","-96.4233","27770","Mexico"
"Santiago Nundiche","17.3333","-97.6667","877","Mexico"
"Nazareno Etla","17.1783","-96.8239","3910","Mexico"
"Simojovel de Allende","17.1500","-92.7167","44295","Mexico"
"Sucila","21.1544","-88.3136","3785","Mexico"
"Abala","20.6467","-89.6797","1890","Mexico"
"San Jose Oriente","20.8589","-89.1019","990","Mexico"
"San Juanito de Escobedo","20.8000","-104.0000","9433","Mexico"
"San Isidro","19.4814","-96.3797","1588","Mexico"
"San Jeronimo Taviche","16.7167","-96.5833","1934","Mexico"
"Guadalupe Yancuictlalpan","19.1831","-99.4583","6385","Mexico"
"Tepetlixpa","19.0006","-98.8178","18327","Mexico"
"Temascalcingo","19.9147","-100.0036","58169","Mexico"
"Coatzacoalcos","18.1500","-94.4333","319187","Mexico"
"Tancoco","21.2861","-97.7906","5792","Mexico"
"San Pedro Yaneri","17.4333","-96.3500","910","Mexico"
"San Juan Cacahuatepec","16.6156","-98.1567","2870","Mexico"
"San Jacinto Tlacotepec","16.5167","-97.3833","2258","Mexico"
"San Sebastian del Oeste","20.8511","-104.8190","5643","Mexico"
"Amecameca de Juarez","19.1238","-98.7665","31687","Mexico"
"Acatepec","16.7500","-98.4833","2238","Mexico"
"Villas Santa Cruz","28.1739","-105.5678","35","Mexico"
"Yahualica de Gonzalez Gallo","21.1781","-102.8860","22586","Mexico"
"Santa Maria Zaniza","16.6500","-97.3500","2234","Mexico"
"Cruz Grande","16.7333","-99.1333","20175","Mexico"
"San Jose Ayuquila","17.9408","-97.9692","1512","Mexico"
"Santa Cruz Papalutla","16.9500","-96.5833","2127","Mexico"
"Actopan","20.2670","-98.9330","56429","Mexico"
"El Progreso","27.4975","-99.5928","432","Mexico"
"El Arenal","20.7754","-103.6935","19900","Mexico"
"San Francisco de Borja","27.8833","-106.6667","1157","Mexico"
"Champoton","19.3500","-90.7167","30881","Mexico"
"Ciudad Altamirano","18.3583","-100.6667","24533","Mexico"
"Villa Morelos","20.0033","-101.4144","7806","Mexico"
"Norogachi","27.2731","-107.1319","900","Mexico"
"Tixcancal","21.0344","-87.8514","2165","Mexico"
"Opodepe","29.9167","-110.6167","346","Mexico"
"Santa Catarina Zapoquila","18.0667","-97.5833","366","Mexico"
"Ometepec","16.6833","-98.4167","30271","Mexico"
"Cancun","21.1606","-86.8475","743626","Mexico"
"La Huerta","19.4833","-104.6500","24563","Mexico"
"Santa Anita","23.1781","-109.7014","687","Mexico"
"San Juan Teita","17.1000","-97.4167","531","Mexico"
"Uruapan","19.4208","-102.0628","315350","Mexico"
"Bochil","16.9953","-92.8903","34997","Mexico"
"Jose Maria Morelos","29.6500","-107.7000","813","Mexico"
"San Luis Potosi","22.1511","-100.9761","824229","Mexico"
"Oscar Soto Maynez","29.0322","-107.4708","2978","Mexico"
"Nuevo Casas Grandes","30.4167","-107.9167","55553","Mexico"
"Chinipas","27.4000","-108.5333","1934","Mexico"
"Santa Maria del Oro","25.9333","-105.3667","5878","Mexico"
"Ixcateopan de Cuauhtemoc","18.5000","-99.7933","6104","Mexico"
"Villa Luvianos","18.9200","-100.2983","28215","Mexico"
"Los Vergara","20.4500","-103.9167","269","Mexico"
"Juventino Rosas","20.6500","-101.0000","65479","Mexico"
"San Idelfonso Sola","16.5167","-96.9833","985","Mexico"
"Tocumbo","19.7000","-102.5333","11994","Mexico"
"Mixquiahuala de Juarez","20.2311","-99.2131","37747","Mexico"
"Cerritos","22.4275","-100.2783","14804","Mexico"
"Frontera","26.9260","-101.4490","70160","Mexico"
"Ciudad Miguel Aleman","26.4003","-99.0253","19998","Mexico"
"Santa Maria Papalo","17.7842","-96.7972","2086","Mexico"
"Sacapuc","21.1661","-89.3578","690","Mexico"
"Villa Hidalgo","15.0833","-92.3833","1089","Mexico"
"Ciudad Nezahualcoyotl","19.4100","-99.0300","1109363","Mexico"
"Cananea","30.9819","-110.3006","31560","Mexico"
"Sitio de Xitlapehua","16.3667","-96.5500","669","Mexico"
"Coacalco","19.6333","-99.0931","278064","Mexico"
"San Miguel Jaltocan","19.7167","-99.0500","3681","Mexico"
"Otatitlan","18.1772","-96.0342","4659","Mexico"
"La Paz","24.1422","-110.3108","244219","Mexico"
"San Nicolas Buenos Aires","19.1433","-97.4767","9972","Mexico"
"Monte Escobedo","22.3000","-103.5667","8929","Mexico"
"Zacatlan","19.9319","-97.9600","76296","Mexico"
"Ixtapa Zihuatanejo","17.6367","-101.5514","8992","Mexico"
"Santo Domingo Tonaltepec","17.6000","-97.3667","235","Mexico"
"Cocotitlan","19.2167","-98.8500","12142","Mexico"
"Torreon","25.5394","-103.4486","679288","Mexico"
"Kanasin","20.9344","-89.5578","139753","Mexico"
"Guadalupe","25.6775","-100.2597","691931","Mexico"
"San Simon Zahuatlan","17.8500","-98.0000","3526","Mexico"
"Santa Maria Yolotepec","16.8764","-97.5042","411","Mexico"
"Yecapixtla","18.8833","-98.8650","39859","Mexico"
"Tenango de Doria","20.3356","-98.2267","15793","Mexico"
"Topia","25.2167","-106.5667","2051","Mexico"
"Ciudad Apodaca","25.7833","-100.1833","523370","Mexico"
"San Francisco del Mezquital","23.4733","-104.3958","1742","Mexico"
"Tepechitlan","21.6667","-103.3333","8972","Mexico"
"Asientos","22.2397","-102.0889","4517","Mexico"
"Santa Ana","30.5406","-111.1205","10593","Mexico"
"Tecate","32.5667","-116.6331","64764","Mexico"
"Mina","26.0167","-100.5167","4309","Mexico"
"Yaxe","16.7167","-96.4667","2789","Mexico"
"Pinal de Amoles","21.1342","-99.4586","25325","Mexico"
"Xul-Ha","18.5600","-88.4639","2037","Mexico"
"Santa Maria Atzompa","17.0794","-96.7869","34115","Mexico"
"Tehuacan","18.4617","-97.3928","274906","Mexico"
"Jaral del Progreso","20.3667","-101.0667","31780","Mexico"
"Laguna del Rey","27.0167","-103.3667","2651","Mexico"
"San Juan Tabaa","17.3000","-96.2000","1280","Mexico"
"Calimaya","19.1608","-99.6172","47033","Mexico"
"Villa Hidalgo","26.2486","-104.9144","614","Mexico"
"Huatusco","19.1489","-96.9661","60674","Mexico"
"Iguala de la Independencia","18.3500","-99.5333","110390","Mexico"
"Arroyo Seco","21.5472","-99.6883","12493","Mexico"
"Celaya","20.5222","-100.8122","468469","Mexico"
"San Isidro Buen Suceso","19.1528","-98.1069","7688","Mexico"
"Reyes Acozac","19.7667","-98.9833","20478","Mexico"
"Montecristo","15.7000","-92.6000","7682","Mexico"
"Almoloya","19.7000","-98.4000","10638","Mexico"
"Seye","20.8372","-89.3719","8369","Mexico"
"Moloacan","17.9833","-94.3500","17504","Mexico"
"Santo Domingo Chihuitan","16.5833","-95.1667","1486","Mexico"
"Paracuaro","19.1464","-102.2194","26789","Mexico"
"Penon Blanco","24.7833","-104.0333","5271","Mexico"
"Xichu","21.2997","-100.0553","11323","Mexico"
"Palo Alto","21.9167","-101.9667","5399","Mexico"
"Tepeuxila","17.7223","-96.8414","2639","Mexico"
"San Agustin Tlaxiaca","20.1144","-98.8867","27118","Mexico"
"Rio Tarniahua","22.5033","-98.0575","1718","Mexico"
"Samahil","20.8858","-89.8894","5631","Mexico"
"Taxco de Alarcon","18.5564","-99.6050","98854","Mexico"
"Santa Elena","20.3247","-89.6431","3456","Mexico"
"Concepcion de Buenos Aires","19.8667","-103.1500","6088","Mexico"
"Telchac Pueblo","21.2022","-89.2722","3517","Mexico"
"Tecpan de Galeana","17.2500","-100.6833","14638","Mexico"
"Compostela","21.2389","-104.9000","37478","Mexico"
"Coatetelco","18.7294","-99.3256","9094","Mexico"
"Acatic","20.7803","-102.9100","21530","Mexico"
"Santiago Laollaga","16.5833","-95.2000","3326","Mexico"
"Doctor Rodulfo Figueroa","15.8508","-92.0622","2113","Mexico"
"Motul","21.1667","-89.4667","21508","Mexico"
"San Ignacio","27.2822","-112.8944","667","Mexico"
"General Enrique Estrada","23.0000","-102.7333","3436","Mexico"
"Epazoyucan","20.0177","-98.6361","11522","Mexico"
"Chiautla de Tapia","18.3000","-98.6039","11776","Mexico"
"Telchac Puerto","21.3500","-89.2667","1722","Mexico"
"San Felipe Orizatlan","21.1719","-98.6064","38472","Mexico"
"Santa Ana Jilotzingo","19.5333","-99.4000","19013","Mexico"
"Villa Diaz Ordaz","16.9981","-96.4314","6646","Mexico"
"San Juan Lachao","16.1500","-97.1167","4677","Mexico"
"Tepetitlan","20.1842","-99.3808","8893","Mexico"
"Totoltepec","18.6667","-98.3500","699","Mexico"
"Nochistlan de Mejia","21.3642","-102.8464","27932","Mexico"
"Cuencame de Ceniceros","24.8667","-103.7000","9848","Mexico"
"La Luz","20.1483","-102.6350","3689","Mexico"
"Chumayel","20.4283","-89.3011","3135","Mexico"
"Chimalhuacan","19.4167","-98.9000","614453","Mexico"
"Madrid","19.0833","-103.8667","3790","Mexico"
"San Javier","25.8611","-111.5436","131","Mexico"
"San Martin de Bolanos","21.5000","-103.8000","3122","Mexico"
"Sonoita","31.8614","-112.8544","12849","Mexico"
"San Nicolas de los Ranchos","19.0667","-98.4833","11734","Mexico"
"Tepehuacan de Guerrero","21.0131","-98.8442","27240","Mexico"
"Altepexi","18.3676","-97.3004","21100","Mexico"
"Xoxocotla","18.6500","-97.1500","5446","Mexico"
"Tinum","20.7664","-88.3917","2111","Mexico"
"Los Reyes de Juarez","18.9267","-97.7983","27454","Mexico"
"Erongaricuaro","19.5833","-101.7167","5000","Mexico"
"Puente Nacional","19.3333","-96.4833","22454","Mexico"
"Sinanche","21.2250","-89.1850","2563","Mexico"
"Coquimatlan","19.2038","-103.8086","13358","Mexico"
"Meliton Albanez","23.6614","-110.4208","2140","Mexico"
"Tenancingo","18.9608","-99.5906","90946","Mexico"
"Jaltepetongo","17.6833","-97.0333","545","Mexico"
"San Felipe","21.5672","-88.2311","1789","Mexico"
"Santa Ana Tlapacoyan","16.7500","-96.8167","1950","Mexico"
"San Vicente Coatlan","16.3833","-96.8500","3923","Mexico"
"Ciudad Serdan","18.9833","-97.4500","23824","Mexico"
"Papantla de Olarte","20.4478","-97.3200","152863","Mexico"
"Durango","24.0167","-104.6667","654876","Mexico"
"Antiguo Morelos","22.5497","-99.0847","3104","Mexico"
"Valerio Trujano","17.7667","-96.9833","1371","Mexico"
"Miahuatlan de Porfirio Diaz","16.3283","-96.5961","35517","Mexico"
"Guarachanillo","19.8261","-102.3781","393","Mexico"
"El Bismarck","31.2289","-107.5792","885","Mexico"
"Xacanaba","20.8356","-89.0133","1440","Mexico"
"Siltepec","15.5500","-92.3333","35192","Mexico"
"Ciudad Mante","22.7333","-98.9500","112061","Mexico"
"Ciudad Acuna","29.3242","-100.9317","216099","Mexico"
"Silao","20.9478","-101.4281","147123","Mexico"
"Tetiz","20.9622","-89.9339","3939","Mexico"
"Chalco","19.2647","-98.8975","310130","Mexico"
"Cuapiaxtla de Madero","18.9167","-97.8167","10101","Mexico"
"San Ignacio Cohuirimpo","27.0500","-109.4167","10606","Mexico"
"San Juan de los Lagos","21.2458","-102.3308","69725","Mexico"
"San Andres Nuxino","17.2333","-97.1000","1756","Mexico"
"Santa Maria Temaxcaltepec","16.1628","-97.1944","2571","Mexico"
"Apoala","17.6472","-97.1361","875","Mexico"
"Guamuchil","25.4639","-108.0794","72500","Mexico"
"Ixtlahuacan del Rio","20.8667","-103.2500","19070","Mexico"
"Huautepec","18.1000","-96.7833","6299","Mexico"
"Benjamin Hill","30.1667","-111.1000","5285","Mexico"
"Minatitlan","19.3833","-104.0500","4009","Mexico"
"San Lorenzo","17.6667","-98.1167","942","Mexico"
"Chalma","21.2167","-98.4000","2555","Mexico"
"Aculco","20.0983","-99.8269","1823","Mexico"
"San Lorenzo Albarradas","16.9000","-96.2500","2723","Mexico"
"Anahuac","28.4800","-106.7442","9952","Mexico"
"Progreso","21.2800","-89.6700","53958","Mexico"
"Leon de los Aldama","21.1167","-101.6833","1454793","Mexico"
"Mexico City","19.4333","-99.1333","20996000","Mexico"
"Patzcuaro","19.5164","-101.6097","79868","Mexico"
"San Juan Lalana","17.4667","-95.8833","16972","Mexico"
"Lazaro Cardenas","28.3897","-105.6236","8704","Mexico"
"San Francisco Ixhuatan","16.3514","-94.4836","8980","Mexico"
"Comala","19.3208","-103.7603","20888","Mexico"
"Huejotzingo","19.1594","-98.4073","25684","Mexico"
"Techaluta de Montenegro","20.0742","-103.5528","3703","Mexico"
"Chapulhuacan","21.1547","-98.9039","20577","Mexico"
"Chacsinkin","20.1725","-89.0161","2555","Mexico"
"Tacotalpa","17.5931","-92.8258","8071","Mexico"
"San Pedro Yolox","17.5885","-96.5515","1698","Mexico"
"Teotlalpan","19.8333","-98.0333","236","Mexico"
"Montemorelos","25.1872","-99.8267","60829","Mexico"
"Anenecuilco","18.7781","-98.9861","10773","Mexico"
"Pabellon de Arteaga","22.1500","-102.2667","28633","Mexico"
"La Reforma","16.6167","-97.8500","3256","Mexico"
"Ahumada","30.6186","-106.5122","8575","Mexico"
"Cortazar","20.4830","-100.9330","57748","Mexico"
"Peto","20.1256","-88.9214","19821","Mexico"
"San Jacinto Amilpas","17.1000","-96.7667","15720","Mexico"
"Miraflores","23.3681","-109.7778","1384","Mexico"
"Totoltepec de Guerrero","18.2333","-97.8500","1180","Mexico"
"Santa Catarina","21.1406","-100.0619","5120","Mexico"
"San Mateo Yoloxochitlan","18.1422","-96.8681","3614","Mexico"
"Tamazola","17.6667","-98.2167","4250","Mexico"
"San Diego de Alejandria","20.8667","-101.9000","7349","Mexico"
"Huayacocotla","20.5500","-98.4833","3847","Mexico"
"Tlilapan","18.8000","-97.1000","5258","Mexico"
"Mixtla de Altamirano","18.6000","-97.0000","11646","Mexico"
"Chinantequilla","17.3078","-95.9903","507","Mexico"
"Santa Ana Zegache","16.8667","-96.7333","3773","Mexico"
"Uriangato","20.1333","-101.1667","59305","Mexico"
"San Martin de las Piramides","19.7333","-98.8167","21511","Mexico"
"Santiago Huauclilla","17.4500","-97.0833","529","Mexico"
"Santa Maria Tlalixtac","17.9500","-96.7333","1635","Mexico"
"Eloxochitlan","20.7453","-98.8100","2417","Mexico"
"Naranjos","21.3472","-97.6833","20073","Mexico"
"San Juan Raboso","18.5708","-98.4419","3637","Mexico"
"Uman","20.8833","-89.7500","39611","Mexico"
"La Independencia","23.5481","-99.3872","357","Mexico"
"San Lucas Ixcotepec","16.2922","-95.9081","155","Mexico"
"Santa Rosa Jauregui","20.7418","-100.4473","86376","Mexico"
"San Andres Ixtlahuaca","17.0667","-96.8167","1604","Mexico"
"Tuzantan","15.1500","-92.4167","31755","Mexico"
"Santiago Llano Grande","16.5000","-98.2833","3284","Mexico"
"Suchil","23.6333","-103.9167","4107","Mexico"
"Nava","28.4214","-100.7675","22192","Mexico"
"Chiconquiaco","19.7500","-96.8167","14394","Mexico"
"Kaua","20.6192","-88.4156","2340","Mexico"
"San Juan Tamazola","17.1597","-97.2264","2877","Mexico"
"Tepeapulco","19.7856","-98.5517","49850","Mexico"
"Santa Ana Cuauhtemoc","17.9833","-96.7833","727","Mexico"
"San Sebastian Teitipac","16.9519","-96.6143","1967","Mexico"
"Mexicaltzingo","19.2092","-99.5858","10161","Mexico"
"Muna","20.4800","-89.7200","11469","Mexico"
"Juan del Grijalva","17.3642","-93.3833","416","Mexico"
"Tulum","20.2119","-87.4658","18233","Mexico"
"Carretas","28.2489","-106.5100","726","Mexico"
"San Bartolome Ayautla","18.0333","-96.6667","4415","Mexico"
"Juan Aldama","24.2910","-103.3940","14162","Mexico"
"Santiago Suchilquitongo","17.2500","-96.8833","10397","Mexico"
"Santa Maria Ecatepec","16.2833","-95.8833","3353","Mexico"
"Las Flores","24.3450","-107.0950","345","Mexico"
"Santo Domingo Yodohino","17.6167","-97.6833","314","Mexico"
"La Crucecita","15.7753","-96.1425","13044","Mexico"
"Maxcanu","20.5833","-89.9833","12621","Mexico"
"Atil","30.8436","-111.5836","734","Mexico"
"Pinotepa de Don Luis","16.4333","-97.9667","6893","Mexico"
"Santiago Ayuquililla","17.9342","-97.9581","2583","Mexico"
"Nonoava","27.4667","-106.7333","1272","Mexico"
"Kini","21.1342","-89.3175","1581","Mexico"
"Huaniqueo de Morales","19.8946","-101.5122","8093","Mexico"
"San Miguel del Rio","17.3167","-96.5667","244","Mexico"
"Chilapa de Alvarez","17.5944","-99.1778","120790","Mexico"
"Cuajinicuilapa","16.4717","-98.4153","25922","Mexico"
"Ciudad Manuel Doblado","20.7303","-101.9533","38309","Mexico"
"San Juan Cotzocon","17.1667","-95.7833","23686","Mexico"
"Ecatzingo","18.9500","-98.7500","9369","Mexico"
"San Pedro el Alto","16.0333","-96.4667","3551","Mexico"
"San Miguel Tlacamama","16.4167","-98.0667","3662","Mexico"
"San Jose Tzal","20.8242","-89.6611","3543","Mexico"
"San Miguel Xoxtla","19.1833","-98.3000","12341","Mexico"
"San Francisco Nuxano","17.3833","-97.3500","367","Mexico"
"Churumuco de Morelos","18.6167","-101.6333","15455","Mexico"
"Molango","20.7844","-98.7175","10385","Mexico"
"San Pedro Ixtlahuaca","17.0500","-96.8167","8561","Mexico"
"Tamuin","22.0000","-98.7833","35446","Mexico"
"Zontecomatlan de Lopez y Fuentes","20.7667","-98.3333","14620","Mexico"
"Tres Garantias","18.1933","-88.9828","790","Mexico"
"Mulege","26.8917","-111.9808","3821","Mexico"
"Amealco","20.1881","-100.1439","56457","Mexico"
"Tepetlan","19.6667","-96.8000","9668","Mexico"
"Acaxochitlan","20.1667","-98.2000","34892","Mexico"
"Gran Morelos","28.2881","-105.4589","296","Mexico"
"Bustamante","26.5333","-100.5000","3773","Mexico"
"Nanchital de Lazaro Cardenas del Rio","18.0667","-94.4167","30039","Mexico"
"Acatlan","20.4242","-103.6014","22261","Mexico"
"Tierra Colorada","17.1656","-99.5264","10502","Mexico"
"San Carlos","29.1000","-103.9000","916","Mexico"
"Santa Maria la Asuncion","18.8167","-99.5667","3237","Mexico"
"Ixtlahuaca","19.5689","-99.7669","126505","Mexico"
"Zamora","19.9833","-102.2833","141627","Mexico"
"Colima","19.2433","-103.7247","137383","Mexico"
"Ensenada Blanca","25.7261","-111.2472","255","Mexico"
"Tlayacapan","18.9556","-98.9811","14467","Mexico"
"Izamal","20.9314","-89.0178","15101","Mexico"
"Senguio","19.7539","-100.3377","19146","Mexico"
"Progreso","32.5842","-115.5842","12557","Mexico"
"Cuauhtemoc","20.8869","-89.0008","600","Mexico"
"Chetumal","18.5036","-88.3053","151243","Mexico"
"Agua Fria","25.8131","-100.1515","733","Mexico"
"San Pablo Huixtepec","16.8167","-96.7833","9313","Mexico"
"San Jose el Viejo","23.1226","-109.7120","7222","Mexico"
"Tepalcatepec","19.1833","-102.8500","42879","Mexico"
"Kimbila","20.9328","-89.1250","3633","Mexico"
"Huejucar","22.3591","-103.2108","5633","Mexico"
"Ihuitlan Plumas","17.8500","-97.4333","351","Mexico"
"Temax","21.1511","-88.9403","6239","Mexico"
"Ozuluama de Mascarenas","21.6667","-97.8500","3439","Mexico"
"Tepelmeme","17.8750","-97.3622","1607","Mexico"
"Julimes","28.4333","-105.4000","1795","Mexico"
"Ixil","21.1522","-89.4822","3728","Mexico"
"Guadalupe y Calvo","26.0950","-106.9644","5816","Mexico"
"Jamiltepec","16.2783","-97.8200","19201","Mexico"
"Villa Ahumada y Anexas","30.5347","-106.8164","123","Mexico"
"Emiliano Zapata","18.8667","-99.1500","39702","Mexico"
"Tetecala","18.7167","-99.3833","6473","Mexico"
"Nogales","18.8167","-97.1667","21113","Mexico"
"Totontepec Villa de Morelos","17.2567","-96.0269","5361","Mexico"
"Tepatitlan de Morelos","20.8170","-102.7330","141322","Mexico"
"San Gregorio Atzompa","19.0224","-98.3445","9671","Mexico"
"San Pedro Mixtepec","16.0000","-97.1169","48336","Mexico"
"San Pedro Mixtepec","16.2667","-96.2833","1074","Mexico"
"Tzacala","20.9778","-89.0508","3","Mexico"
"Alto Lucero","19.6167","-96.7333","4693","Mexico"
"Zapotitlan Lagunas","17.7531","-98.3903","3142","Mexico"
"Fortin de las Flores","18.9000","-97.0000","18965","Mexico"
"Chunhuhub","19.5853","-88.5922","4644","Mexico"
"Bachiniva","28.7686","-107.2536","2109","Mexico"
"Coronado","26.7376","-105.1583","1121","Mexico"
"Juchique de Ferrer","19.8333","-96.7000","16360","Mexico"
"San Juan Juquila","16.8843","-95.8891","3726","Mexico"
"Boquillas del Carmen","29.1878","-102.9356","110","Mexico"
"Cienega de Escobar","25.6094","-105.7458","135","Mexico"
"Tlapa de Comonfort","17.5461","-98.5764","37975","Mexico"
"Tlalpujahua de Rayon","19.8050","-100.1744","27788","Mexico"
"Manzanillo","19.0522","-104.3158","184541","Mexico"
"Putla Villa de Guerrero","17.0321","-97.9293","32640","Mexico"
"Castillo de Teayo","20.7500","-97.6333","4159","Mexico"
"Santos Reyes Yucuna","17.7833","-98.0000","1380","Mexico"
"San Isidro de Palo Verde","20.3910","-103.9100","341","Mexico"
"Zaragoza","19.7728","-97.5567","16173","Mexico"
"Tepexi de Rodriguez","18.5797","-97.9267","20598","Mexico"
"Ciudad Cuauhtemoc","22.1833","-97.8333","57646","Mexico"
"San Vicente Nunu","17.4667","-97.4500","413","Mexico"
"Pueblito de Allende","26.9878","-105.3253","1381","Mexico"
"San Jose del Progreso","16.6833","-96.6833","6822","Mexico"
"Altar","30.7136","-111.8353","7927","Mexico"
"Labor de Medina","20.4667","-103.9167","863","Mexico"
"Tixcacalcupul","20.5367","-88.2703","3492","Mexico"
"San Pablo Coatlan","16.2167","-96.7833","4245","Mexico"
"Playas de Rosarito","32.3500","-117.0500","90668","Mexico"
"Colonia Manuel Gonzalez","19.0750","-96.6958","982","Mexico"
"Tepeji del Rio de Ocampo","19.9039","-99.3414","80612","Mexico"
"Huhi","20.7253","-89.1614","4745","Mexico"
"San Pablo Huitzo","17.2764","-96.8825","7024","Mexico"
"America","27.3289","-99.5900","255","Mexico"
"Puerto Chale","24.4225","-111.5533","373","Mexico"
"Namiquipa","29.2503","-107.4092","1752","Mexico"
"San Pedro Apostol","16.7333","-96.7167","1505","Mexico"
"Tlacotepec de Mejia","19.2000","-96.8333","3833","Mexico"
"Texcalyacac","19.1542","-99.4819","4514","Mexico"
"Sombrerete","23.6333","-103.6397","58201","Mexico"
"Pisaflores","21.1933","-99.0050","17214","Mexico"
"San Miguel Amatlan","17.2667","-96.4667","993","Mexico"
"Tlacotepec","17.8500","-97.4333","438","Mexico"
"Sotuta","20.5968","-89.0082","5548","Mexico"
"Tequila","20.8794","-103.8356","42009","Mexico"
"San Martin Texmelucan de Labastida","19.2833","-98.4333","152051","Mexico"
"Puerto Escondido","15.8619","-97.0672","45000","Mexico"
"Inde","25.9119","-105.2222","659","Mexico"
"Zacapoaxtla","19.8833","-97.5833","8062","Mexico"
"Delicias","28.1931","-105.4717","148045","Mexico"
"Xicotencatl","22.9958","-98.9447","9593","Mexico"
"San Miguel de Papasquiaro","24.8304","-105.3400","22750","Mexico"
"Tlahualilo de Zaragoza","26.1167","-103.4500","9517","Mexico"
"Tepoztlan","18.9853","-99.0997","14130","Mexico"
"Cienega de Flores","25.9500","-100.1833","14268","Mexico"
"Saric","31.1031","-111.3778","892","Mexico"
"San Luis Amatlan","16.3833","-96.5000","3642","Mexico"
"Ciudad General Escobedo","25.7933","-100.1583","363436","Mexico"
"Atlapexco","21.0042","-98.5056","18769","Mexico"
"San Juan Sayultepec","17.4500","-97.2833","788","Mexico"
"San Baltazar Loxicha","16.0833","-96.7833","2996","Mexico"
"Canadas de Obregon","21.1496","-102.6886","4110","Mexico"
"San Juan del Rio","20.3833","-99.9833","241699","Mexico"
"Tlachichila","21.5583","-102.7833","1554","Mexico"
"Puebla","19.0333","-98.1833","1576259","Mexico"
"General Bravo","25.8000","-99.1667","5385","Mexico"
"Lazaro Cardenas","20.4417","-103.9689","297","Mexico"
"Huautla","21.0308","-98.2850","22521","Mexico"
"San Simon de Guerrero","19.0225","-100.0067","5408","Mexico"
"Las Rosas","16.3556","-92.3672","28261","Mexico"
"San Jose del Penasco","16.3000","-96.5000","2035","Mexico"
"Tepatlaxco","19.0667","-97.9667","17472","Mexico"
"San Miguel Santa Flor","17.9208","-96.7986","702","Mexico"
"Santa Maria Yavesia","17.2333","-96.4000","472","Mexico"
"San Marcos Tlapazola","16.9114","-96.5236","969","Mexico"
"Chamula","16.7875","-92.6892","3329","Mexico"
"Huejutla de Reyes","21.1333","-98.4167","115786","Mexico"
"Mapimi","25.8331","-103.8478","5623","Mexico"
"Ozumba","19.0392","-98.7936","27207","Mexico"
"Paso del Macho","18.9667","-96.7167","31890","Mexico"
"Amatlan de los Reyes","18.8457","-96.9149","9123","Mexico"
"Cuernavaca","18.9186","-99.2342","366321","Mexico"
"Ixtapangajoya","17.4972","-93.0017","5384","Mexico"
"Tepoxteco","20.9319","-98.0597","462","Mexico"
"San Melchor Betaza","17.2514","-96.1550","986","Mexico"
"Concepcion Buenavista","17.8833","-97.4000","803","Mexico"
"Santo Domingo Tlatayapam","17.4067","-97.3461","132","Mexico"
"Baca","21.1092","-89.3986","4553","Mexico"
"Jose Maria Morelos","19.5703","-98.2703","1762","Mexico"
"Altamira","22.3375","-97.8694","59536","Mexico"
"Tonala","20.6167","-103.2333","374258","Mexico"
"Hoctun","20.8644","-89.2019","4686","Mexico"
"Monclova","26.9103","-101.4222","231107","Mexico"
"Kopte","21.0539","-89.2292","556","Mexico"
"El Alamo","24.5269","-107.1208","229","Mexico"
"Rojas de Cuauhtemoc","17.0050","-96.6181","1095","Mexico"
"Dzitbalche","20.3167","-90.0500","11686","Mexico"
"Camargo","27.6670","-105.1670","40221","Mexico"
"Otlatepec","18.5092","-100.4992","965","Mexico"
"Tekik de Regil","20.8164","-89.5608","1938","Mexico"
"San Agustin Loxicha","16.0167","-96.6167","24467","Mexico"
"Lerma","19.8000","-90.6000","8281","Mexico"
"Landa de Matamoros","21.1819","-99.3203","18905","Mexico"
"Yalina","17.2500","-96.2667","267","Mexico"
"Almoloya del Rio","19.1586","-99.4886","8939","Mexico"
"San Diego de la Union","21.4656","-100.8736","39663","Mexico"
"Pijijiapan","15.6867","-93.2092","53525","Mexico"
"San Pedro Ocotlan","21.5333","-103.3139","796","Mexico"
"Jilotepec","19.6113","-96.9224","16682","Mexico"
"Tenampa","19.2500","-96.8833","6677","Mexico"
"Escuinapa","22.9822","-105.7031","30790","Mexico"
"Cosala","24.4125","-106.6917","6577","Mexico"
"Alvarado","18.7811","-95.7572","22330","Mexico"
"San Antonio de las Alazanas","25.2725","-100.5792","2235","Mexico"
"Cuicatlan","17.7255","-96.9222","9945","Mexico"
"San Juan Lachigalla","16.6000","-96.5333","3277","Mexico"
"Union de San Antonio","21.1272","-102.0061","17915","Mexico"
"Tototepec","17.4333","-98.5833","2573","Mexico"
"Culiacan","24.8069","-107.3939","785800","Mexico"
"Altata","24.6333","-107.9167","2001","Mexico"
"Omitlan de Juarez","20.1697","-98.6478","7529","Mexico"
"Amatan","17.3715","-92.8180","19348","Mexico"
"San Andres Teotilalpam","17.9500","-96.6500","4425","Mexico"
"San Juan Numi","17.4000","-97.7000","5747","Mexico"
"Tepic","21.5083","-104.8931","332863","Mexico"
"Silacayoapam","17.5000","-98.1333","6495","Mexico"
"La Esmeralda","29.5817","-104.4619","187","Mexico"
"Jaltipan de Morelos","17.9703","-94.7144","41644","Mexico"
"Santa Rosalia","27.3389","-112.2669","14160","Mexico"
"San Juan Diuxi","17.2806","-97.3736","1071","Mexico"
"Santa Catarina Yosonotu","16.9833","-97.6500","1556","Mexico"
"San Pedro Huamelula","16.0167","-95.6667","10014","Mexico"
"Rafael Lucio","19.5922","-96.9819","8068","Mexico"
"Acalmani","17.0881","-99.1164","940","Mexico"
"Acalmani","16.8161","-98.5056","728","Mexico"
"Grajales","19.2500","-97.7833","14159","Mexico"
"Santa Maria Yucuhiti","17.0167","-97.7667","6048","Mexico"
"Atoyac de Alvarez","17.2000","-100.4333","20515","Mexico"
"San Miguel Totocuitlapilco","19.2289","-99.5942","377","Mexico"
"Chiquilistlan","20.0856","-103.8939","6102","Mexico"
"Huacasco","22.2142","-103.0949","301","Mexico"
"El Sargento","24.0812","-109.9932","958","Mexico"
"Santiago Chazumba","18.1889","-97.6806","4371","Mexico"
"Calkini","20.3667","-90.0500","14934","Mexico"
"Otates","19.5203","-96.7150","1608","Mexico"
"Escuintla","15.3194","-92.6583","107638","Mexico"
"Cotija de la Paz","19.8100","-102.7047","19018","Mexico"
"Calpulalpan","19.5869","-98.5683","33263","Mexico"
"Palizada","18.2546","-92.0915","3089","Mexico"
"San Juan Chicomezuchitl","17.2833","-96.5000","330","Mexico"
"Zapotlanejo","20.6228","-103.0689","68519","Mexico"
"Sitilpech","20.9397","-88.9572","1799","Mexico"
"Temozon","20.8042","-88.2028","6553","Mexico"
"Piedras Negras","28.7000","-100.5231","163595","Mexico"
"Ocatlan","19.3167","-98.2283","22082","Mexico"
"Guasave","25.5744","-108.4706","71196","Mexico"
"El Tezal","22.9042","-109.8917","878","Mexico"
"Metztitlan","20.6000","-98.7667","20123","Mexico"
"Cuquio","20.9275","-103.0239","17980","Mexico"
"Tumbiscatio de Ruiz","18.5167","-102.3830","6947","Mexico"
"Nuevo Ideal","24.8875","-105.0728","10876","Mexico"
"Algodones","32.7153","-114.7289","5474","Mexico"
"Santa Maria Jalapa del Marques","16.4401","-95.4434","13148","Mexico"
"Ilamatlan","20.7833","-98.4500","13474","Mexico"
"San Pablo Villa de Mitla","16.9170","-96.4000","7547","Mexico"
"Chinampa de Gorostiza","21.3667","-97.7333","16741","Mexico"
"Santa Catarina Quiane","16.8833","-96.7333","1931","Mexico"
"Lagunillas","20.3397","-103.9958","106","Mexico"
"Purisima de Bustos","21.0333","-101.8667","68795","Mexico"
"Tohopku","20.6539","-88.4639","541","Mexico"
"Guachochi","26.8194","-107.0700","14513","Mexico"
"Santiago Yaitepec","16.2167","-97.2667","4352","Mexico"
"Leona Vicario","20.9922","-87.2028","6517","Mexico"
"Coatepec Harinas","18.9000","-99.7167","31860","Mexico"
"Kancab","20.1944","-89.3456","2819","Mexico"
"Coalcoman de Vazquez Pallares","18.7771","-103.1596","10715","Mexico"
"Zapopan","20.7167","-103.4000","1155790","Mexico"
"Ixtlan de Juarez","17.3306","-96.4872","2718","Mexico"
"Villanueva","22.3536","-102.8831","32835","Mexico"
"Huasabas","29.9000","-109.3000","966","Mexico"
"Cuauhtemoc","19.3281","-103.6028","7513","Mexico"
"San Vicente Lachixio","16.7000","-97.0167","2961","Mexico"
"Gomez Farias","29.3583","-107.7361","5330","Mexico"
"Guadalupe Victoria","19.2833","-97.3333","16923","Mexico"
"Naucalpan de Juarez","19.4753","-99.2378","833779","Mexico"
"Santos Reyes Papalo","17.8167","-96.8500","2600","Mexico"
"Cuncunul","20.6414","-88.2961","1314","Mexico"
"San Isidro de Elguera","20.5714","-100.8826","1712","Mexico"
"San Jeronimo Sosola","17.3667","-97.0333","2517","Mexico"
"Heroica Guaymas","27.9183","-110.8989","134153","Mexico"
"Ziracuaretiro","19.4189","-101.9088","17394","Mexico"
"San Miguel Ixitlan","18.0000","-97.7667","477","Mexico"
"La Joya","19.6101","-97.0256","1360","Mexico"
"Villahermosa","17.9892","-92.9281","640359","Mexico"
"San Pedro Yucunama","17.5500","-97.4833","236","Mexico"
"El Limon","19.7500","-104.0167","5379","Mexico"
"Ciudad Santa Catarina","25.6833","-100.4500","259896","Mexico"
"Villa de Alvarez","19.2500","-103.7333","117600","Mexico"
"Xochitlan Todos Santos","18.7007","-97.7766","6336","Mexico"
"Santiago Tillo","17.4500","-97.3167","523","Mexico"
"Tixtla de Guerrero","17.5667","-99.4000","21720","Mexico"
"San Antonino Monteverde","17.5322","-97.7208","7305","Mexico"
"Higuera de Zaragoza","25.9500","-109.2833","8976","Mexico"
"Praxedis G. Guerrero","31.3728","-106.0056","2128","Mexico"
"San Nicolas","24.6833","-98.8167","87","Mexico"
"San Andres Timilpan","19.8667","-99.7333","14335","Mexico"
"Atenco","19.5167","-98.9167","42739","Mexico"
"Zoogocho","17.2375","-96.2433","334","Mexico"
"Nueva Italia de Ruiz","19.0194","-102.1089","32467","Mexico"
"Javier Rojo Gomez","19.7997","-87.4764","469","Mexico"
"Cosamaloapan","18.3667","-95.8000","57147","Mexico"
"San Miguel Quetzaltepec","16.9667","-95.8167","8119","Mexico"
"Guazapares","27.3714","-108.2811","187","Mexico"
"San Bartolome Loxicha","15.9667","-96.7000","2337","Mexico"
"Jamay","20.2944","-102.7097","24753","Mexico"
"Sahuayo de Morelos","20.0575","-102.7239","78477","Mexico"
"Cardenas","22.0103","-99.6522","15331","Mexico"
"Cenotillo","20.9656","-88.6025","3272","Mexico"
"Ejutla","19.9000","-104.1500","1862","Mexico"
"Uci","21.1256","-89.2697","1224","Mexico"
"Ocampo","19.5831","-100.3389","3799","Mexico"
"Metepec","19.2511","-99.6047","206005","Mexico"
"Navojoa","27.0813","-109.4461","157729","Mexico"
"Cuchillo Parado","29.4414","-104.8761","124","Mexico"
"Halacho","20.4764","-90.0819","9412","Mexico"
"Magdalena Penasco","17.2333","-97.5500","3381","Mexico"
"Satevo","27.9542","-106.1064","445","Mexico"
"Satevo","26.9936","-107.7147","188","Mexico"
"El Cuyo","21.5158","-87.6783","1567","Mexico"
"San Jose de Guanajuato","20.5567","-100.8928","2500","Mexico"
"Mani","20.3833","-89.4000","4146","Mexico"
"Puerto Vallarta","20.6667","-105.2667","221200","Mexico"
"Asuncion Ocotlan","16.7589","-96.7189","2550","Mexico"
"Calihuala","17.5333","-98.2833","1182","Mexico"
"San Blas Atempa","16.3167","-95.2167","18406","Mexico"
"San Jose del Cabo","23.0614","-109.7081","93069","Mexico"
"Jamapa","19.0400","-96.2400","9772","Mexico"
"Tomatlan","19.0293","-97.0095","6869","Mexico"
"Santa Maria Guelace","17.0000","-96.6000","813","Mexico"
"La Resolana","19.6031","-104.4362","21584","Mexico"
"Calotmul","21.0189","-88.1769","2764","Mexico"
"Doctor Porfiria Parra","31.4256","-106.1411","956","Mexico"
"General Simon Bolivar","24.6833","-103.2167","1321","Mexico"
"La Grandeza","15.5333","-92.2333","7057","Mexico"
"Magdalena Tlacotepec","16.5040","-95.2033","1220","Mexico"
"Candela","26.8333","-100.6667","1672","Mexico"
"Santo Domingo Petapa","16.8167","-95.1333","9157","Mexico"
"Paredon","25.9475","-100.9336","1165","Mexico"
"Cozumel","20.5104","-86.9493","77236","Mexico"
"Santiago Cacaloxtepec","17.7167","-97.7333","1441","Mexico"
"San Sebastian Ixcapa","16.5333","-98.1000","4072","Mexico"
"Jiutepec","18.8833","-99.1667","153704","Mexico"
"Tunkas","20.9025","-88.7514","2828","Mexico"
"Petatlan","17.5383","-101.2739","44485","Mexico"
"Tepetlapa","17.6667","-98.3833","472","Mexico"
"Tepetlapa","17.7819","-97.4008","114","Mexico"
"Totolapan","18.9869","-98.9197","10790","Mexico"
"Victoria","21.2122","-100.2144","17764","Mexico"
"Cuetzalan","20.0333","-97.5167","47983","Mexico"
"Tecoh","20.7419","-89.4744","9134","Mexico"
"San Pedro Tidaa","17.3333","-97.3833","873","Mexico"
"Los Reyes","18.6743","-97.0385","5830","Mexico"
"Dzibikak","20.9025","-89.7942","1388","Mexico"
"Tuzamapan","20.0833","-97.5667","6314","Mexico"
"Tlalnepantla","19.0100","-99.0000","7166","Mexico"
"Tulancingo","20.0833","-98.3667","151582","Mexico"
"Ixhuatlan del Sureste","18.0170","-94.3800","15800","Mexico"
"Mococha","21.1056","-89.4514","2042","Mexico"
"Solferino","21.3522","-87.4289","799","Mexico"
"Nuevo Laredo","27.4861","-99.5069","373725","Mexico"
"Cajurichic","28.1011","-108.1372","781","Mexico"
