"city","lat","lng","population", "country"
"Oulad Embarek","32.2878","-6.4328","19774","Morocco"
"Karia Ba Mohamed","34.3631","-5.2123","18762","Morocco"
"Afso","34.8325","-3.1767","2932","Morocco"
"Had Kourt","34.6167","-5.7333","7843","Morocco"
"Laatatra","32.6314","-8.4147","17593","Morocco"
"El Ghourdane","32.3400","-8.7728","11291","Morocco"
"Timzguida Ouftas","30.9908","-9.7994","5189","Morocco"
"Tifirt -n- Ait Hamza","32.3000","-5.9667","3499","Morocco"
"Tamezmout","30.8075","-6.1142","11697","Morocco"
"Ouardana","35.0708","-3.4217","7120","Morocco"
"Ifrane","33.5333","-5.1167","14659","Morocco"
"Nzalat Laadam","32.0806","-7.9300","14838","Morocco"
"Tilemsoun","28.2523","-11.0496","1015","Morocco"
"Guenfouda","34.4836","-2.0456","5591","Morocco"
"Teroual","34.6667","-5.2667","12621","Morocco"
"Bine Al Widane","32.1083","-6.4750","5421","Morocco"
"Tigzmert","29.7131","-7.9711","3916","Morocco"
"Sidi Lmokhtar","31.5700","-9.0100","22714","Morocco"
"Akka Irene","29.9919","-7.5322","6452","Morocco"
"Lalla Mimouna","34.8500","-6.0669","29479","Morocco"
"Esbiaat","32.2044","-8.5608","14986","Morocco"
"Sabbah","33.8201","-7.0334","15029","Morocco"
"Douar Oulad Amer Leqliaa","32.2536","-8.3972","5150","Morocco"
"Oulad Daoud","34.4058","-4.6939","11978","Morocco"
"Sidi Harazem","34.0278","-4.8833","5622","Morocco"
"Douar Tassift","35.5099","-5.2263","7363","Morocco"
"Argana","30.7788","-9.1259","4804","Morocco"
"Ouirgane","31.1755","-8.0782","7727","Morocco"
"Amersid","32.7500","-4.4667","5857","Morocco"
"Ichemrarn","31.0961","-9.1700","7023","Morocco"
"Tarhzirt","32.4333","-6.1833","19936","Morocco"
"Oued Jdida","33.9333","-5.3667","14935","Morocco"
"Zag","28.0167","-9.3333","12763","Morocco"
"Oualidia","32.7333","-9.0167","7770","Morocco"
"Abadou","31.5792","-7.3131","10602","Morocco"
"Sidi Qacem","34.2100","-5.7000","75672","Morocco"
"Missour","33.0500","-3.9908","25584","Morocco"
"Sidi Jaber","32.3833","-6.4167","20432","Morocco"
"Saidat","31.3442","-8.7053","6427","Morocco"
"Takoucht","29.9581","-9.1119","1368","Morocco"
"Tiglit","28.5075","-10.2922","930","Morocco"
"Sidi Rahhal","31.6667","-7.4833","9906","Morocco"
"Douar Hammadi","31.6043","-8.4688","14227","Morocco"
"Meknassa Tahtania","34.2806","-4.0750","3890","Morocco"
"Aknoul","34.6500","-3.8667","4403","Morocco"
"Tlet El Hanchane","31.5197","-9.4339","4965","Morocco"
"Ouaklim Oukider","31.4500","-5.5500","11338","Morocco"
"Talambote","35.2500","-5.1833","8481","Morocco"
"Sidi Bou Othmane","31.9033","-7.9422","9181","Morocco"
"Boudenib","31.9505","-3.5973","11373","Morocco"
"Lemsid","26.5404","-13.8477","572","Morocco"
"Ain Beida","31.5850","-8.6080","11978","Morocco"
"Beni Oulid","34.5897","-4.4514","10324","Morocco"
"Souq at Tlata des Loulad","32.9833","-7.1333","6057","Morocco"
"Timsiyane","30.1647","-8.5469","2338","Morocco"
"Tamsaout","29.5333","-8.8500","13711","Morocco"
"Timoulay Izder","29.1228","-9.5992","5325","Morocco"
"Talat-n-Ya'qoub","30.9903","-8.1772","7866","Morocco"
"Douar Ezzerarda","34.7667","-5.8333","9249","Morocco"
"Ben Guerir","32.2300","-7.9500","88626","Morocco"
"Ida Ou Moumene","30.5983","-9.0025","6105","Morocco"
"Douar Rislane El Fouqiya","34.7583","-2.4311","4265","Morocco"
"Douar Tazrout","35.2631","-5.5453","5974","Morocco"
"Amdel","31.5617","-8.8944","11438","Morocco"
"Sidi Bousber","34.5628","-5.3621","10528","Morocco"
"Oued El Makhazine","34.9333","-5.8500","7266","Morocco"
"Moulay Driss Zerhoun","34.0559","-5.5183","11615","Morocco"
"Imi n'Oulaoun","31.3094","-6.4992","21061","Morocco"
"Tafersit","35.0192","-3.5684","9133","Morocco"
"Loudaya","31.6507","-8.3021","33767","Morocco"
"Oulad Zarrad","31.8750","-7.4217","5606","Morocco"
"Timahdit","33.2517","-5.0259","10945","Morocco"
"Ajdir","35.1930","-3.9120","5314","Morocco"
"Touama","31.5339","-7.4872","11243","Morocco"
"Madagh","35.0103","-2.3370","14486","Morocco"
"Ighrem n'Ougdal","31.2282","-7.4237","14804","Morocco"
"Oulad Aissa","30.5580","-8.6140","12331","Morocco"
"Lahouarta","32.9139","-7.7019","7394","Morocco"
"Assaksi","32.2333","-6.2833","1674","Morocco"
"Adis","29.6919","-7.9856","6511","Morocco"
"Souq Jamaa Fdalate","33.5911","-7.2792","11966","Morocco"
"Ain Taoujdat","33.9333","-5.2167","28288","Morocco"
"Ksar El Kebir","35.0000","-5.9000","126617","Morocco"
"Imilchil","32.1550","-5.6347","8870","Morocco"
"Tilougguit","32.0333","-6.2000","10544","Morocco"
"Oulad Messaoud","32.1883","-7.1808","5011","Morocco"
"Jbarna","34.4939","-3.9117","2730","Morocco"
"Knemis Dades","31.3090","-6.0280","17045","Morocco"
"Assoul","31.9458","-5.2083","7165","Morocco"
"Et Tnine des Beni Ammart","34.8119","-4.1581","6654","Morocco"
"Tichla","21.6100","-15.0000","5743","Morocco"
"Oulad Slim","32.7775","-7.7725","10410","Morocco"
"Midar","34.9500","-3.5333","15021","Morocco"
"Tamallalt","31.8288","-7.5262","16539","Morocco"
"Oulad Yaich","32.4167","-6.3333","27476","Morocco"
"Jouamaa","35.6500","-5.6833","7711","Morocco"
"Tinzart","30.6167","-7.7500","5902","Morocco"
"El Aouina Souatar","31.8503","-2.9650","1006","Morocco"
"Lalla Takerkoust","31.3669","-8.1331","7311","Morocco"
"Anazzou","30.6333","-8.0500","15429","Morocco"
"Ayt Mazigh","32.0747","-6.3517","3330","Morocco"
"Inezgane","30.3658","-9.5381","130333","Morocco"
"Fask","28.9906","-9.8361","3943","Morocco"
"Amizmiz","31.2100","-8.2500","21445","Morocco"
"Bni Darkoul","35.0563","-5.0688","14779","Morocco"
"Khat Azakane","32.2236","-9.1278","16014","Morocco"
"Souk Tlet El Gharb","34.6211","-6.1336","22554","Morocco"
"Laghzawna","33.1914","-7.6701","9315","Morocco"
"Moul El Bergui","32.5228","-8.9986","15342","Morocco"
"Tafraout","29.7167","-8.9667","6345","Morocco"
"Fes","34.0433","-5.0033","1112072","Morocco"
"Dzouz","31.8697","-7.3097","11501","Morocco"
"Bigoudine","30.7185","-9.2101","5131","Morocco"
"Laanoussar","33.6833","-4.8167","8501","Morocco"
"Al Khmissat","33.8100","-6.0600","131542","Morocco"
"Zaouiat Moulay Bouchta El Khammar","34.4833","-5.1167","14347","Morocco"
"Ait Hadi","31.3942","-8.7725","7431","Morocco"
"Imi Mokorn","30.1675","-9.2322","10748","Morocco"
"Oum Azza","33.8808","-6.7858","6197","Morocco"
"Tilmi","31.8189","-5.7718","11372","Morocco"
"Moulay Bouzarqtoune","31.6500","-9.6833","6069","Morocco"
"Oulad Teima","30.4000","-9.2100","89387","Morocco"
"Toulal","32.3037","-3.9861","19077","Morocco"
"Souk et Tnine Jorf el Mellah","34.4833","-5.5169","28681","Morocco"
"Agourai","33.6333","-5.5833","16651","Morocco"
"Askawn","30.7687","-7.7729","7458","Morocco"
"Tazarine","30.6100","-8.0100","15169","Morocco"
"Fritissa","33.6167","-3.5500","29460","Morocco"
"Douar Olad. Salem","32.8739","-8.8589","24775","Morocco"
"Al Brouj","32.5000","-7.2000","19235","Morocco"
"Douar Trougout","35.1797","-3.7714","11458","Morocco"
"Bourdoud","34.5922","-4.5492","26236","Morocco"
"Douar Oulad Amer","32.0697","-7.2142","7015","Morocco"
"Tamorot","34.9333","-4.7833","26748","Morocco"
"Mzizal","32.2269","-4.6475","7388","Morocco"
"Galaz","34.5500","-4.8000","17333","Morocco"
"El Kansera","34.0419","-5.9272","13209","Morocco"
"Ouijjane","29.6333","-9.5500","4938","Morocco"
"El Amim","32.2064","-7.2431","9454","Morocco"
"Sidi el Mokhfi","34.6039","-4.7889","16709","Morocco"
"Mejji","31.5500","-9.3500","6750","Morocco"
"Toundout","31.2647","-6.5906","10606","Morocco"
"Izmorene","35.1833","-4.0000","5153","Morocco"
"Za'roura","35.2167","-5.6667","10137","Morocco"
"Oulad Ben Sebbah","33.2692","-7.2678","7606","Morocco"
"Milla'ab","31.5319","-4.8061","17360","Morocco"
"Tadrart","30.7710","-9.4612","4530","Morocco"
"Foum Zguid","30.0861","-6.8736","8986","Morocco"
"Tifni","31.6281","-6.9444","11760","Morocco"
"Laamarna","31.8944","-8.9842","12717","Morocco"
"Tamgrout","30.2612","-5.6820","21603","Morocco"
"Chefchaouene","35.1714","-5.2697","42786","Morocco"
"Itzer","32.8808","-5.0542","10613","Morocco"
"Brikcha","34.9667","-5.5833","10399","Morocco"
"Qasbat Tadla","32.6000","-6.2600","47343","Morocco"
"Ait Bousarane","31.7917","-7.0926","19501","Morocco"
"Dhar Souk","34.6519","-4.2786","5182","Morocco"
"Moulay Bou 'azza","33.2565","-6.1319","8490","Morocco"
"El Ghiate","32.0331","-9.1625","25162","Morocco"
"Taza","35.0639","-5.2025","28713","Morocco"
"Taza","34.2144","-4.0088","148456","Morocco"
"Tazouta","33.6667","-4.6333","6227","Morocco"
"Sidi Kaouki","31.3556","-9.7972","4625","Morocco"
"Barrechid","33.2700","-7.5872","136634","Morocco"
"Azrar","30.1702","-7.9234","5038","Morocco"
"Lakhzazra","33.0333","-7.0500","8582","Morocco"
"Ait Youssef Ou Ali","31.9833","-5.7833","12673","Morocco"
"Laqraqra","32.4333","-7.4333","11419","Morocco"
"Tafraoutane","30.7047","-8.8819","7999","Morocco"
"Demnat","31.7311","-7.0361","29504","Morocco"
"Sidi Lahsene","34.0999","-2.6219","9259","Morocco"
"Temsia","30.3633","-9.4144","40780","Morocco"
"Mediouna","33.4500","-7.5100","34250","Morocco"
"Oum el Gourdane","29.6517","-7.9581","3370","Morocco"
"Asjen","34.8500","-5.6167","13139","Morocco"
"Tatoufet","35.0339","-5.7706","9527","Morocco"
"Douar Jwalla","31.8878","-7.4411","11168","Morocco"
"Souakene","35.1167","-5.9500","12632","Morocco"
"Ait Yaazem","33.7333","-5.5833","16091","Morocco"
"Oulad Aissa","32.9464","-6.4342","5845","Morocco"
"Tamri","30.7000","-9.8333","18577","Morocco"
"Oulad Friha","32.6108","-7.6250","11581","Morocco"
"Dar El Kebdani","35.1203","-3.3322","9911","Morocco"
"Ait Faska","31.5058","-7.7161","26210","Morocco"
"Beni Enzar","35.2569","-2.9342","56582","Morocco"
"Abeinou","29.0983","-10.0000","2422","Morocco"
"Mrirt","33.1667","-5.5667","42730","Morocco"
"Ouaouzgane","35.0167","-4.5167","16772","Morocco"
"Mohammedia","33.6833","-7.3833","208612","Morocco"
"Ait Hani","31.7483","-5.5735","10587","Morocco"
"Kariat Ben Aouda","34.7667","-5.9500","11087","Morocco"
"Iaboutene","35.0670","-3.9670","8715","Morocco"
"Bni Quolla","34.7381","-5.5442","16049","Morocco"
"Tanant","31.8667","-6.9500","10706","Morocco"
"Fezouane","34.9164","-2.2042","5089","Morocco"
"Ain Mediouna","34.5000","-4.5500","15770","Morocco"
"Tafingoult","30.7667","-8.3833","6635","Morocco"
"Agdz","30.6978","-6.4497","10681","Morocco"
"Tahlouant","31.2014","-9.3053","3919","Morocco"
"Bouznika","33.7894","-7.1597","37238","Morocco"
"Mayate","32.2719","-7.5250","12101","Morocco"
"Agadir Melloul","30.2249","-7.7960","8848","Morocco"
"Zagora","30.3316","-5.8376","40067","Morocco"
"Boureit","34.9833","-4.9167","25872","Morocco"
"El Jadid","33.2566","-8.5025","180470","Morocco"
"Tawnza","32.0944","-6.6025","11488","Morocco"
"Bezou","32.0833","-7.0500","14072","Morocco"
"Kourimat","31.4569","-9.3131","9897","Morocco"
"Nkheila","32.9572","-7.0731","12306","Morocco"
"Oulad Hassoune","31.6503","-7.8361","23475","Morocco"
"Oulad Hassoune","32.3217","-7.8964","7662","Morocco"
"Tizi Nisly","32.4667","-5.7667","11918","Morocco"
"Tafetachte","31.5853","-9.2519","7293","Morocco"
"Azgour","31.3500","-7.5000","6865","Morocco"
"Tnine Sidi Lyamani","35.3700","-5.9700","10365","Morocco"
"Oulad Hamdane","32.3412","-6.3725","11577","Morocco"
"Tiyghmi","29.5875","-9.4063","6396","Morocco"
"Ait Melloul","30.3342","-9.4972","171847","Morocco"
"Oukaimedene","31.2052","-7.8623","4861","Morocco"
"Walqadi","30.2464","-8.4794","2146","Morocco"
"Tahannawt","31.3514","-7.9508","12102","Morocco"
"Azemmour","33.2833","-8.3333","40920","Morocco"
"Douar Souk L`qolla","35.0717","-5.5703","14965","Morocco"
"Aghbala","32.4817","-5.6427","12781","Morocco"
"Bni Khloug","32.6500","-7.3833","12930","Morocco"
"Laghdir","35.7333","-5.8833","7284","Morocco"
"Sebt Gzoula","32.1167","-9.0833","18543","Morocco"
"Had Dra","31.5833","-9.5333","8989","Morocco"
"Gtarna","32.9608","-7.9222","9084","Morocco"
"Ain Erreggada","34.9289","-2.2381","2694","Morocco"
"Ayn Qicher","32.7294","-6.5861","4609","Morocco"
"Ait Youl","31.4167","-6.0000","4870","Morocco"
"Oulad Fares","35.5167","-5.9333","12341","Morocco"
"Oulad Said","32.6320","-8.8456","25650","Morocco"
"Tizi Ouzli","34.7625","-3.7953","6639","Morocco"
"Khmis Sidi al 'Aydi","33.1228","-7.6219","13839","Morocco"
"Douar Azla","35.5317","-5.2885","16128","Morocco"
"Ait Bouchta","35.1033","-3.8383","18271","Morocco"
"Labiar","28.8103","-10.4250","546","Morocco"
"Ain Kansara","34.1500","-4.8314","12291","Morocco"
"Setti Fatma","31.2256","-7.6758","24129","Morocco"
"Casablanca","33.5992","-7.6200","4370000","Morocco"
"Skhirate","33.8500","-7.0300","59775","Morocco"
"Taouz","30.9069","-3.9958","6792","Morocco"
"Sidi Allal Tazi","34.5197","-6.3236","18055","Morocco"
"Ait Majdane","31.8514","-6.9658","17572","Morocco"
"Bni Idder","35.4348","-5.5328","4823","Morocco"
"Malloussa","35.7333","-5.6333","12250","Morocco"
"Sidi Bettach","33.5667","-6.8936","6927","Morocco"
"Imouzzer des Marmoucha","33.4667","-4.2833","4213","Morocco"
"Ghouazi","34.4667","-5.3000","18081","Morocco"
"Iksane","35.1333","-3.0333","8417","Morocco"
"Tanakoub","35.1091","-5.4577","9236","Morocco"
"Mestigmer","34.4868","-2.6883","6469","Morocco"
"Ijoukak","30.9931","-8.1528","6700","Morocco"
"Sidi Bibi","30.2333","-9.5333","39042","Morocco"
"Ez Zinat","35.6519","-5.7328","5153","Morocco"
"Ribat Al Khayr","33.8184","-4.4106","16739","Morocco"
"Zinat","35.4333","-5.4000","7669","Morocco"
"Ounagha","31.5336","-9.5536","12461","Morocco"
"Al M'aziz","33.7039","-6.3400","11502","Morocco"
"Tizgane","35.4136","-5.0694","12773","Morocco"
"Oulad Zemam","32.3500","-6.6333","33652","Morocco"
"Debdou","33.9858","-3.0511","4960","Morocco"
"Sidi Redouane","34.6833","-5.4500","19169","Morocco"
"Ait Wa'rda","32.1314","-6.5283","1644","Morocco"
"Douar Tabouda","34.7167","-5.1333","16618","Morocco"
"Aferkert","28.6700","-10.3041","1460","Morocco"
"Talmest","31.5083","-8.5175","4328","Morocco"
"Tiouli","34.4542","-1.8986","5199","Morocco"
"Sidi Lamine","32.9000","-6.0500","16808","Morocco"
"Bou Djeniba","32.9000","-6.7833","16030","Morocco"
"El Meghassine","34.0142","-5.4619","8001","Morocco"
"Ait Amar","33.8500","-5.0667","11946","Morocco"
"Tidzi","31.0000","-7.4167","4057","Morocco"
"Tangier","35.7767","-5.8039","947952","Morocco"
"Figuig","32.1167","-1.2269","10872","Morocco"
"Zawyat Sidi Hamza","32.4403","-4.7114","5454","Morocco"
"Azrou","33.4300","-5.2100","54350","Morocco"
"La'tamna","31.9117","-7.3350","10063","Morocco"
"Zawyat Sidi Ben Hamdoun","33.0450","-7.9292","9521","Morocco"
"Ida Ou Azza","31.1533","-9.7333","7923","Morocco"
"Tissint","29.9000","-7.3167","9434","Morocco"
"Ait Ouaoumana","32.7128","-5.8042","8849","Morocco"
"Outat Oulad Al Haj","33.3456","-3.6939","16388","Morocco"
"Ad Darwa","33.4167","-7.5333","47719","Morocco"
"Mrizig","32.8467","-7.1319","8376","Morocco"
"Meknes","33.8833","-5.5500","520428","Morocco"
"Imigdal","31.1097","-8.1336","5467","Morocco"
"Ain Lehjer","34.5949","-2.3720","8272","Morocco"
"Smimou","31.2136","-9.7058","8026","Morocco"
"Mechraa Bel Ksiri","34.5787","-5.9630","31497","Morocco"
"Oulad Rahal","32.9175","-7.2652","8697","Morocco"
"Sidi Rahal","33.4725","-7.9617","20628","Morocco"
"Sahel","34.9667","-4.5500","17496","Morocco"
"Taghbalt","30.6281","-5.3556","10054","Morocco"
"Laaouama","35.7167","-5.8000","8013","Morocco"
"Mirleft","29.5782","-10.0340","8162","Morocco"
"Asni","31.2500","-7.9792","21244","Morocco"
"Iazizatene","35.2544","-3.1150","11131","Morocco"
"Zoumi","34.8032","-5.3446","40661","Morocco"
"Chtiba","32.2000","-7.3000","9122","Morocco"
"Taouloukoult","31.2167","-9.0833","10682","Morocco"
"Targuist","34.9402","-4.3208","13390","Morocco"
"Tourza","29.3885","-9.9607","10577","Morocco"
"Essaouira","31.5130","-9.7687","77966","Morocco"
"Tafrant","34.6250","-5.1242","14246","Morocco"
"Tagounite","29.9833","-5.5667","17103","Morocco"
"Zaouia Ait Ishak","32.7600","-5.7233","19133","Morocco"
"Skhour Rehamna","32.4833","-7.9167","15479","Morocco"
"Foum el Anser","32.3717","-6.2614","18412","Morocco"
"Souq Sebt Says","32.7772","-8.6433","10488","Morocco"
"Sidi Ouassay","30.0500","-9.6833","9087","Morocco"
"Ain Bida","33.9856","-4.8931","7843","Morocco"
"Aourir","30.4833","-9.6333","36948","Morocco"
"Lamzoudia","31.5833","-8.4833","25674","Morocco"
"Aghbal","34.9382","-2.1455","14908","Morocco"
"Oulad Imloul","32.0333","-7.7167","9614","Morocco"
"Timezgadiouine","30.8833","-9.0500","7825","Morocco"
"Sidi 'Ali Bou Aqba","34.8167","-3.7286","8083","Morocco"
"Dar Chaoui","35.5772","-5.7635","4303","Morocco"
"Douar Bouchfaa","34.1014","-4.2939","10724","Morocco"
"Sabaa Aiyoun","33.8969","-5.3611","26277","Morocco"
"Lahfayr","30.5700","-8.4878","11374","Morocco"
"Sour Al 'Az","31.8317","-7.0275","3850","Morocco"
"Midalt","32.6800","-4.7400","55304","Morocco"
"Douar Lehouifrat","32.2800","-8.3100","9705","Morocco"
"Nkob","30.8722","-5.8639","7209","Morocco"
"Douar Oulad Bou Krae El Fouqani","31.5617","-8.8944","5944","Morocco"
"Tit Mellil","33.5581","-7.4858","32782","Morocco"
"Sidi Ahmed El Khadir","32.5167","-7.3833","9687","Morocco"
"Bab Boudir","34.0697","-4.1203","5082","Morocco"
"Oulad Rahmoun","32.3278","-6.5006","12720","Morocco"
"Wawizaght","32.1600","-6.3500","14570","Morocco"
"Assais","30.9131","-9.2439","6915","Morocco"
"Tarfaya","27.9133","-12.9317","8027","Morocco"
"Mograne","34.4167","-6.4333","31292","Morocco"
"Bouskoura","33.4489","-7.6486","103026","Morocco"
"Msemrir","31.7025","-5.8119","8866","Morocco"
"Ar Rommani","33.5333","-6.6000","12297","Morocco"
"Mibladane","32.7667","-4.6333","3084","Morocco"
"Ksar Sghir","35.8419","-5.5586","12997","Morocco"
"Ain Cheggag","33.8833","-5.0333","20456","Morocco"
"Zerkat","34.8819","-4.2803","6691","Morocco"
"Bir Anzarane","23.8883","-14.5306","6244","Morocco"
"El Marmouta","32.0989","-7.3861","8774","Morocco"
"Akka","29.3908","-8.2564","6870","Morocco"
"Afourar","32.2083","-6.5403","21382","Morocco"
"Arbaoua","34.9000","-5.9167","32690","Morocco"
"Anergui","32.0661","-5.9369","3570","Morocco"
"Guercif","34.2300","-3.3600","90880","Morocco"
"Temsamane","35.1223","-3.6373","13920","Morocco"
"Al Orjane","33.4000","-3.7167","7740","Morocco"
"Bouarouss","34.3667","-4.8167","18147","Morocco"
"Bou Zemou","32.1114","-5.5197","9583","Morocco"
"Ezzhiliga","33.3000","-6.5333","15430","Morocco"
"Tleta Taghramt","35.7878","-5.4678","8706","Morocco"
"Asrir","28.9260","-10.0000","3566","Morocco"
"Bni Abdellah","35.0728","-4.0706","5983","Morocco"
"Tendrara","33.0500","-2.0000","15390","Morocco"
"Douar Drissiine","32.0242","-7.2811","7143","Morocco"
"Kenafif","30.4167","-9.0333","9936","Morocco"
"Chouafaa","34.7667","-6.0500","18436","Morocco"
"Douar Oulad Naoual","34.4936","-5.7108","11371","Morocco"
"Tarhjicht","29.0565","-9.4280","9988","Morocco"
"Gharbia","35.5153","-5.9306","12274","Morocco"
"Sale","34.0500","-6.8167","850403","Morocco"
"Ras Tabouda","34.0000","-4.7167","6388","Morocco"
"Al Qbab","32.7419","-5.5231","16157","Morocco"
"Errachidia","31.9319","-4.4244","92374","Morocco"
"Selouane","35.0708","-2.9392","21570","Morocco"
"Beni Oual Sehira","34.4333","-5.4000","7485","Morocco"
"Ida Ou Gailal","30.6377","-8.6315","6436","Morocco"
"Jafra","31.5145","-8.7555","10896","Morocco"
"Sidi Chiker","31.7453","-8.7069","20658","Morocco"
"Bir Ennasr","33.3400","-6.9156","4855","Morocco"
"Ikniwn","31.1717","-5.6489","18235","Morocco"
"Ain Chair","32.2140","-2.5198","1554","Morocco"
"Kef el Rhar","34.5329","-4.2941","8104","Morocco"
"Sidi Yahia El Gharb","34.3058","-6.3058","37979","Morocco"
"Bou Arfa","32.5310","-1.9631","28846","Morocco"
"Lamrasla","32.0247","-8.9153","18335","Morocco"
"Oulmes","33.4167","-6.0167","18786","Morocco"
"Ait Mzal","30.2833","-9.1167","3814","Morocco"
"Mezguitem","34.5019","-3.6428","8087","Morocco"
"Oulad Driss","31.9536","-8.2053","14716","Morocco"
"Laouamra","35.0656","-6.0939","40605","Morocco"
"Talatane","30.8511","-8.9328","4004","Morocco"
"Sgamna","32.7342","-7.2033","10245","Morocco"
"Aj Jourf","31.4903","-4.4014","12302","Morocco"
"Tafoughalt","34.8056","-2.4114","2735","Morocco"
"Tiztoutine","34.9833","-3.1500","9788","Morocco"
"Zawyat an Nwacer","33.3611","-7.6114","23802","Morocco"
"Echemmaia Est","32.0705","-8.6532","24303","Morocco"
"Ait Chekrane","34.9500","-3.9833","4761","Morocco"
"Bou'nane","32.0275","-3.0397","10035","Morocco"
"Sidi Allal el Bahraoui","33.9830","-6.4170","15866","Morocco"
"Zug","21.5500","-14.1500","0","Morocco"
"Arazane","30.5035","-8.6064","7999","Morocco"
"Ain Zora","34.6575","-3.5331","10601","Morocco"
"Gafayt","34.2339","-2.2822","2656","Morocco"
"Bou Ahmed","33.1119","-7.4058","33105","Morocco"
"Toumliyliyne","29.9531","-8.7428","2131","Morocco"
"Ksebia","34.2933","-6.1594","27059","Morocco"
"Taroudannt","30.4711","-8.8778","80149","Morocco"
"Tizoual","30.9925","-7.8167","8489","Morocco"
"Imi-n-Tanout","31.1770","-8.8504","20837","Morocco"
"Aghbalou n'Kerdous","31.7611","-5.3169","10313","Morocco"
"Arfoud","31.4361","-4.2328","29279","Morocco"
"Asilah","35.4667","-6.0333","31147","Morocco"
"Jamaat Shaim","32.3516","-8.8744","11251","Morocco"
"El Aargub","23.6111","-15.8583","5759","Morocco"
"Tazzarine","30.7802","-5.5663","2623","Morocco"
"Tamazouzt","31.3833","-8.3833","15846","Morocco"
"Boujad","32.7600","-6.4000","46893","Morocco"
"Tidili Masfiywat","31.4667","-7.6167","21706","Morocco"
"Agadir","30.4167","-9.5833","421844","Morocco"
"Douar Oulad Mbarek","34.2833","-4.3167","17747","Morocco"
"Zegzel","34.8407","-2.3543","16137","Morocco"
"Lambarkiyine","33.2000","-7.5000","8559","Morocco"
"Ait Malek","31.6167","-7.1333","4856","Morocco"
"Ain Jemaa","34.0263","-5.7949","15265","Morocco"
"Iguidiy","30.7467","-7.9258","9100","Morocco"
"El Mansouria","33.7500","-7.3000","19853","Morocco"
"Boudinar","35.2001","-3.6429","9863","Morocco"
"Oulad Chikh","32.8544","-7.5386","13866","Morocco"
"d'Ait 'Ammar","33.0789","-6.6639","4260","Morocco"
"Oujda-Angad","34.6900","-1.9100","409391","Morocco"
"Tirhassaline","32.7822","-5.6517","15204","Morocco"
"Imzouren","35.1448","-3.8505","33852","Morocco"
"Tarcwat","29.6000","-9.0333","2375","Morocco"
"Ben Taieb","35.0837","-3.4696","14257","Morocco"
"Ketama","34.9158","-4.5686","17351","Morocco"
"Lqoliaa","30.2942","-9.4544","83235","Morocco"
"Toufla'zt","30.0681","-8.8247","1614","Morocco"
"Jerada","34.3100","-2.1600","43506","Morocco"
"Touissite","34.4772","-1.7664","3137","Morocco"
"Ait Ikkou","33.5667","-5.6500","8865","Morocco"
"Jbabra","34.4314","-4.9642","18592","Morocco"
"Boured","34.7344","-4.0947","8434","Morocco"
"Bni Gmil","35.0675","-4.4242","9513","Morocco"
"Afella Irhir","29.5000","-8.8333","2973","Morocco"
"Bellaa","30.0314","-9.5542","27699","Morocco"
"Timlilt","31.0336","-9.1392","7078","Morocco"
"El Khemis des Beni Chegdal","32.4442","-6.9550","11444","Morocco"
"Kerrouchen","32.7986","-5.3225","7021","Morocco"
"Oulad Cherif","31.7667","-7.7833","9237","Morocco"
"Warzat","30.9167","-6.9167","71067","Morocco"
"Sa'ada","31.6258","-8.1028","67086","Morocco"
"Douar 'Ayn Dfali","33.9500","-4.4500","24241","Morocco"
"Mhamid el Rhozlane","29.8222","-5.7208","7590","Morocco"
"'Ayn Bni Mathar","34.0889","-2.0247","16289","Morocco"
"Zawyat ech Cheikh","32.6541","-5.9214","25388","Morocco"
"Imi n-Tlit","31.2156","-9.5461","8057","Morocco"
"Almis Marmoucha","33.3200","-4.1800","2461","Morocco"
"Anemz","32.3167","-5.2667","4885","Morocco"
"Aghbar","30.5167","-6.8167","5182","Morocco"
"Ouezzane","34.8000","-5.6000","59606","Morocco"
"Ait Ben Daoudi","31.6345","-7.6440","18976","Morocco"
"Sidi Ifni","29.3833","-10.1667","21618","Morocco"
"Oulad Cherki","32.3333","-7.7500","7399","Morocco"
"El Menzel","33.8389","-4.5458","12641","Morocco"
"Moulay Abdelkader","34.4000","-4.7167","7896","Morocco"
"Boumalne","31.3738","-5.9956","12328","Morocco"
"Assays","30.5981","-7.6523","6838","Morocco"
"Douar El Gouzal","34.5019","-4.1567","6575","Morocco"
"Saddina","35.6633","-5.4886","6670","Morocco"
"Sidi Yahya Ou Youssef","32.4167","-5.3833","4637","Morocco"
"Tahla","34.0476","-4.4289","27729","Morocco"
"Oulad Barhil","30.6388","-8.4732","24288","Morocco"
"Outa Bouabane","34.2606","-4.4139","9856","Morocco"
"Beni Bou Yafroun","35.1536","-2.9861","6418","Morocco"
"Douar El Mellaliyine","35.6264","-5.3414","9177","Morocco"
"Oulad Bou Rahmoun","32.2953","-6.6669","15113","Morocco"
"Biougra","30.2144","-9.3708","37933","Morocco"
"Bhalil","33.8500","-4.8667","12997","Morocco"
"Sidi Bennour","32.6550","-8.4292","55815","Morocco"
"Sebt Bni Garfett","35.2500","-5.8333","12994","Morocco"
"Ahfir","34.9514","-2.1025","19630","Morocco"
"Ratba","34.7833","-4.9333","16825","Morocco"
"Taliwine","30.5328","-7.9256","6727","Morocco"
"Tizoughrane","29.6111","-9.1724","4769","Morocco"
"Sidi Yahya Zaer","33.8261","-6.9039","57790","Morocco"
"Zemrane","31.5339","-8.2672","14338","Morocco"
"Bleida","30.2513","-6.3716","4629","Morocco"
"Martil","35.6100","-5.2700","64355","Morocco"
"Bou Fekrane","33.7601","-5.4866","12941","Morocco"
"Ac-cahrij","31.8000","-7.1400","15385","Morocco"
"Oulad Khallouf","34.7167","-2.5833","8605","Morocco"
"Awgounz","29.8311","-9.1767","4801","Morocco"
"Sidi Yahia Sawad","32.6833","-5.5833","7051","Morocco"
"Fifi","34.9500","-5.2500","8104","Morocco"
"Had Laaounate","32.6128","-8.2256","10580","Morocco"
"Mnasra","34.7667","-5.5167","34429","Morocco"
"Jaidte Lbatma","31.6806","-7.7281","12330","Morocco"
"Assebbab","35.1333","-3.0833","7069","Morocco"
"Talwat","31.2938","-7.1760","14060","Morocco"
"Douar Messassa","34.2803","-4.5336","9501","Morocco"
"Kechoulah","31.5592","-9.2483","6083","Morocco"
"Tighadouine","32.2167","-5.4333","22971","Morocco"
"Imouzzer des Ida ou Tanane","30.6740","-9.5624","5402","Morocco"
"Azaghar-n-Irs","30.3000","-8.2500","4748","Morocco"
"Bni Hadifa","35.0228","-4.1408","5594","Morocco"
"Oued Laou","35.4500","-5.0833","9665","Morocco"
"Steha","35.3646","-4.9306","12034","Morocco"
"Beni Mellal","32.3394","-6.3608","192676","Morocco"
"Douar Oulad Boussaken","32.5703","-8.1217","7390","Morocco"
"Haddada","34.2220","-6.5110","15898","Morocco"
"Oulad Amrane el Mekki","35.2167","-5.9667","12252","Morocco"
"Tadighoust","31.8017","-4.9673","6243","Morocco"
"Beni Zouli","30.5047","-5.8563","18941","Morocco"
"Amlagou","31.9931","-4.9961","4975","Morocco"
"Jdour","32.1154","-8.7587","20239","Morocco"
"Ksar Oulad Azzouz","32.8397","-6.6947","9815","Morocco"
"Sidi Mbark","29.2987","-9.8250","6110","Morocco"
"Jemaat Oulad Mhamed","33.0939","-7.0519","10187","Morocco"
"Sidi Ahmed Ben Aissa","34.7114","-5.8150","7810","Morocco"
"Zeghanghane","35.1575","-3.0017","34025","Morocco"
"El Kelaa des Srarhna","32.0500","-7.4000","1450021","Morocco"
"Tachraft","32.8331","-6.4731","3636","Morocco"
"Oulad Amrane","32.2833","-9.2333","16979","Morocco"
"Masmouda","34.7861","-5.7078","16106","Morocco"
"Tafetchna","30.6450","-5.8386","5258","Morocco"
"Souk Khmis Bni Arouss","35.3250","-5.6422","8193","Morocco"
"Gourrama","32.3375","-4.0761","14927","Morocco"
"Khenifra","32.9300","-5.6600","117510","Morocco"
"Tamaloukt","30.6094","-8.8369","4739","Morocco"
"Rouadi","35.1403","-4.1347","7131","Morocco"
"Tizgui","31.2450","-8.3186","4899","Morocco"
"Ait Ali","30.1739","-9.4881","76646","Morocco"
"Taounate","34.5358","-4.6400","37616","Morocco"
"Mhajar","35.1169","-3.4917","9386","Morocco"
"Ain Legdah","34.1667","-4.5000","11422","Morocco"
"Talzemt","33.5833","-4.1833","3160","Morocco"
"Taznakht","30.5736","-7.2028","7281","Morocco"
"Dar Hamra","33.6958","-4.3717","4018","Morocco"
"Reggada","29.5716","-9.6972","13284","Morocco"
"Oulad Sbih","33.7333","-7.2000","6616","Morocco"
"Sidi Abdellah Ben Taazizt","34.0019","-5.3694","11227","Morocco"
"Tazagoun","35.1842","-3.5046","4323","Morocco"
"Timoulilt","32.2000","-6.4667","6616","Morocco"
"Melqa el Ouidane","34.5667","-3.0167","8176","Morocco"
"Douar Oulad Aj-jabri","32.2567","-6.7839","28438","Morocco"
"Taliouine","35.1483","-3.5478","5208","Morocco"
"Ait 'Abdallah","29.8136","-8.7681","2086","Morocco"
"Tissaf","33.4000","-3.5833","10191","Morocco"
"Talkhoukht","31.1875","-9.4506","4312","Morocco"
"Ad Dakhla","23.7141","-15.9368","89292","Morocco"
"Sidi Zouine","31.6706","-8.3456","14954","Morocco"
"Dchira","27.0284","-13.0523","509","Morocco"
"M'diq","35.6857","-5.3251","56227","Morocco"
"Safi","32.2833","-9.2333","308508","Morocco"
"Ksar Lmajaz","35.8428","-5.5586","10237","Morocco"
"Tazemmourt","30.4083","-8.8269","6073","Morocco"
"Sidi Ettiji","32.1594","-8.8267","16649","Morocco"
"Al Hoceima","35.2472","-3.9322","56716","Morocco"
"Dar Chaifat","32.5500","-7.5000","17454","Morocco"
"Bni Rzine","35.0108","-4.7262","20904","Morocco"
"Amtoudi","29.2322","-9.1928","1472","Morocco"
"Moulay Bousselham","34.8786","-6.2933","26608","Morocco"
"Bsara","34.6844","-2.2193","1428","Morocco"
"Ait el Farsi","31.3500","-5.3000","5754","Morocco"
"Ait Daoud","30.6528","-9.8658","2957","Morocco"
"Ahlaf","33.2833","-7.2000","11451","Morocco"
"Ait Yazza","30.5119","-8.7978","14259","Morocco"
"Tetouan","35.5667","-5.3667","380787","Morocco"
"Laayoune","27.1500","-13.2000","217732","Morocco"
"Bni Drar","34.8281","-1.9936","10934","Morocco"
"Sidi Bouhria","34.7389","-2.3625","4525","Morocco"
"Douar Echbanat","34.2167","-5.3500","10371","Morocco"
"Hetane","32.8403","-6.8025","10618","Morocco"
"Serhine","34.8000","-4.8167","3746","Morocco"
"Zaggota","34.1667","-5.5333","10032","Morocco"
"Ras Kebdana","35.1333","-2.4167","7580","Morocco"
"Rabat","34.0253","-6.8361","572717","Morocco"
"Al Aaroui","35.0104","-3.0073","47599","Morocco"
"Goulmima","31.6944","-4.9592","16419","Morocco"
"Beni Sidal Louta","35.1069","-3.0656","6283","Morocco"
"Awlouz","30.7000","-8.1500","17409","Morocco"
"Kissane Ltouqi","34.6000","-5.0833","13390","Morocco"
"Bahharet Oulad Ayyad","34.7703","-6.3047","31860","Morocco"
"Zirara","32.3500","-8.5333","16606","Morocco"
"Sidi Amer El Hadi","34.7992","-5.8394","11814","Morocco"
"Moulay Driss Aghbal","33.7897","-6.4986","5043","Morocco"
"Tifarouine","35.1500","-3.2500","4231","Morocco"
"Gueznaia","35.7200","-5.8940","23601","Morocco"
"Adarhas","31.2333","-9.0500","2825","Morocco"
"Ait Ouakrim","30.0297","-9.2478","5817","Morocco"
"Touzounine","29.2428","-8.3286","2119","Morocco"
"Beni Khaled","34.8614","-2.0210","6745","Morocco"
"Khenichet-sur Ouerrha","34.4383","-5.6844","23707","Morocco"
"Ait Ourir","31.5644","-7.6628","39108","Morocco"
"Sefrou","33.8300","-4.8300","79887","Morocco"
"Jnane Bouih","32.0308","-8.7894","19706","Morocco"
"Foum Jam'a","31.9600","-6.9800","9873","Morocco"
"Mehdya","34.2557","-6.6745","28636","Morocco"
"Aghbalou Aqourar","33.9342","-4.7381","9715","Morocco"
"Tinajdad","31.5000","-5.0350","8942","Morocco"
"Al Borj","33.0122","-5.6308","3812","Morocco"
"Douar Ouled Ayad","32.4167","-7.1000","23818","Morocco"
"Tazegzaout","29.9736","-8.2608","4581","Morocco"
"Oulad Tayeb","33.9598","-4.9954","24594","Morocco"
"Derdara","35.1167","-5.2833","11547","Morocco"
"Aguelmous","33.1500","-5.8333","35626","Morocco"
"Ait Athmane","30.6142","-5.5223","5439","Morocco"
"Talsint","32.5353","-3.4481","16166","Morocco"
"Alnif","31.1169","-5.1737","22724","Morocco"
"Saidia","35.0850","-2.2392","8780","Morocco"
"Agoudim","32.3816","-5.1788","4113","Morocco"
"Dar Ould Zidouh","32.3167","-6.9000","31170","Morocco"
"Boulemane","33.3660","-4.7330","7104","Morocco"
"Moulay Abdallah","33.1978","-8.5883","74671","Morocco"
"Imoulas","30.7436","-8.7633","8388","Morocco"
"Settat","33.0023","-7.6198","142250","Morocco"
"Tamanar","31.0833","-9.6756","10584","Morocco"
"Ghassat","31.1697","-6.8042","8448","Morocco"
"Mqam at Tolba","33.9375","-6.2544","13503","Morocco"
"Naima","34.6006","-2.2167","1088","Morocco"
"L'Oulja","34.2894","-4.9481","15956","Morocco"
"Al Fqih Ben Calah","32.5000","-6.7000","102019","Morocco"
"Ghafsai","34.6245","-4.9112","6361","Morocco"
"Zemamra","32.6215","-8.7022","13279","Morocco"
"Adassil","31.1000","-8.4833","7454","Morocco"
"Bou Izakarn","29.1760","-9.7140","14228","Morocco"
"Matmata","34.1000","-4.5500","11928","Morocco"
"Bghaghza","35.4542","-5.6125","6955","Morocco"
"Ras Ijerri","33.7833","-5.7167","6502","Morocco"
"Youssoufia","32.2500","-8.5300","67628","Morocco"
"Tiout","30.3981","-8.6871","2920","Morocco"
"Had Zraqtane","31.4500","-7.4000","19926","Morocco"
"Amtar","35.2385","-4.7943","10574","Morocco"
"Bir Tam Tam","33.9831","-4.6397","9141","Morocco"
"Oulad Ouchchih","35.0939","-5.9453","12608","Morocco"
"Sidi al Ghandour","33.8536","-6.0597","7377","Morocco"
"Souk el Had-des Beni-Batao","32.8938","-6.2450","5113","Morocco"
"Alougoum","30.2778","-6.8292","8418","Morocco"
"Douar Oulad Jaber","32.3011","-7.2053","6254","Morocco"
"Ain Aicha","34.4833","-4.7000","25417","Morocco"
"Sidi Slimane","34.2600","-5.9300","92989","Morocco"
"Outerbat","32.1433","-5.3503","6819","Morocco"
"Oulad Bourima","34.3539","-3.7492","1486","Morocco"
"Oulad Hammou","33.2500","-8.3347","28449","Morocco"
"Uad Damran","27.4181","-12.9869","1108","Morocco"
"Bni Boufrah","35.0675","-4.3206","9653","Morocco"
"Takad Sahel","30.2500","-9.5500","10968","Morocco"
"Zawiat Moulay Brahim","31.2858","-7.9656","11813","Morocco"
"Bni Tajjit","32.2914","-3.4660","16149","Morocco"
"Tagant","29.1353","-9.7619","3630","Morocco"
"Sidi 'Allal al Mcader","33.8897","-6.1503","7366","Morocco"
"Arbaa Sahel","29.5993","-9.8770","10705","Morocco"
"Lagouira","20.8333","-17.0917","0","Morocco"
"Ain Harrouda","33.6372","-7.4483","62420","Morocco"
"Tazert","31.6597","-7.4092","15243","Morocco"
"Had-n-Targa-n-Touchka","29.8867","-9.2044","4877","Morocco"
"Sidi Abdelkarim","33.1869","-7.2333","14037","Morocco"
"Driouch","34.9833","-3.3833","14741","Morocco"
"Douar Snada","35.0764","-4.2167","9176","Morocco"
"Berkane","34.9167","-2.3167","109237","Morocco"
"Hassi Berkane","34.8333","-2.8667","8788","Morocco"
"Oued Amlil","34.2000","-4.2833","10405","Morocco"
"Tafadna","31.0958","-9.8208","5617","Morocco"
"Oulad Salmane","34.3356","-6.4603","19488","Morocco"
"Bu Craa","26.3228","-12.8497","558","Morocco"
"Amrharas","31.2100","-8.1834","6160","Morocco"
"Ait Ban","30.0700","-9.1550","5668","Morocco"
"El Hajeb","33.6928","-5.3711","35282","Morocco"
"Mzefroune","34.8422","-5.6842","6973","Morocco"
"Zawyat Ahancal","31.8325","-6.1056","10657","Morocco"
"Oued Naanaa","33.0167","-7.3333","6991","Morocco"
"Jemaat Moul Blad","33.5881","-6.4264","5619","Morocco"
"Sidi Yahia","30.4969","-8.8211","11955","Morocco"
"Adai","29.1792","-9.3092","3005","Morocco"
"Boula'wane","32.8625","-8.0611","14485","Morocco"
"Al Manzla","35.5892","-5.8200","2650","Morocco"
"Douar Tassila Imassouane","31.1386","-9.6092","6486","Morocco"
"Taourirt","29.6718","-8.8633","1554","Morocco"
"Taourirt","34.4100","-2.8900","321876","Morocco"
"Ighram","30.0875","-8.4597","4108","Morocco"
"Zaouiet Says","32.7931","-8.6506","11160","Morocco"
"Tan-Tan","28.4333","-11.1000","73209","Morocco"
"Oued Zem","32.8600","-6.5600","95267","Morocco"
"Iskourane","30.8434","-9.8186","8866","Morocco"
"Ait Said","31.4458","-9.4383","6819","Morocco"
"Safsaf","34.5581","-6.0078","25075","Morocco"
"Nzalat Bni Amar","34.0981","-5.4161","8350","Morocco"
"Larache","35.1833","-6.1500","125008","Morocco"
"Station des Essais M.V.A.","34.9353","-2.4306","20513","Morocco"
"Jbel Lahbib","35.4686","-5.7969","3780","Morocco"
"Ait Tamlil","31.4800","-6.9400","19930","Morocco"
"Douar el Caid el Gueddari","34.4228","-6.0890","6643","Morocco"
"Sidi Kasem","35.5339","-5.2183","11537","Morocco"
"El Arba Bouzemmour","31.0061","-9.4042","5874","Morocco"
"Douar Sgarta","32.1667","-7.6333","11387","Morocco"
"Bounaamane","29.5283","-9.8044","10310","Morocco"
"Imouzzer Kandar","33.7215","-5.0083","19125","Morocco"
"Aziylal","31.9600","-6.5600","38520","Morocco"
"Tagalft","32.2381","-6.1194","14423","Morocco"
"Benslimane","33.6122","-7.1211","57101","Morocco"
"Marrakech","31.6295","-7.9811","928850","Morocco"
"Ain El Aouda","33.8111","-6.7922","49816","Morocco"
"Ras El Oued","34.3903","-4.5072","15778","Morocco"
"Tiznit","29.7000","-9.7269","74699","Morocco"
"Sidi Yakoub","31.6667","-7.0667","17054","Morocco"
"Saka","34.6167","-3.4167","21048","Morocco"
"Ourtzagh","34.5500","-4.9333","14381","Morocco"
"Douar Lehgagcha","32.5500","-8.7167","13748","Morocco"
"Tiflet","33.9000","-6.3300","86709","Morocco"
"Tinadine","30.1100","-8.6486","2932","Morocco"
"Ighil","31.4167","-7.6500","5695","Morocco"
"Mechra-Hommadi","34.7233","-2.7918","5646","Morocco"
"Matarka","33.2106","-2.5564","7986","Morocco"
"Tabant","31.6581","-6.4200","14963","Morocco"
"Dar Bel Hamri","34.1889","-5.9697","28156","Morocco"
"Boujediane","35.1114","-5.7822","11166","Morocco"
"Tiddas","33.5667","-6.2658","10047","Morocco"
"Khmis Sidi Yahia","33.7983","-6.2653","6673","Morocco"
"Qal'at Mgouna","31.2414","-6.1283","16956","Morocco"
"El Maader El Kabir","29.8502","-9.6575","6885","Morocco"
"Douar Lamrabih","34.8167","-5.8167","20461","Morocco"
"Timezgana","34.5833","-4.7333","16172","Morocco"
"Skoura","31.0672","-6.5397","24055","Morocco"
"Jaqma","33.2925","-7.4406","10306","Morocco"
"Sidi El Hattab","32.3528","-7.3245","9421","Morocco"
"Douar Oulad Bouziane","34.2083","-5.0522","9372","Morocco"
"Mokrisset","34.9100","-5.3536","10545","Morocco"
"Douar Mezaoura","34.5406","-4.7294","8317","Morocco"
"Ait Tagalla","31.9167","-6.7167","8268","Morocco"
"Oulad Chbana","33.0500","-7.3833","8081","Morocco"
"El Ksiba","32.5681","-6.0308","20001","Morocco"
"Zawyat Sidi al Mekki","33.2122","-7.7164","8920","Morocco"
"Douar Sidi Boubker","31.8167","-7.0667","2638","Morocco"
"Amouguer","32.2989","-4.8372","4840","Morocco"
"'Ali Ben Sliman","31.9053","-7.2144","19977","Morocco"
"Fnidq","35.8500","-5.3500","77436","Morocco"
"'Ain Leuh","33.2833","-5.3833","9669","Morocco"
"Aklim","34.9167","-2.4333","9695","Morocco"
"Tizagzawine","31.0000","-7.1500","5272","Morocco"
"Tounfit","32.4773","-5.1348","13297","Morocco"
"Bouchabel","34.3833","-5.0167","16084","Morocco"
"Iheddadene","35.1500","-2.9667","14345","Morocco"
"Douar Oulad Hssine","33.0681","-8.5108","32130","Morocco"
"Ayt Mohamed","32.5667","-6.9833","23696","Morocco"
"Sidi Azzouz","31.7667","-7.6667","14356","Morocco"
"Douar Oulad Mkoudou","33.8136","-4.5169","6667","Morocco"
"Bou Adel","34.5428","-4.5075","12684","Morocco"
"Recani","31.2842","-4.2642","5010","Morocco"
"Wislane","30.2167","-8.3833","87910","Morocco"
"Zaouiat Sidi Hammou Ben Hmida","31.7547","-9.3717","6922","Morocco"
"Messeied","28.0167","-10.8167","1275","Morocco"
"Tameslouht","31.5000","-8.1000","28978","Morocco"
"Tazoult","30.8075","-7.7883","7465","Morocco"
"Sidi Mohamed Lahmar","34.7167","-6.2667","42637","Morocco"
"Ait Ali Mimoune","33.7808","-5.7822","8486","Morocco"
"Chichaoua","31.5333","-8.7667","27869","Morocco"
"Temara","33.9234","-6.9076","313510","Morocco"
"Bou Iferda","32.3567","-5.8350","7391","Morocco"
"Sidi Smai'il","32.8167","-8.5000","28733","Morocco"
"El Aioun","34.5853","-2.5056","41832","Morocco"
"Talmoudat","30.2481","-8.7078","4743","Morocco"
"Oulad Amghar","35.2500","-3.6500","6010","Morocco"
"Tiqqi","29.7000","-9.0667","8773","Morocco"
"Arbaa Ayacha","35.3830","-5.8333","7335","Morocco"
"Nador","35.1667","-2.9333","161726","Morocco"
"Lamrija","34.0211","-2.3831","3359","Morocco"
"Oulad Fraj","32.9667","-8.2333","19752","Morocco"
"Ameskroud","30.5308","-9.3283","9351","Morocco"
"Guelmim","28.9833","-10.0667","118318","Morocco"
"Mwaline al Oued","33.4467","-7.3283","9129","Morocco"
"Tineghir","31.5147","-5.5328","42044","Morocco"
"Sidi Hassine","33.0542","-5.9983","2986","Morocco"
"Tancherfi","34.3539","-2.6255","6433","Morocco"
"Kasba Tanora","32.4750","-6.1497","12783","Morocco"
"Semara","26.7333","-11.6833","48149","Morocco"
"Meghraoua","33.9322","-4.0456","8204","Morocco"
"Bouabout","31.2655","-9.1786","11494","Morocco"
"Lamsabih","32.2933","-8.6889","11339","Morocco"
"Bouhlou","34.1333","-4.4000","8748","Morocco"
"Akarma","31.8667","-7.6500","5171","Morocco"
"Douar Brarba","34.4500","-4.2972","7429","Morocco"
"Awfouss","31.7000","-4.1167","10424","Morocco"
"El Arba Des Bir Lenni","34.3272","-4.2039","11866","Morocco"
"Ain Lorma","33.8942","-5.7481","3495","Morocco"
"Kouribga","32.8800","-6.9000","196196","Morocco"
"Ayt 'Attou ou L'Arbi","31.5456","-8.2967","14544","Morocco"
"Tadla","32.4408","-8.3708","9750","Morocco"
"Ait Hammou","32.2156","-8.1733","7548","Morocco"
"Ech Chaibat","31.6000","-7.8500","9877","Morocco"
"Sidi Abdallah","32.5783","-7.8108","10481","Morocco"
"Beni Yakhlef","33.6681","-7.2514","48338","Morocco"
"Znada","31.2357","-8.7278","6712","Morocco"
"Tata","29.7428","-7.9725","18611","Morocco"
"Moulay Yacoub","34.0878","-5.1811","4612","Morocco"
"Gammasa","31.4175","-8.4117","9388","Morocco"
"Bni Frassen","34.3819","-4.3761","23429","Morocco"
"Annsri","30.7352","-9.5333","4128","Morocco"
"Ait Oua Belli","29.2275","-8.5386","2401","Morocco"
"Sidi Dahbi","33.0500","-7.1833","8703","Morocco"
"Kenitra","34.2500","-6.5833","431282","Morocco"
"Al Fayd","30.6167","-8.2167","12011","Morocco"
"Bouknadel","34.1245","-6.7480","25255","Morocco"
"Sidi Moussa Ben Ali","33.5594","-7.3817","11445","Morocco"
"Amarzgane","31.0500","-7.2167","8820","Morocco"
"Achbarou","31.1500","-5.1000","2500","Morocco"
"Oulad Ayyad","32.3333","-6.3833","9566","Morocco"
"Zaio","34.9396","-2.7334","35806","Morocco"
"Tanalt","29.7833","-9.1667","2744","Morocco"
"Ouaoula","31.8667","-6.7500","24790","Morocco"
