"city","lat","lng","population","country"
"Sint Geertruid","50.7964","5.7656","1482","Netherlands"
"Dalen","52.7000","6.7500","5564","Netherlands"
"Verwolde","52.2006","6.3919","583","Netherlands"
"Oirsbeek","50.9489","5.9089","4717","Netherlands"
"Clinge","51.2706","4.0881","3815","Netherlands"
"Voorthuizen","52.1861","5.6067","1185","Netherlands"
"Den Dungen","51.6653","5.3714","4297","Netherlands"
"Zierikzee","51.6497","3.9164","11360","Netherlands"
"Breda","51.5875","4.7750","183873","Netherlands"
"Dinther","51.6450","5.4864","3014","Netherlands"
"Stavenisse","51.5861","4.0122","1945","Netherlands"
"Zwolle","52.5125","6.0944","111805","Netherlands"
"Zandvoort","52.3667","4.5333","17011","Netherlands"
"Lekkerkerk","51.8972","4.6828","7291","Netherlands"
"Driel","51.9592","5.8131","4339","Netherlands"
"Montfort","51.1261","5.9486","562","Netherlands"
"Stoppeldijkveer","51.3219","3.9856","1822","Netherlands"
"Herkingen","51.7100","4.0872","1066","Netherlands"
"Tynaarlo","53.0833","6.6000","33698","Netherlands"
"Sloten","52.8944","5.6453","899","Netherlands"
"Klundert","51.6628","4.5289","6601","Netherlands"
"Wieldrecht","51.7833","4.6500","442","Netherlands"
"Drongelen","51.7150","5.0542","398","Netherlands"
"Apeldoorn","52.2100","5.9700","161156","Netherlands"
"Hellendoorn","52.3885","6.4497","35808","Netherlands"
"Venhuizen","52.6624","5.2000","7828","Netherlands"
"Purmerend","52.5050","4.9639","80117","Netherlands"
"Hoogwoud","52.7153","4.9367","3258","Netherlands"
"Ermelo","52.3000","5.6331","26858","Netherlands"
"Dronten","52.5242","5.7125","40815","Netherlands"
"Tegelen","51.3422","6.1364","19337","Netherlands"
"Groet","52.7231","4.6681","171","Netherlands"
"Nieuw-Vossemeer","51.5897","4.2181","2219","Netherlands"
"Wisch","51.9333","6.3167","19911","Netherlands"
"Klimmen","50.8764","5.8819","4208","Netherlands"
"Weerselo","52.3519","6.8572","9294","Netherlands"
"Bunde","50.8958","5.7331","4798","Netherlands"
"Muiden","52.3292","5.0714","3535","Netherlands"
"Nieuwleusen","52.5833","6.2833","9190","Netherlands"
"Beverwijk","52.4864","4.6572","41176","Netherlands"
"Ankeveen","52.2653","5.0989","1073","Netherlands"
"Cuijk","51.7269","5.8794","24931","Netherlands"
"Warder","52.5641","5.0311","538","Netherlands"
"Nijeveen","52.7328","6.1675","2860","Netherlands"
"Tubbergen","52.4000","6.7667","21276","Netherlands"
"Wijngaarden","51.8444","4.7611","684","Netherlands"
"Bokhoven","51.7372","5.2319","260","Netherlands"
"Zouteveen","51.9500","4.3339","274","Netherlands"
"Maasbree","51.3500","6.0500","13216","Netherlands"
"Piershil","51.7933","4.3147","1406","Netherlands"
"Dirksland","51.7500","4.1000","8408","Netherlands"
"Noorbeek","50.7681","5.8131","1147","Netherlands"
"Geleen","50.9667","5.8333","36958","Netherlands"
"Bergharen","51.8500","5.6689","2482","Netherlands"
"Hoenzadriel","51.7500","5.3333","278","Netherlands"
"Molenaarsgraaf","51.8767","4.8231","970","Netherlands"
"Katwoude","52.4694","5.0506","274","Netherlands"
"Vries","53.0733","6.5769","9646","Netherlands"
"Duiven","51.9472","6.0211","25332","Netherlands"
"Didam","51.9333","6.1333","16603","Netherlands"
"Limbricht","51.0117","5.8369","5471","Netherlands"
"Bodegraven","52.0808","4.7486","17954","Netherlands"
"Amsterdam","52.3667","4.8833","862965","Netherlands"
"Grafhorst","52.5825","5.9339","739","Netherlands"
"Giessen","51.7886","5.0328","1209","Netherlands"
"Jisp","52.5000","4.8333","1001","Netherlands"
"Maarsseveen","52.1408","5.0736","2506","Netherlands"
"Kessel","51.2919","6.0533","4189","Netherlands"
"Zevenaar","51.9167","6.0833","43488","Netherlands"
"Meeden","53.1389","6.9275","1989","Netherlands"
"Vrijhoeven","52.1542","4.7194","37","Netherlands"
"Schijndel","51.6183","5.4364","23618","Netherlands"
"Asperen","51.8814","5.1067","2695","Netherlands"
"Velp","51.7478","5.7172","452","Netherlands"
"Hengelo","52.0500","6.3000","8457","Netherlands"
"Nigtevecht","52.2742","5.0278","1245","Netherlands"
"Gasselte","52.9719","6.7922","4227","Netherlands"
"Gastel","51.2856","5.5539","181","Netherlands"
"Ouderkerk aan de Amstel","52.2972","4.9117","8200","Netherlands"
"Ubach over Worms","50.9158","6.0517","11761","Netherlands"
"Putte","51.3506","4.3978","3758","Netherlands"
"Heiloo","52.6011","4.7019","23464","Netherlands"
"Sint Kruis","51.2731","3.4997","721","Netherlands"
"Oude-Tonge","51.6914","4.2128","3101","Netherlands"
"Rozendaal","52.0000","5.9667","1704","Netherlands"
"Bladel","51.3667","5.2167","20175","Netherlands"
"Emmen","52.7833","6.9000","107471","Netherlands"
"Poortugaal","51.8553","4.3967","20746","Netherlands"
"Assen","52.9967","6.5625","62237","Netherlands"
"Herwijnen","51.8253","5.1303","2418","Netherlands"
"Veldhuizen","52.0764","5.0075","869","Netherlands"
"Vinkeveen","52.2128","4.9272","1316","Netherlands"
"Driebruggen","52.0433","4.7986","4328","Netherlands"
"Hoek van Holland","51.9763","4.1323","9382","Netherlands"
"Abbekerk","52.7308","5.0175","1495","Netherlands"
"Nieuwenhoorn","51.8542","4.1453","1866","Netherlands"
"Kijfhoek","51.8256","4.5922","154","Netherlands"
"Amstenrade","50.9383","5.9222","3350","Netherlands"
"Loon op Zand","51.6275","5.0758","23327","Netherlands"
"Tempel","51.9656","4.4461","537","Netherlands"
"Vorden","52.1000","6.3167","8491","Netherlands"
"Horssen","51.8556","5.6086","1418","Netherlands"
"Deurne","51.4639","5.7947","32362","Netherlands"
"Brandwijk","51.8886","4.8136","1139","Netherlands"
"Erp","51.6003","5.6053","6422","Netherlands"
"Tricht","51.8900","5.2725","2112","Netherlands"
"Oude Pekela","53.1000","7.0167","8214","Netherlands"
"Den Bommel","51.7153","4.2850","1937","Netherlands"
"Zeewolde","52.3333","5.5167","22309","Netherlands"
"Helvoirt","51.6308","5.2297","4619","Netherlands"
"Wimmenum","52.6392","4.6558","130","Netherlands"
"Domburg","51.5625","3.4964","1553","Netherlands"
"Vaesrade","50.9292","5.9061","122","Netherlands"
"Norg","53.0661","6.4594","7270","Netherlands"
"Goidschalxoord","51.8278","4.4583","196","Netherlands"
"Eijsden","50.7778","5.7108","11565","Netherlands"
"Dalem","51.8278","5.0094","937","Netherlands"
"Hooge Mierde","51.3986","5.1409","1164","Netherlands"
"Haarlemmerliede","52.3881","4.6875","290","Netherlands"
"Peursum","51.8500","4.9167","393","Netherlands"
"Vlierden","51.4456","5.7581","699","Netherlands"
"Usquert","53.4028","6.6128","1967","Netherlands"
"Wassenaar","52.1453","4.4006","26211","Netherlands"
"Hoevelaken","52.1750","5.4583","8461","Netherlands"
"Blokzijl","52.7264","5.9617","1666","Netherlands"
"Schalkwijk","51.9939","5.1872","1971","Netherlands"
"Merkelbeek","50.9542","5.9403","1874","Netherlands"
"Oegstgeest","52.1667","4.4667","24426","Netherlands"
"Zoeterwoude","52.1136","4.5058","8450","Netherlands"
"Wijdewormer","52.5002","4.8924","1321","Netherlands"
"Oranjestad","17.4833","-62.9833","1021","Netherlands"
"Barneveld","52.1333","5.5833","57971","Netherlands"
"Maasbommel","51.8208","5.5364","648","Netherlands"
"Capelle","51.6922","4.9853","2551","Netherlands"
"Heer Oudelandsambacht","51.8199","4.6198","175","Netherlands"
"Vlist","51.9867","4.7889","9806","Netherlands"
"Oost-Souburg","51.4636","3.6008","541","Netherlands"
"Borssele","51.4231","3.7353","1615","Netherlands"
"Veen","51.7769","5.1097","1579","Netherlands"
"Gronsveld","50.8086","5.7300","1517","Netherlands"
"Heel","51.1806","5.8964","8295","Netherlands"
"Kampen","52.5500","5.9000","53779","Netherlands"
"Gouda","52.0181","4.7056","71449","Netherlands"
"Ruinen","52.7633","6.3564","6974","Netherlands"
"Son en Breugel","51.5158","5.5022","16904","Netherlands"
"Zwijndrecht","51.8240","4.6126","44454","Netherlands"
"Geertruidenberg","51.7008","4.8603","21515","Netherlands"
"Neerijnen","51.8333","5.2833","12397","Netherlands"
"Haelen","51.2358","5.9547","10051","Netherlands"
"Vledder","52.8556","6.2103","3590","Netherlands"
"Ede","52.0436","5.6667","72460","Netherlands"
"Laag-Blokland","51.8907","4.8467","143","Netherlands"
"Bemmel","51.8917","5.8958","18104","Netherlands"
"Berkenwoude","51.9453","4.7089","1449","Netherlands"
"Ouderkerk aan den IJssel","51.9322","4.6361","5516","Netherlands"
"Veldhoven","51.4197","5.3992","45337","Netherlands"
"Oud-Zuilen","52.1272","5.0694","22257","Netherlands"
"Drimmelen","51.6944","4.7972","27150","Netherlands"
"Barwoutswaarder","52.0825","4.8636","1035","Netherlands"
"Cabauw","51.9644","4.8983","127","Netherlands"
"Leidschendam","52.0833","4.4000","39567","Netherlands"
"Hilversum","52.2300","5.1800","87817","Netherlands"
"Schellingwoude","52.3844","4.9661","151","Netherlands"
"Wilnis","52.1978","4.9000","5513","Netherlands"
"Zeist","52.0833","5.2333","63934","Netherlands"
"Leerdam","51.8939","5.0914","21030","Netherlands"
"Sappemeer","53.1633","6.7767","7126","Netherlands"
"Steenderen","52.0667","6.1833","4990","Netherlands"
"Losser","52.2617","7.0044","22622","Netherlands"
"Kats","51.5672","3.8856","256","Netherlands"
"Nieuwkuijk","51.6936","5.1806","1472","Netherlands"
"Ubbergen","51.8333","5.9167","9358","Netherlands"
"Tiel","51.8833","5.4333","42015","Netherlands"
"Haarzuilens","52.1214","4.9964","572","Netherlands"
"Reusel","51.3617","5.1631","8030","Netherlands"
"Nijbroek","52.2928","6.0625","1455","Netherlands"
"Eibergen","52.1000","6.6500","16272","Netherlands"
"Prinsenbeek","51.5981","4.7136","10168","Netherlands"
"Hoornaar","51.8767","4.9469","1468","Netherlands"
"Doorwerth","51.9781","5.7953","1009","Netherlands"
"Bolsward","53.0667","5.5333","9974","Netherlands"
"Nieuwolda","53.2447","6.9758","2282","Netherlands"
"Zaandam","52.4417","4.8422","68695","Netherlands"
"Schore","51.4625","3.9989","978","Netherlands"
"Schoonebeek","52.6617","6.8831","7747","Netherlands"
"Goudswaard","51.7936","4.2783","1723","Netherlands"
"Sassenheim","52.2258","4.5225","14886","Netherlands"
"Eenrum","53.3625","6.4606","3001","Netherlands"
"Rijnsaterwoude","52.1986","4.6694","1300","Netherlands"
"Hardenberg","52.5758","6.6194","59689","Netherlands"
"Kantens","53.3656","6.6339","2248","Netherlands"
"Raamsdonk","51.6878","4.9081","13658","Netherlands"
"Groot-Ammers","51.9236","4.8206","1173","Netherlands"
"Sint Anthonis","51.6258","5.8811","11606","Netherlands"
"Zweeloo","52.7936","6.7303","2834","Netherlands"
"Ammerzoden","51.7500","5.2200","4318","Netherlands"
"Stad aan 't Haringvliet","51.7392","4.2419","1323","Netherlands"
"Maarn","52.0642","5.3731","5975","Netherlands"
"Herpt","51.7333","5.1500","593","Netherlands"
"Rhenen","51.9597","5.5689","20004","Netherlands"
"Stedum","53.3225","6.6958","2466","Netherlands"
"Posterholt","51.1219","6.0378","1270","Netherlands"
"Vaals","50.7694","6.0181","10092","Netherlands"
"Lopik","51.9722","4.9464","14473","Netherlands"
"Andijk","52.7500","5.2200","6423","Netherlands"
"Nieuw-Helvoet","51.8381","4.1297","2507","Netherlands"
"Millingen aan de Rijn","51.8667","6.0500","5921","Netherlands"
"Hoogvliet","51.8667","4.3500","1227","Netherlands"
"Hattem","52.4744","6.0697","12173","Netherlands"
"Elkerzee","51.7250","3.8436","615","Netherlands"
"Besoijen","51.6833","5.0500","1705","Netherlands"
"Maasland","51.9333","4.2667","6821","Netherlands"
"Urmond","50.9906","5.7711","4913","Netherlands"
"Haastrecht","52.0003","4.7765","4418","Netherlands"
"Odijk","52.0503","5.2333","1097","Netherlands"
"Westervoort","51.9667","5.9667","14944","Netherlands"
"Rijssen","52.3000","6.5167","26428","Netherlands"
"IJsselmuiden","52.5647","5.9275","14926","Netherlands"
"Utrecht","52.0908","5.1222","640000","Netherlands"
"Muntendam","53.1336","6.8686","4748","Netherlands"
"Mantinge","52.8039","6.6164","196","Netherlands"
"Diever","52.8556","6.3175","3571","Netherlands"
"Huissen","51.9333","5.9333","15782","Netherlands"
"Wanneperveen","52.7044","6.1206","1788","Netherlands"
"Winssen","51.8833","5.7000","708","Netherlands"
"Giethoorn","52.7397","6.0775","2620","Netherlands"
"Benthuizen","52.0761","4.5447","3639","Netherlands"
"Amby","50.8667","5.7333","3038","Netherlands"
"Deursen","51.8020","5.6250","494","Netherlands"
"Termunten","53.2961","7.0436","4694","Netherlands"
"Hall","52.1100","6.1014","850","Netherlands"
"Harfsen","52.2075","6.2972","1678","Netherlands"
"Eygelshoven","50.8925","6.0592","5954","Netherlands"
"Ursem","52.6272","4.8917","2323","Netherlands"
"Nieuwe Pekela","53.0786","6.9642","5604","Netherlands"
"Olst","52.3378","6.1108","9329","Netherlands"
"Geesteren","52.1389","6.5264","2116","Netherlands"
"Noordgouwe","51.6936","3.9386","882","Netherlands"
"Waterlandkerkje","51.3175","3.5539","689","Netherlands"
"Oudenhoorn","51.8269","4.1917","1530","Netherlands"
"Kortenhoef","52.2397","5.1147","3085","Netherlands"
"Stein","50.9679","5.7652","24961","Netherlands"
"Gassel","51.7403","5.7803","653","Netherlands"
"Heerewaarden","51.8178","5.3917","1149","Netherlands"
"Ridderkerk","51.8667","4.6000","46241","Netherlands"
"Zuiddorpe","51.2342","3.9017","983","Netherlands"
"De Rijp","52.5569","4.8453","1998","Netherlands"
"Goirle","51.5203","5.0671","23793","Netherlands"
"Spaarnwoude","52.4039","4.6942","644","Netherlands"
"Borger","52.9236","6.7922","12871","Netherlands"
"Winkel","52.7519","4.9036","2217","Netherlands"
"Hurwenen","51.8106","5.3178","618","Netherlands"
"Elsloo","50.9710","5.7541","8191","Netherlands"
"Oude-Niedorp","52.7178","4.8719","1609","Netherlands"
"Katwijk","52.2008","4.4153","65302","Netherlands"
"Groningen","53.2167","6.5667","201462","Netherlands"
"Zelhem","52.0067","6.3486","11203","Netherlands"
"Zuid-Scharwoude","52.6842","4.8081","1732","Netherlands"
"Overasselt","51.7597","5.7875","3124","Netherlands"
"Bergeijk","51.3203","5.3592","18491","Netherlands"
"Gapinge","51.5439","3.6244","202","Netherlands"
"Noordeloos","51.9042","4.9417","1536","Netherlands"
"Sittard","51.0000","5.8667","49483","Netherlands"
"Ellemeet","51.7297","3.8164","582","Netherlands"
"Veenoord","52.9875","6.2914","25531","Netherlands"
"Neeritter","51.1644","5.8036","1950","Netherlands"
"Delft","52.0119","4.3594","100011","Netherlands"
"Pieterburen","53.4000","6.4531","455","Netherlands"
"Warmenhuizen","52.7225","4.7397","4140","Netherlands"
"Axel","51.2656","3.9089","12280","Netherlands"
"Cranendonck","51.2853","5.5881","20440","Netherlands"
"Lithoijen","51.8025","5.4633","746","Netherlands"
"Neer","51.2614","5.9917","3591","Netherlands"
"Beesel","51.2669","6.0392","13519","Netherlands"
"Oost-Knollendam","52.5172","4.7903","492","Netherlands"
"Oosterbroek","53.1299","6.8738","12076","Netherlands"
"Barsingerhorn","52.7853","4.8417","3764","Netherlands"
"Rijckholt","50.7994","5.7311","375","Netherlands"
"Ittervoort","51.1719","5.8211","330","Netherlands"
"Hilvarenbeek","51.4861","5.1367","15334","Netherlands"
"Naarden","52.2953","5.1622","17301","Netherlands"
"Leusden","52.1331","5.4297","30030","Netherlands"
"Hoeven","51.5775","4.5808","8235","Netherlands"
"Westenschouwen","51.7050","3.7403","5540","Netherlands"
"Anna Paulowna","52.8500","4.8167","7380","Netherlands"
"Moerkapelle","52.0456","4.5753","3444","Netherlands"
"Kerkrade","50.8667","6.0667","45642","Netherlands"
"Margraten","50.8225","5.8203","13370","Netherlands"
"Broekhuizen","51.4853","6.1633","1906","Netherlands"
"Doorn","52.0333","5.3500","10124","Netherlands"
"Nieuwendam","52.3915","4.9341","2587","Netherlands"
"Opperdoes","52.7597","5.0781","1512","Netherlands"
"Uithuizen","53.4067","6.6722","4914","Netherlands"
"Ransdorp","52.3931","4.9942","2013","Netherlands"
"Wijk en Aalburg","51.7542","5.1306","3630","Netherlands"
"Sint Maarten","52.7717","4.7475","2139","Netherlands"
"Velden","51.4117","6.1678","5085","Netherlands"
"Rossum","51.8008","5.3356","3102","Netherlands"
"Rhoon","51.8667","4.4333","7004","Netherlands"
"IJsselmonde","51.9000","4.5500","6100","Netherlands"
"Dinxperlo","51.8667","6.4833","8565","Netherlands"
"Deil","51.8842","5.2442","2955","Netherlands"
"Westerblokker","52.6644","5.1061","3641","Netherlands"
"Ommen","52.5167","6.4167","17813","Netherlands"
"Willeskop","52.0242","4.9014","1070","Netherlands"
"Eindhoven","51.4408","5.4778","398053","Netherlands"
"Den Ham","52.4650","6.4942","15051","Netherlands"
"Westkerke","51.5364","4.0942","92","Netherlands"
"Stevensweert","51.1292","5.8483","1588","Netherlands"
"Staphorst","52.6333","6.2000","17003","Netherlands"
"Koudekerk aan den Rijn","52.1347","4.6019","4671","Netherlands"
"Maasbracht","51.1500","5.8833","13700","Netherlands"
"Leiderdorp","52.1617","4.5283","27109","Netherlands"
"Spijkenisse","51.8333","4.3167","72740","Netherlands"
"Voorhout","52.2231","4.4864","4060","Netherlands"
"Puttershoek","51.8044","4.5681","5688","Netherlands"
"Boxtel","51.5911","5.3275","30747","Netherlands"
"Wanroij","51.6561","5.8200","5044","Netherlands"
"Laren","52.2544","5.2317","11195","Netherlands"
"Zutphen","52.1400","6.1950","47423","Netherlands"
"Hedel","51.7467","5.2592","4042","Netherlands"
"Wilp","52.2186","6.1497","1221","Netherlands"
"Netterden","51.8544","6.3142","1300","Netherlands"
"Diemen","52.3439","4.9625","29196","Netherlands"
"Sambeek","51.6361","5.9661","2295","Netherlands"
"Sneek","53.0325","5.6600","33855","Netherlands"
"Cothen","51.9961","5.3097","2458","Netherlands"
"Oudenrijn","52.0819","5.0600","1312","Netherlands"
"Buurmalsen","51.8928","5.2925","2785","Netherlands"
"Goes","51.5000","3.8833","37739","Netherlands"
"Oldebroek","52.4667","5.9167","23598","Netherlands"
"Oosterend","53.0036","6.0664","29723","Netherlands"
"Edam","52.5167","5.0500","18828","Netherlands"
"Jabeek","50.9808","5.9417","754","Netherlands"
"Hofwegen","51.8667","4.7833","88","Netherlands"
"Midwoud","52.7178","5.0736","1440","Netherlands"
"Oud-Vroenhoven","50.8478","5.6514","3638","Netherlands"
"Heerlen","50.8833","5.9833","86833","Netherlands"
"Schinnen","50.9428","5.8894","12911","Netherlands"
"Westwoud","52.6864","5.1333","1743","Netherlands"
"Oudkarspel","52.7114","4.8017","1873","Netherlands"
"Hulsberg","50.8883","5.8553","4578","Netherlands"
"Bunnik","52.0672","5.1969","15192","Netherlands"
"Thorn","51.1667","5.8333","2602","Netherlands"
"Wormer","52.4972","4.8089","11470","Netherlands"
"Heeswijk","51.6514","5.4672","2476","Netherlands"
"Winschoten","53.1500","7.0333","20913","Netherlands"
"Schoonrewoerd","51.9206","5.1158","1448","Netherlands"
"IJmuiden","52.4586","4.6194","48320","Netherlands"
"Teckop","52.1333","4.9214","167","Netherlands"
"Hekendorp","52.0153","4.8092","843","Netherlands"
"Bennekom","51.9994","5.6756","885","Netherlands"
"Schinveld","50.9678","5.9803","4856","Netherlands"
"Kapelle","51.5000","3.9500","12785","Netherlands"
"Baarle-Nassau","51.4500","4.9333","6847","Netherlands"
"Loenersloot","52.2297","5.0014","700","Netherlands"
"Huizen","52.2994","5.2531","41273","Netherlands"
"Kwadijk","52.5275","4.9811","487","Netherlands"
"Jaarsveld","51.9694","4.9772","1672","Netherlands"
"Noordwijk","52.2333","4.4333","42859","Netherlands"
"The Hague","52.0767","4.2986","1406000","Netherlands"
"Klein Mariekerke","51.5281","3.5314","3681","Netherlands"
"Oudshoorn","52.1333","4.6667","2994","Netherlands"
"Loenen","52.2419","5.0275","8562","Netherlands"
"Gieten","53.0053","6.7631","5877","Netherlands"
"Woudenberg","52.0806","5.4164","13166","Netherlands"
"Waspik","51.6867","4.9444","4871","Netherlands"
"Leende","51.3497","5.5525","4051","Netherlands"
"Culemborg","51.9500","5.2333","28555","Netherlands"
"Zevenbergen","51.6453","4.5997","15859","Netherlands"
"Dongen","51.6258","4.9433","26051","Netherlands"
"Rijswijk","51.7975","5.0236","1310","Netherlands"
"Oudhuizen","52.2000","4.9333","413","Netherlands"
"Ruurlo","52.0833","6.4500","8083","Netherlands"
"Krimpen aan den IJssel","51.9200","4.6000","29376","Netherlands"
"Kerkbuurt","52.4581","5.1067","1036","Netherlands"
"Ter Aar","52.1667","4.7167","9137","Netherlands"
"Wanssum","51.5358","6.0753","1414","Netherlands"
"Nieuwerkerke","51.7000","3.8903","1108","Netherlands"
"Langedijk","52.6936","4.7944","27992","Netherlands"
"Buren","51.9108","5.3336","2701","Netherlands"
"Herpen","51.7717","5.6417","1801","Netherlands"
"Maurik","51.9600","5.4236","5865","Netherlands"
"Zuid-Schalkwijk","52.3458","4.6417","186","Netherlands"
"Middelstum","53.3500","6.6500","2831","Netherlands"
"Kerkwijk","51.7744","5.2194","6269","Netherlands"
"Rijsoord","51.8506","4.5967","115","Netherlands"
"Oldenzaal","52.3125","6.9292","31840","Netherlands"
"Gouderak","51.9842","4.6767","2704","Netherlands"
"Werkhoven","52.0239","5.2431","1580","Netherlands"
"Biert","51.8269","4.2711","74","Netherlands"
"Meijel","51.3500","5.8833","5789","Netherlands"
"Sliedrecht","51.8222","4.7744","25026","Netherlands"
"Opmeer","52.7033","4.9444","11779","Netherlands"
"Kockengen","52.1517","4.9522","2935","Netherlands"
"IJzendoorn","51.9064","5.5331","604","Netherlands"
"Velp","51.9947","5.9758","1437","Netherlands"
"Mijdrecht","52.2072","4.8594","13009","Netherlands"
"Herveld","51.8989","5.7475","1383","Netherlands"
"Rotterdam","51.9225","4.4792","631155","Netherlands"
"Landgraaf","50.9083","6.0297","37591","Netherlands"
"Oudover","52.2000","5.1333","8737","Netherlands"
"Leerbroek","51.9089","5.0514","1263","Netherlands"
"Berghem","51.7700","5.5747","5700","Netherlands"
"Zwammerdam","52.1058","4.7272","2922","Netherlands"
"Heteren","51.9575","5.7550","9593","Netherlands"
"Vlissingen","51.4500","3.5833","44417","Netherlands"
"Oosterhout","51.6431","4.8569","55616","Netherlands"
"Beltrum","52.0689","6.5658","1725","Netherlands"
"Swalmen","51.2333","6.0333","8690","Netherlands"
"Meerlo","51.5119","6.0856","3317","Netherlands"
"Schermerhorn","52.6067","4.8511","5359","Netherlands"
"Nederslingeland","51.8667","4.9167","134","Netherlands"
"Neede","52.1333","6.6167","11102","Netherlands"
"Pannerden","51.8900","6.0378","2244","Netherlands"
"Mijnsheerenland","51.7964","4.4831","4185","Netherlands"
"Klaaswaal","51.7694","4.4453","3647","Netherlands"
"Amerongen","52.0025","5.4608","7222","Netherlands"
"Heukelum","51.8731","5.0767","642","Netherlands"
"Loppersum","53.3317","6.7469","2435","Netherlands"
"Rosmalen","51.7167","5.3667","31219","Netherlands"
"Ewijk","51.8833","5.7000","4258","Netherlands"
"Steenwijk","52.7833","6.1167","22843","Netherlands"
"Koedijk","52.6750","4.7483","2931","Netherlands"
"Engelen","51.7208","5.2658","1617","Netherlands"
"Bergen op Zoom","51.5000","4.3000","66811","Netherlands"
"Rijnsburg","52.1897","4.4408","14843","Netherlands"
"Buiksloot","52.3989","4.9221","1801","Netherlands"
"Middelharnis","51.7535","4.1647","18050","Netherlands"
"Ameide","51.9539","4.9625","2808","Netherlands"
"Venlo","51.3700","6.1681","37663","Netherlands"
"Op-Andel","51.7839","5.0539","1977","Netherlands"
"Waverveen","52.2206","4.8961","537","Netherlands"
"IJsselstein","52.0200","5.0422","34160","Netherlands"
"Zuid-Beijerland","51.7514","4.3678","3445","Netherlands"
"Zevender","51.9611","4.8803","134","Netherlands"
"Berkhout","52.6419","4.9969","4321","Netherlands"
"Twisk","52.7403","5.0517","992","Netherlands"
"Deventer","52.2500","6.2000","99166","Netherlands"
"Leens","53.3609","6.3878","4048","Netherlands"
"Sandelingen-Ambacht","51.8458","4.6167","425","Netherlands"
"Lelystad","52.5167","5.4833","77893","Netherlands"
"Oud-Beijerland","51.8200","4.4200","24301","Netherlands"
"Assendelft","52.4667","4.7500","8335","Netherlands"
"Obdam","52.6743","4.8995","6448","Netherlands"
"Sterkenburg","52.0223","5.2826","275","Netherlands"
"Leimuiden","52.2247","4.6717","4711","Netherlands"
"Streefkerk","51.8994","4.7419","2438","Netherlands"
"Ossenisse","51.3883","3.9778","904","Netherlands"
"Boven-Leeuwen","51.8842","5.5294","1565","Netherlands"
"Hazerswoude-Dorp","52.1000","4.5833","11366","Netherlands"
"Abcoude","52.2719","4.9703","8791","Netherlands"
"Rietveld","52.0897","4.8511","767","Netherlands"
"Beek","50.9394","5.7961","15929","Netherlands"
"Eversdijk","51.4700","3.9531","78","Netherlands"
"Genderen","51.7353","5.0878","1149","Netherlands"
"Leeuwarden","53.2000","5.7833","124084","Netherlands"
"Oisterwijk","51.5833","5.2000","26140","Netherlands"
"Schin op Geul","50.8542","5.8694","1579","Netherlands"
"Schipluiden","51.9833","4.3167","11113","Netherlands"
"Uithuizermeeden","53.4144","6.7264","4859","Netherlands"
"Someren","51.3847","5.7119","19322","Netherlands"
"Kralingse Veer","51.9249","4.5071","16673","Netherlands"
"Ezinge","53.3092","6.4431","2152","Netherlands"
"Bath","51.4031","4.2094","227","Netherlands"
"Etten","51.9167","6.3364","1281","Netherlands"
"Groot-Valkenisse","51.4889","3.5156","6168","Netherlands"
"Vrijhoeve-Capelle","51.6667","5.0333","543","Netherlands"
"Aalten","51.9250","6.5808","27011","Netherlands"
"Strijensas","51.7158","4.5861","306","Netherlands"
"Bredevoort","51.9500","6.6167","1525","Netherlands"
"Odoorn","52.8508","6.8481","13126","Netherlands"
"Oud-Heusden","51.7231","5.1361","1082","Netherlands"
"Monnickendam","52.4547","5.0353","10316","Netherlands"
"Garderen","52.2331","5.7139","1361","Netherlands"
"Rijsenburg","52.0436","5.2531","1251","Netherlands"
"Dokkum","53.3253","5.9989","12365","Netherlands"
"Berlicum","51.6772","5.4000","2715","Netherlands"
"Gorssel","52.2000","6.2000","14281","Netherlands"
"Woerden","52.0858","4.8833","51156","Netherlands"
"Gennep","51.6942","5.9733","17071","Netherlands"
"Heemskerk","52.5108","4.6728","39164","Netherlands"
"Wissekerke","51.5014","3.8454","3778","Netherlands"
"Weurt","51.8833","5.7000","283","Netherlands"
"Middelburg","51.4997","3.6136","47939","Netherlands"
"Middelburg","52.0569","4.6817","232","Netherlands"
"Asten","51.4031","5.7472","16710","Netherlands"
"Zuidhorn","53.2468","6.4077","18917","Netherlands"
"Bleskensgraaf","51.8719","4.7828","1167","Netherlands"
"Vlodrop","51.1333","6.0739","2578","Netherlands"
"Chaam","51.5044","4.8614","3630","Netherlands"
"Oud-Alblas","51.8569","4.7047","1970","Netherlands"
"Delden","52.2625","6.7111","3857","Netherlands"
"Polsbroek","51.9781","4.8519","1139","Netherlands"
"Rozenburg","51.9058","4.2486","14741","Netherlands"
"Lienden","51.9467","5.5189","6880","Netherlands"
"Koudekerke","51.4808","3.5528","3419","Netherlands"
"Dommelen","51.3569","5.4306","640","Netherlands"
"Rimburg","50.9169","6.0867","352","Netherlands"
"Veenendaal","52.0250","5.5550","65589","Netherlands"
"Twello","52.2333","6.1022","1051","Netherlands"
"Waalre","51.3867","5.4456","17247","Netherlands"
"Udenhout","51.6094","5.1403","2604","Netherlands"
"Smilde","52.9486","6.4483","9222","Netherlands"
"Blankenham","52.7647","5.8964","561","Netherlands"
"Heerenveen","52.9500","5.9333","28497","Netherlands"
"Grathem","51.1925","5.8578","2860","Netherlands"
"Roggel","51.2625","5.9269","4507","Netherlands"
"Numansdorp","51.7331","4.4381","7761","Netherlands"
"Nederhorst den Berg","52.2567","5.0458","5241","Netherlands"
"Bennebroek","52.3214","4.5967","5842","Netherlands"
"Heemstede","52.3528","4.6200","27286","Netherlands"
"Snelrewaard","52.0331","4.9169","799","Netherlands"
"Heythuysen","51.2496","5.8983","12106","Netherlands"
"Lent","51.8631","5.8667","1053","Netherlands"
"Oldehove","53.3025","6.3928","2600","Netherlands"
"Zevenhoven","52.1825","4.7789","2864","Netherlands"
"Batenburg","51.8233","5.6278","700","Netherlands"
"Heumen","51.7656","5.8433","16486","Netherlands"
"Zuidzande","51.3411","3.4519","1098","Netherlands"
"Opijnen","51.8278","5.2983","698","Netherlands"
"Portengen","52.1558","4.9633","76","Netherlands"
"Ooltgensplaat","51.6825","4.3492","3230","Netherlands"
"Boskoop","52.0667","4.6333","15045","Netherlands"
"Zuidbroek","51.9763","4.8519","233","Netherlands"
"Giessenburg","51.8500","4.8897","4576","Netherlands"
"Hoogblokland","51.8742","4.9750","1392","Netherlands"
"Halsteren","51.5256","4.2747","12725","Netherlands"
"Doesburg","52.0167","6.1333","11148","Netherlands"
"Maastricht","50.8483","5.6889","122378","Netherlands"
"Reeuwijk","52.0481","4.7203","13296","Netherlands"
"'s-Hertogenbosch","51.6833","5.3167","134520","Netherlands"
"Franeker","53.1875","5.5400","12781","Netherlands"
"Oudorp","52.6331","4.7736","6666","Netherlands"
"Hemmen","51.9339","5.7006","233","Netherlands"
"Nieuwegein","52.0314","5.0919","63036","Netherlands"
"Elst","51.9156","5.8378","18056","Netherlands"
"Moordrecht","51.9861","4.6681","7932","Netherlands"
"Spanbroek","52.6981","4.9608","2232","Netherlands"
"Lierop","51.4178","5.6819","944","Netherlands"
"Brouwershaven","51.7264","3.9142","1352","Netherlands"
"Baexem","51.2244","5.8800","2469","Netherlands"
"Roermond","51.1933","5.9872","57308","Netherlands"
"Linschoten","52.0628","4.9144","4669","Netherlands"
"Grosthuizen","52.6167","4.9833","337","Netherlands"
"Ottoland","51.8931","4.8756","895","Netherlands"
"Mesch","50.7631","5.7328","302","Netherlands"
"Balgoij","51.7803","5.7139","510","Netherlands"
"Groote Lindt","51.8106","4.6289","981","Netherlands"
"Eemnes","52.2539","5.2572","9113","Netherlands"
"Den Helder","52.9583","4.7589","55604","Netherlands"
"Staveren","52.8833","5.3583","1172","Netherlands"
"Bussum","52.2733","5.1611","32410","Netherlands"
"Groenlo","52.0500","6.6167","9119","Netherlands"
"Bommenede","51.7344","3.9789","545","Netherlands"
"Spijk","51.8550","5.0078","409","Netherlands"
"Vlijmen","51.6953","5.2119","15899","Netherlands"
"Wemeldinge","51.5175","3.9956","2537","Netherlands"
"Houten","52.0261","5.1728","49911","Netherlands"
"Broek op Langedijk","52.6725","4.8056","2408","Netherlands"
"Groede","51.3789","3.5069","2537","Netherlands"
"Broeksittard","51.0000","5.8833","899","Netherlands"
"Hekelingen","51.8267","4.3422","1125","Netherlands"
"Gorinchem","51.8306","4.9742","35255","Netherlands"
"Valkenswaard","51.3500","5.4592","30910","Netherlands"
"Kleine-Lindt","51.8294","4.5750","364","Netherlands"
"Hallum","53.3064","5.7856","2751","Netherlands"
"Grootebroek","52.6989","5.2189","1796","Netherlands"
"Markelo","52.2342","6.4953","7272","Netherlands"
"Otterlo","52.1000","5.7833","628","Netherlands"
"Zevenhuizen","52.0108","4.5800","6414","Netherlands"
"Winsum","53.3312","6.5157","13560","Netherlands"
"Castricum","52.5517","4.6583","35772","Netherlands"
"Bovenkarspel","52.7000","5.2500","5439","Netherlands"
"Zaltbommel","51.8000","5.2500","27549","Netherlands"
"Herten","51.1803","5.9633","3516","Netherlands"
"Heer","50.8406","5.7269","8985","Netherlands"
"Oosthuizen","52.5708","4.9958","1262","Netherlands"
"Drunen","51.6833","5.1667","18355","Netherlands"
"Hoogkarspel","52.6947","5.1778","4034","Netherlands"
"Stormpolder","51.9117","4.5744","248","Netherlands"
"Wadenoijen","51.8736","5.3722","2136","Netherlands"
"Middelie","52.5322","5.0172","921","Netherlands"
"Harenkarspel","52.7344","4.7706","16179","Netherlands"
"Luyksgestel","51.2900","5.3239","2872","Netherlands"
"Oosterbeek","51.9847","5.8444","1533","Netherlands"
"Haaren","51.6017","5.2228","14195","Netherlands"
"Maasdam","51.7881","4.5561","3087","Netherlands"
"Heino","52.4358","6.2339","7930","Netherlands"
"Varsseveld","51.9433","6.4594","2545","Netherlands"
"Colijnsplaat","51.5986","3.8481","1563","Netherlands"
"Hardinxveld-Giessendam","51.8300","4.8700","18051","Netherlands"
"Dussen","51.7317","4.9633","6127","Netherlands"
"Westmaas","51.7833","4.4667","2126","Netherlands"
"Helden","51.3167","6.0000","19502","Netherlands"
"Aalsmeer","52.2639","4.7625","31728","Netherlands"
"Schellinkhout","52.6342","5.1203","792","Netherlands"
"Sint Pancras","52.6631","4.7853","5068","Netherlands"
"Lonneker","52.2506","6.9119","31129","Netherlands"
"Bathmen","52.2500","6.2869","5224","Netherlands"
"Maassluis","51.9189","4.2567","32768","Netherlands"
"Alphen aan den Rijn","52.1333","4.6500","110986","Netherlands"
"Baardwijk","51.6919","5.0956","1705","Netherlands"
"Darthuizen","52.0125","5.3981","251","Netherlands"
"Putten","52.2579","5.6080","24198","Netherlands"
"Callantsoog","52.8372","4.6967","2680","Netherlands"
"Schiermonnikoog","53.4892","6.2022","936","Netherlands"
"Hernen","51.8331","5.6806","600","Netherlands"
"Westkapelle","51.5293","3.4409","1115","Netherlands"
"Hoogmade","52.1692","4.5819","291","Netherlands"
"Roosendaal","51.5314","4.4556","77032","Netherlands"
"Meerkerk","51.9200","4.9942","3007","Netherlands"
"Oirschot","51.5047","5.3128","18623","Netherlands"
"Vleuten","52.1081","5.0150","4076","Netherlands"
"Nieuwpoort","51.9347","4.8681","1213","Netherlands"
"Slenaken","50.7678","5.8622","684","Netherlands"
"Achttienhoven","52.1483","5.1389","898","Netherlands"
"Schoonhoven","51.9475","4.8486","11922","Netherlands"
"Arnhem","51.9833","5.9167","148070","Netherlands"
"Loenen","51.8833","5.7833","101","Netherlands"
"Nunhem","51.2447","5.9611","337","Netherlands"
"Lunteren","52.0872","5.6219","1328","Netherlands"
"Bruchem","51.7853","5.2367","620","Netherlands"
"Sint-Oedenrode","51.5636","5.4608","17893","Netherlands"
"Renswoude","52.0739","5.5406","5259","Netherlands"
"Nieuwe-Tonge","51.7150","4.1653","2190","Netherlands"
"Ellewoutsdijk","51.3903","3.8158","761","Netherlands"
"Schoorl","52.7014","4.6944","6586","Netherlands"
"Lith","51.8042","5.4408","6685","Netherlands"
"Borgharen","50.8781","5.6883","645","Netherlands"
"Bergen","51.5992","6.0336","13140","Netherlands"
"Zuidveen","52.7769","6.1083","610","Netherlands"
"Zegveld","52.1161","4.8347","1909","Netherlands"
"Cadier en Keer","50.8283","5.7678","3923","Netherlands"
"Rilland","51.4164","4.1808","917","Netherlands"
"Linne","51.1542","5.9392","3813","Netherlands"
"Vierpolders","51.8783","4.1794","1872","Netherlands"
"Harderwijk","52.3506","5.6172","47581","Netherlands"
"Havelte","52.7739","6.2383","5858","Netherlands"
"Hooge Zwaluwe","51.6989","4.7245","6014","Netherlands"
"Esch","51.6103","5.2906","1937","Netherlands"
"Diessen","51.4739","5.1747","4020","Netherlands"
"Oud-Wulven","52.0444","5.1550","286","Netherlands"
"Vreeland","52.2297","5.0311","1373","Netherlands"
"Avenhorn","52.6200","4.9542","2330","Netherlands"
"Holten","52.2814","6.4186","8896","Netherlands"
"Teijlingen","52.2150","4.5103","37061","Netherlands"
"Hegelsom","51.4400","6.0375","1907","Netherlands"
"Puiflijk","51.8792","5.5903","401","Netherlands"
"Grevenbicht","51.0417","5.7728","2626","Netherlands"
"Bergen","52.6703","4.7054","29974","Netherlands"
"Kedichem","51.8600","5.0503","1217","Netherlands"
"Boxmeer","51.6483","5.9444","29065","Netherlands"
"Oostvoorne","51.9119","4.1008","8055","Netherlands"
"Hasselt","52.5908","6.0911","7960","Netherlands"
"Ochten","51.9078","5.5678","1522","Netherlands"
"Gramsbergen","52.6103","6.6728","6500","Netherlands"
"Everdingen","51.9647","5.1564","1894","Netherlands"
"Aagtekerke","51.5464","3.5094","1556","Netherlands"
"Huijbergen","51.4325","4.3744","2133","Netherlands"
"Breukelen","52.1725","4.9986","14736","Netherlands"
"Ten Boer","53.2833","6.6833","7292","Netherlands"
"Medemblik","52.7674","5.1037","44809","Netherlands"
"Oudelande","51.4083","3.8536","779","Netherlands"
"Blaricum","52.2728","5.2422","11202","Netherlands"
"Willemstad","51.6919","4.4378","3370","Netherlands"
"Groesbeek","51.7833","5.9333","18870","Netherlands"
"Krimpen aan de Lek","51.8931","4.6275","6114","Netherlands"
"Waarder","52.0614","4.8225","1014","Netherlands"
"Stolwijk","51.9736","4.7711","4344","Netherlands"
"Grave","51.7592","5.7383","12483","Netherlands"
"Bleiswijk","52.0100","4.5400","10258","Netherlands"
"Zundert","51.4703","4.6600","21612","Netherlands"
"Borne","52.3000","6.7500","23210","Netherlands"
"Noord-Scharwoude","52.7006","4.8103","1977","Netherlands"
"Wieringerwerf","52.8500","5.0300","12576","Netherlands"
"Belfeld","51.3100","6.1144","5449","Netherlands"
"Heesch","51.7314","5.5300","29728","Netherlands"
"Meerssen","50.8858","5.7519","18923","Netherlands"
"Schimmert","50.9056","5.8219","1356","Netherlands"
"Arnemuiden","51.5000","3.6667","5055","Netherlands"
"Wieringerwaard","52.8400","4.8678","1479","Netherlands"
"Graft","52.5608","4.8339","1651","Netherlands"
"Nieuwenhagen","50.9039","6.0400","10022","Netherlands"
"Grubbenvorst","51.4189","6.1431","6960","Netherlands"
"Eede","51.2467","3.4436","1275","Netherlands"
"Echt","51.1058","5.8706","19237","Netherlands"
"Liesveld","51.9156","4.8456","9746","Netherlands"
"Diepenveen","52.2894","6.1500","10838","Netherlands"
"Oldekerk","53.2194","6.3389","2282","Netherlands"
"Scherpenzeel","52.0667","5.4833","9873","Netherlands"
"Zaamslag","51.3125","3.9131","3631","Netherlands"
"Dreumel","51.8492","5.4325","3150","Netherlands"
"Veere","51.5500","3.6667","1650","Netherlands"
"IJzendijke","51.3214","3.6164","3006","Netherlands"
"Beek en Donk","51.5161","5.6208","22333","Netherlands"
"Doornspijk","52.4192","5.8161","11116","Netherlands"
"Steenwijkerwold","52.8036","6.0617","8331","Netherlands"
"Hendrik-Ido-Ambacht","51.8500","4.6300","30966","Netherlands"
"Zwartewaal","51.8833","4.2208","1366","Netherlands"
"Nederhemert","51.7652","5.1682","1058","Netherlands"
"Druten","51.8889","5.6044","18797","Netherlands"
"Scheemda","53.1667","6.9667","14368","Netherlands"
"Ophemert","51.8453","5.3842","1187","Netherlands"
"Winterswijk","51.9667","6.7167","28903","Netherlands"
"Beuningen","51.8667","5.7667","25882","Netherlands"
"Riethoven","51.3536","5.3864","2003","Netherlands"
"Uden","51.6667","5.6167","41782","Netherlands"
"Petten","52.7678","4.6583","411","Netherlands"
"Zes Gehuchten","51.4211","5.5378","1302","Netherlands"
"Goor","52.2333","6.5861","12349","Netherlands"
"Capelle aan den IJssel","51.9357","4.5782","66514","Netherlands"
"Goudriaan","51.9028","4.8881","1033","Netherlands"
"Grijpskerke","51.5339","3.5617","920","Netherlands"
"Werkendam","51.8097","4.8928","26940","Netherlands"
"Venray","51.5258","5.9747","43326","Netherlands"
"Sint-Michielsgestel","51.6433","5.3586","28991","Netherlands"
"Geulle","50.9225","5.7503","2991","Netherlands"
"Melissant","51.7681","4.0761","2035","Netherlands"
"Rijsbergen","51.5167","4.7000","5665","Netherlands"
"Almere","52.3758","5.2256","207904","Netherlands"
"Wervershoof","52.7347","5.1492","8746","Netherlands"
"Uitgeest","52.5292","4.7103","13528","Netherlands"
"Kattendijke","51.5228","3.9433","1274","Netherlands"
"Reek","51.7447","5.6831","1007","Netherlands"
"Midwolda","53.1928","7.0161","4719","Netherlands"
"Sevenum","51.4167","6.0333","7234","Netherlands"
"Dodewaard","51.9103","5.6568","4528","Netherlands"
"Sint Anthoniepolder","51.7972","4.5333","433","Netherlands"
"Hoogeveen","52.7167","6.4667","55224","Netherlands"
"Zuilichem","51.8086","5.1344","1199","Netherlands"
"Zuidland","51.8219","4.2581","1808","Netherlands"
"Boekel","51.6011","5.6742","10588","Netherlands"
"Nieuw-Beijerland","51.8119","4.3425","2905","Netherlands"
"Bellingwolde","53.1203","7.1719","6578","Netherlands"
"Ootmarsum","52.4072","6.8994","4530","Netherlands"
"Brunssum","50.9500","5.9667","28103","Netherlands"
"Buggenum","51.2314","5.9825","755","Netherlands"
"Haps","51.6886","5.8608","2940","Netherlands"
"Meliskerke","51.5153","3.5119","749","Netherlands"
"Gendt","51.8769","5.9725","7286","Netherlands"
"Bergschenhoek","51.9800","4.5000","13206","Netherlands"
"Warmond","52.1972","4.5017","5159","Netherlands"
"Hedikhuizen","51.7356","5.1839","1387","Netherlands"
"Geervliet","51.8611","4.2622","2393","Netherlands"
"The Bottom","17.6261","-63.2492","495","Netherlands"
"Etten-Leur","51.5706","4.6356","43774","Netherlands"
"Wittem","50.8133","5.9122","7769","Netherlands"
"Standdaarbuiten","51.6122","4.5144","2839","Netherlands"
"Wijchen","51.8067","5.7211","40951","Netherlands"
"Oterleek","52.6333","4.8417","969","Netherlands"
"Moergestel","51.5500","5.1833","5835","Netherlands"
"Stoutenburg","52.1539","5.4325","2433","Netherlands"
"Schelluinen","51.8425","4.9258","1103","Netherlands"
"Rolde","52.9869","6.6461","6131","Netherlands"
"Rheden","52.0000","6.0167","43816","Netherlands"
"Zwartsluis","52.6419","6.0703","4688","Netherlands"
"Stompwijk","52.0944","4.4697","5112","Netherlands"
"Zeeland","51.6967","5.6731","5788","Netherlands"
"Waardenburg","51.8322","5.2558","2106","Netherlands"
"Bierum","53.3814","6.8594","4559","Netherlands"
"Peize","53.1478","6.4961","5005","Netherlands"
"Terborg","51.9203","6.3575","1643","Netherlands"
"Spaubeek","50.9378","5.8414","3718","Netherlands"
"Veessen","52.3761","6.0892","928","Netherlands"
"Vriezenveen","52.4117","6.6256","19875","Netherlands"
"Varik","51.8233","5.3692","1363","Netherlands"
"Haarlem","52.3803","4.6406","159134","Netherlands"
"Harlingen","53.1736","5.4272","15822","Netherlands"
"Maarssen","52.1408","5.0394","39752","Netherlands"
"Stramproy","51.1933","5.7192","4916","Netherlands"
"Wamel","51.8800","5.4692","9585","Netherlands"
"Ulrum","53.3589","6.3331","11212","Netherlands"
"Kortgene","51.5583","3.8000","3977","Netherlands"
"Sommelsdijk","51.7547","4.1531","3715","Netherlands"
"Budel","51.2725","5.5744","11926","Netherlands"
"Zonnemaire","51.7125","3.9508","1060","Netherlands"
"Veghel","51.6169","5.5481","38077","Netherlands"
"Mheer","50.7828","5.7931","1851","Netherlands"
"Laagnieuwkoop","52.1322","4.9836","489","Netherlands"
"Urk","52.6653","5.6058","20776","Netherlands"
"Wedde","53.0667","7.0833","4057","Netherlands"
"Nieuw-Lekkerland","51.8833","4.6833","9541","Netherlands"
"Hoogkerk","53.2167","6.5000","5307","Netherlands"
"Oostzaan","52.4406","4.8789","9757","Netherlands"
"Valburg","51.9111","5.7892","13449","Netherlands"
"Hellevoetsluis","51.8333","4.1333","40049","Netherlands"
"Nederlangbroek","52.0122","5.3269","2075","Netherlands"
"Broek in Waterland","52.4342","4.9958","2756","Netherlands"
"Beilen","52.8567","6.5111","14089","Netherlands"
"Geldrop","51.4222","5.5578","28222","Netherlands"
"Borculo","52.1167","6.5167","10498","Netherlands"
"Stein","52.0000","4.7833","496","Netherlands"
"Vaassen","52.2881","5.9694","2087","Netherlands"
"Stellendam","51.8047","4.0242","1950","Netherlands"
"Nieuwerkerk aan den IJssel","51.9656","4.6083","21649","Netherlands"
"Wognum","52.6819","5.0228","8006","Netherlands"
"Sint Odilienberg","51.1425","6.0017","3565","Netherlands"
"Veur","52.0833","4.4333","3590","Netherlands"
"Woensdrecht","51.4300","4.3050","21866","Netherlands"
"Beesd","51.8875","5.1911","3611","Netherlands"
"Sint Anna ter Muiden","51.3144","3.3642","50","Netherlands"
"Dieren","52.0521","6.0974","2864","Netherlands"
"Nieuwe-Niedorp","52.7380","4.8962","2049","Netherlands"
"Lichtenvoorde","51.9833","6.5667","19224","Netherlands"
"Hoenkoop","52.0153","4.8092","724","Netherlands"
"Kleverskerke","51.5189","3.6631","202","Netherlands"
"Teteringen","51.6086","4.8206","6695","Netherlands"
"Koewacht","51.2333","3.9667","2757","Netherlands"
"Harmelen","52.0894","4.9608","7884","Netherlands"
"Sluipwijk","52.0553","4.7419","840","Netherlands"
"Strucht","50.8500","5.8667","333","Netherlands"
"Eersel","51.3572","5.3147","19110","Netherlands"
"Hoensbroek","50.9167","5.9333","22740","Netherlands"
"Cillaarshoek","51.7706","4.5461","312","Netherlands"
"Zaanstad","52.4697","4.7767","154037","Netherlands"
"Heerhugowaard","52.6680","4.8410","56742","Netherlands"
