"city","lat","lng","population","country"
"Mayaki Dey","12.8155","3.4160","751","Niger"
"Kossey","13.5139","2.0387","339","Niger"
"Chikal Ilela","14.2436","3.4614","477","Niger"
"Doulsou","14.7475","0.8961","1264","Niger"
"Ouinditene","13.7583","2.8897","558","Niger"
"Sandire","13.6517","2.8951","1382","Niger"
"Takieta","13.6806","8.5292","8554","Niger"
"Gorou Kirey","13.4263","2.1422","585","Niger"
"Ganguel","13.5065","2.0419","303","Niger"
"Yamya","13.4268","10.3018","685","Niger"
"Tahoua","14.9000","5.2599","115956","Niger"
"Telemses","15.6231","4.7816","3599","Niger"
"Kouloun Karki","14.6458","8.8353","697","Niger"
"Tondikoire","14.6941","1.8525","799","Niger"
"Samia","14.7076","8.2369","2977","Niger"
"Tilakeyna","14.2274","1.4503","2636","Niger"
"Moussadeye","13.3918","3.1952","6742","Niger"
"Boultoum","14.5958","10.2897","138","Niger"
"Zangon Iletafane","13.5041","8.4622","243","Niger"
"Koutoufani","13.3067","3.2283","2345","Niger"
"Gijikawa","14.7493","8.6755","913","Niger"
"Dan Kori","13.9109","7.9719","5902","Niger"
"Koutoukale Zeno","13.6937","1.7435","2455","Niger"
"Gorou-Banda","13.4390","2.1278","328","Niger"
"Achenouma","19.1282","12.9235","581","Niger"
"Soudoure Peul","13.5822","2.0072","10","Niger"
"Dan Daji","14.2823","5.1254","2539","Niger"
"Neini Goungou","13.5142","2.0641","201","Niger"
"Soumarana","13.4467","7.0879","4353","Niger"
"Bani Bangou","15.0408","2.7050","6788","Niger"
"Saya","13.7839","1.6071","1588","Niger"
"Sakadamna","13.2712","3.6938","2278","Niger"
"Sabon Birni","11.8847","3.5931","5970","Niger"
"Nobi","14.0172","5.5364","4425","Niger"
"Boubon","13.6019","1.9269","1829","Niger"
"Kassani","13.8932","1.5060","2332","Niger"
"Tiloa","15.0646","2.0586","1769","Niger"
"I-n-Ouagar","14.9258","5.9761","1439","Niger"
"I-n-Ouagar","16.1256","6.6856","2365","Niger"
"Famale","14.5524","1.0826","2065","Niger"
"Takorka","13.9238","6.1795","3505","Niger"
"Arrigui","19.0777","12.9185","485","Niger"
"Dosey","13.8825","5.1928","6968","Niger"
"Dindi","14.4179","5.6135","5926","Niger"
"Assamakka","19.3667","5.8000","513","Niger"
"Gezawa","14.4430","8.7289","2385","Niger"
"Ziban","14.5540","1.3356","3148","Niger"
"Ko Gorou","13.6062","2.2024","3608","Niger"
"Baroua Koura","13.8824","13.1735","3292","Niger"
"Ngalwa","13.5624","12.9048","834","Niger"
"Bayzo","13.8722","4.7536","883","Niger"
"Toubout","14.3387","5.5951","6785","Niger"
"Kaora Abdou","14.4525","5.6604","5672","Niger"
"Guileyni","13.4410","2.7068","813","Niger"
"Soudani","14.2810","1.2983","1875","Niger"
"Gueriel","13.7993","1.3569","1160","Niger"
"Boumba","12.4072","2.8455","1774","Niger"
"Maourey Kouara Zeno","13.5895","2.6497","378","Niger"
"Saga Fondo","13.5839","1.9609","3865","Niger"
"Angoul Denya","14.3433","5.7002","6937","Niger"
"La Tapoa","12.4749","2.4248","126","Niger"
"Seberi Zarma","13.2952","2.3450","2064","Niger"
"Dole","11.7127","3.6288","3325","Niger"
"Djado","21.0150","12.3075","10","Niger"
"Yeni","13.4296","2.9933","3976","Niger"
"Baleyara","13.7841","2.9515","16063","Niger"
"Tiawa","13.5033","1.2867","753","Niger"
"Taroum","14.6752","2.2721","1607","Niger"
"Awadam","13.6266","13.2518","1503","Niger"
"Saouani","14.2552","1.3345","2034","Niger"
"Bakin Birji I","14.2565","8.7943","6702","Niger"
"Niabere Bella Zarma","13.3162","2.8391","1240","Niger"
"Dan Gona","14.2697","5.0383","5116","Niger"
"Moulela","14.6338","4.9575","5440","Niger"
"Taza","15.3608","5.2072","7040","Niger"
"Zeynam Tyalori","13.3586","12.7185","957","Niger"
"Birnin Konni","13.7904","5.2599","65252","Niger"
"Guidan Roumdji","13.6575","6.6958","17525","Niger"
"Abardokh","17.5151","8.6481","1254","Niger"
"Souloulou","13.6127","6.4177","5424","Niger"
"Garbougoua","13.8709","1.1238","2461","Niger"
"Kouli Kouara","13.8718","1.4867","5413","Niger"
"Bouti","13.9872","11.3333","5768","Niger"
"Hamdallay","13.5572","2.4064","6153","Niger"
"Zinder","13.8000","8.9833","322935","Niger"
"Gazori","13.4867","7.9562","2544","Niger"
"Malgorou","12.1733","3.4633","5115","Niger"
"Jika-ta","13.6363","7.8241","1960","Niger"
"Tougana","13.8438","4.2189","183","Niger"
"Talcho","14.5786","3.3637","2235","Niger"
"Cheri","13.4244","11.3853","1743","Niger"
"Sorbon Haoussa","13.7828","1.6708","958","Niger"
"Djaji Douna","14.8646","9.0158","982","Niger"
"Farie H.","13.7943","1.6362","372","Niger"
"Kotaki","12.4490","2.8775","3221","Niger"
"Tondi Kouarey","13.5864","1.9934","2519","Niger"
"Karey Gorou","13.5367","2.0063","2048","Niger"
"Seguedine","20.1967","12.9665","381","Niger"
"Fadama","13.0379","3.9024","3603","Niger"
"Garadoume","14.3671","5.8841","5749","Niger"
"Ngounga Zarma","13.1792","2.8267","1503","Niger"
"Sargadji","13.6139","3.1721","4297","Niger"
"Yaama","14.3601","5.4975","7351","Niger"
"Jambriji","13.4070","9.4426","5304","Niger"
"Ayorou","14.7318","0.9195","26290","Niger"
"Lougou","13.8578","4.2428","366","Niger"
"Boureimi","13.1590","3.7297","1861","Niger"
"Baguey","14.8503","5.5636","7640","Niger"
"Tongo Tongo","15.0532","1.8355","714","Niger"
"Saga Gorou","13.5395","2.2115","2792","Niger"
"Fandou Beri","14.0303","2.8603","3421","Niger"
"Fandou Beri","13.5331","2.5557","1162","Niger"
"Toudouni","14.7398","5.4578","5848","Niger"
"Zongotobanda","13.5926","3.2266","660","Niger"
"Goure","13.9874","10.2700","14639","Niger"
"Toubori","13.9339","12.3063","47","Niger"
"Masalata","13.7795","5.2077","5801","Niger"
"Tillaberi","14.2120","1.4531","19262","Niger"
"Kelakam","13.5561","11.7408","3533","Niger"
"Elmeki","17.7366","8.2757","674","Niger"
"Sabanga","14.1833","5.6500","4094","Niger"
"Niamey","13.5086","2.1111","1026848","Niger"
"Assaka Koura","13.3133","12.7086","433","Niger"
"Chikal Chinyasou","14.2479","3.4468","2391","Niger"
"Kelente","14.3234","5.8087","5748","Niger"
"Toulou","14.1688","5.1990","8785","Niger"
"Kodo","13.2300","2.6900","1365","Niger"
"Goula","14.6586","7.2311","2355","Niger"
"Agadez","16.9959","7.9828","117770","Niger"
"Tyourout","14.1542","5.4391","6470","Niger"
"Nguigmi","14.2532","13.1108","17897","Niger"
"Tabla","13.7587","3.0214","2126","Niger"
"Karma Zarma","13.3875","2.9778","1916","Niger"
"Riadi Dan Bizo","13.4334","7.1399","5481","Niger"
"Diffa","13.3171","12.6089","30988","Niger"
"Gorou","13.6231","2.0985","344","Niger"
"Gabo Goura","13.5537","2.0213","2402","Niger"
"Yatakala","14.7919","0.3728","3193","Niger"
"Zangarata","14.7969","5.6554","4892","Niger"
"Dafawa","14.1371","5.0637","7002","Niger"
"Chikal Lokoko","14.2533","3.4619","643","Niger"
"Bezza","18.9198","12.8892","255","Niger"
"Madeta II","14.2713","6.0140","6253","Niger"
"Ouanzerbe","14.7433","0.3609","3504","Niger"
"Bandio","13.8888","1.0896","9237","Niger"
"Chirfa","20.9533","12.3406","288","Niger"
"Marandet","16.3729","7.4268","652","Niger"
"Yonkoto","13.6246","1.8602","1292","Niger"
"Banou Oualki","14.7722","9.0409","875","Niger"
"Saga Gourma","13.4471","2.1219","2403","Niger"
"Kargeri","13.4427","10.4238","3068","Niger"
"Tounfafi","14.0464","5.9812","9530","Niger"
"Sikiey","13.6335","1.8494","988","Niger"
"Nakoni","14.1094","5.9159","5317","Niger"
"Sadore","13.2485","2.3019","670","Niger"
"Sarando Bene","13.5836","1.9279","943","Niger"
"Male Male","13.1017","9.8970","1631","Niger"
"Alaghsas","17.0218","8.0194","3102","Niger"
"Fantio","14.5276","0.2293","1366","Niger"
"Bonkoukou","14.0103","3.2117","4881","Niger"
"Kiriguim","14.1802","10.9039","2391","Niger"
"Koundoumawa","13.6702","8.3627","5700","Niger"
"Kolman","14.7589","0.6392","1130","Niger"
"Eliki Gounda","15.0099","8.1612","274","Niger"
"Tiombango","14.8297","1.8124","1236","Niger"
"Settore","13.5605","1.9842","433","Niger"
"Ouirihamija","15.1924","5.4866","926","Niger"
"Sabonkafi","14.6416","8.7449","5389","Niger"
"Kawara","14.0706","5.6715","9064","Niger"
"Dabnou","14.1571","5.3626","7861","Niger"
"Margou","13.1055","2.8443","477","Niger"
"Chikal Dourgouna","14.2457","3.4505","286","Niger"
"Bangou Tara","13.8423","1.3511","2615","Niger"
"Sara Koire","14.5168","1.2280","988","Niger"
"Gonoubi","13.1250","2.7851","945","Niger"
"Gorou Keyna","13.5630","2.1631","290","Niger"
"Moujia","14.3687","5.3759","2059","Niger"
"Belbeji","14.6811","7.9949","6310","Niger"
"Sokole","14.8347","5.7036","6506","Niger"
"Gabado","14.5446","1.3057","1104","Niger"
"Sina Dey","12.8408","3.3185","591","Niger"
"Bolsi","13.3001","1.2191","659","Niger"
"Damana","13.8987","3.0752","3607","Niger"
"Djibale","14.5007","5.9857","5717","Niger"
"Nglea","14.0192","13.0270","519","Niger"
"Bangare","13.7825","0.6248","1575","Niger"
"Birnin Kazoe","14.2171","9.9702","7500","Niger"
"Aouderas","17.6288","8.4139","727","Niger"
"Nasarawa","14.0821","5.8153","6426","Niger"
"Soudoure","13.5765","2.0043","2300","Niger"
"Timere","13.4304","2.1364","652","Niger"
"Gaya","11.8878","3.4467","63815","Niger"
"Galmi","13.9667","5.6744","13888","Niger"
"Diamiowe","13.4992","2.0587","765","Niger"
"Arlit","18.8200","7.3300","100000","Niger"
"Ouro Sawabe","13.2092","1.8778","339","Niger"
"Diambala","14.3145","1.2988","5007","Niger"
"Bossey Bangou","13.3459","1.2918","2906","Niger"
"Bossey Bangou","13.6020","2.1333","700","Niger"
"Fandou Mayaki","13.8967","2.8914","2971","Niger"
"Goudel","13.2384","3.0895","1407","Niger"
"Soubdou","13.8146","10.5399","5741","Niger"
"Maradi","13.4916","7.0964","232555","Niger"
"Tondibia","13.5635","2.0130","2539","Niger"
"Dan Kanasa","14.7393","8.7767","692","Niger"
"Dolbel","14.6115","0.2788","4632","Niger"
"Bangou Kouarey","13.6034","1.8964","3168","Niger"
"Kawara Debe","12.3340","3.4298","3132","Niger"
"Laba","14.6187","5.9375","6712","Niger"
"Chikal Kware","14.2051","3.4298","955","Niger"
"Bara","12.3817","3.4263","288","Niger"
"Bani Goungou","13.4292","2.1684","2307","Niger"
"Firgoun","14.8096","0.8777","715","Niger"
"Koutou","14.2840","13.1995","297","Niger"
"Bedouaram","15.7444","13.1513","45","Niger"
"Sansane Haoussa","13.8469","1.6078","3202","Niger"
"Koulou","12.2170","3.0661","580","Niger"
"Asoudie","14.3841","5.7345","6007","Niger"
"Dan Amaria","14.0931","7.6434","1053","Niger"
"Moli Haoussa","12.5326","2.3226","425","Niger"
"Barbarkia","13.7521","8.8412","875","Niger"
"Garazou","14.4795","9.6800","1081","Niger"
"Farie","14.5112","1.2180","899","Niger"
"Adebour","13.3182","11.8773","241","Niger"
"Gidan Ider","14.0131","5.3185","8582","Niger"
"Mangaize","14.6831","1.9517","3669","Niger"
"Aney","19.3486","12.8636","651","Niger"
"Tarna","13.4511","7.1153","547","Niger"
"Dosso","13.0500","3.2000","49750","Niger"
"Lido","12.8939","3.7264","3674","Niger"
"Dalawey","13.9422","1.5544","2405","Niger"
"Aouloumal","14.2283","6.0301","6178","Niger"
"Tounfaliz","14.3326","3.3205","3359","Niger"
"Kobo Dey","13.1637","2.5243","1804","Niger"
"Madaoua","14.0762","5.9586","24804","Niger"
"Teguidda I-n-Tessoum","17.4290","6.6465","489","Niger"
"Kossogo","13.9119","1.2058","1323","Niger"
"Talat","17.5317","8.6418","1303","Niger"
"I-n-Jitane","17.1748","7.2490","434","Niger"
"Chadawanka","15.0339","6.1269","2200","Niger"
"Gandasamou","14.1938","6.0669","5279","Niger"
"Agadem","16.8701","13.2663","487","Niger"
