"city","lat","lng","population","country"
"Apples","46.5500","6.4333","1468","Switzerland"
"Bosingen","46.9000","7.2333","3408","Switzerland"
"La Praz","46.6667","6.4333","165","Switzerland"
"Bovernier","46.0833","7.0833","893","Switzerland"
"Oberkirch","47.1564","8.1158","4707","Switzerland"
"Hauterive","47.0167","6.9667","2623","Switzerland"
"Flurlingen","47.6839","8.6283","1437","Switzerland"
"Courroux","47.3692","7.3930","3314","Switzerland"
"Mels","47.0497","9.4167","8620","Switzerland"
"Signau","46.9217","7.7267","2659","Switzerland"
"Plagne","47.1881","7.2869","378","Switzerland"
"Bubendorf","47.4497","7.7364","4389","Switzerland"
"Chavannes-sur-Moudon","46.6500","6.8000","220","Switzerland"
"Burgistein","46.7921","7.5032","1096","Switzerland"
"Mohlin","47.5583","7.8458","11042","Switzerland"
"Morschach","46.9817","8.6197","1159","Switzerland"
"Novazzano","45.8500","8.9833","2380","Switzerland"
"Frasco","46.3333","8.8000","112","Switzerland"
"Habsburg","47.4636","8.1861","440","Switzerland"
"Chavannes-de-Bogis","46.3500","6.1667","1285","Switzerland"
"Langnau","46.9433","7.7853","9366","Switzerland"
"Boswil","47.3011","8.3139","2837","Switzerland"
"Gsteig","46.6522","7.8889","404","Switzerland"
"Fischingen","47.4164","8.9667","2791","Switzerland"
"Oppens","46.7167","6.7000","197","Switzerland"
"Lutisburg","47.3947","9.0811","1576","Switzerland"
"Saint-Aubin","46.8900","6.9806","1801","Switzerland"
"Brutten","47.4731","8.6744","2016","Switzerland"
"Glarus","47.0333","9.0667","5996","Switzerland"
"Greifensee","47.3661","8.6786","5345","Switzerland"
"Liesberg","47.4050","7.4300","1127","Switzerland"
"Kleinandelfingen","47.6000","8.6831","2077","Switzerland"
"Avully","46.1675","5.9985","1756","Switzerland"
"Rain","47.1308","8.2575","2770","Switzerland"
"Grund bei Gstaad","46.3833","7.2664","987","Switzerland"
"Bevaix","46.9312","6.8041","3784","Switzerland"
"Schotz","47.1711","7.9894","4434","Switzerland"
"Lutry","46.5151","6.6990","10289","Switzerland"
"Termen","46.3167","8.0167","946","Switzerland"
"Obersiggenthal","47.4869","8.2921","8565","Switzerland"
"Frauenkappelen","46.9554","7.3334","1240","Switzerland"
"Mandach","47.5483","8.1858","341","Switzerland"
"Zell","47.4489","8.8233","5929","Switzerland"
"Eschenz","47.6500","8.8664","1743","Switzerland"
"Orselina","46.1833","8.8000","727","Switzerland"
"Mettembert","47.4000","7.3167","107","Switzerland"
"Wolfwil","47.2692","7.7931","2272","Switzerland"
"Saulcy","47.3000","7.1500","260","Switzerland"
"Munchenstein","47.5186","7.6174","12096","Switzerland"
"Bassersdorf","47.4431","8.6283","11593","Switzerland"
"Eichberg","47.3430","9.5308","1524","Switzerland"
"Murten","46.9281","7.1169","8222","Switzerland"
"Schattdorf","46.8494","8.6713","5418","Switzerland"
"Darstetten","46.6720","7.4883","848","Switzerland"
"Grolley","46.8333","7.0667","1920","Switzerland"
"Rances","46.7659","6.5075","481","Switzerland"
"Spreitenbach","47.4181","8.3661","11788","Switzerland"
"Landquart","46.9497","9.5667","8849","Switzerland"
"Elsau","47.5061","8.8028","3660","Switzerland"
"Bioggio","46.0167","8.9000","2626","Switzerland"
"Gingins","46.4167","6.1833","1221","Switzerland"
"Ermatingen","47.6692","9.0797","3455","Switzerland"
"Scheuren","47.1333","7.3167","448","Switzerland"
"Poschiavo","46.3333","10.0497","3516","Switzerland"
"Bariswil","47.0167","7.5333","1062","Switzerland"
"Wangen bei Olten","47.3442","7.8694","5056","Switzerland"
"Vordemwald","47.2761","7.9000","1954","Switzerland"
"Montcherand","46.7333","6.5167","488","Switzerland"
"Courgevaux","46.9065","7.1121","1420","Switzerland"
"Mumpf","47.5472","7.9194","1467","Switzerland"
"Giswil","46.8359","8.1188","3657","Switzerland"
"Buttwil","47.2677","8.3111","1228","Switzerland"
"Vouvry","46.3333","6.8833","4198","Switzerland"
"Wiggiswil","47.0294","7.4689","106","Switzerland"
"Altendorf","47.1922","8.8300","7081","Switzerland"
"Ober Tschappina","46.6831","9.3833","130","Switzerland"
"Egerkingen","47.3219","7.7944","3683","Switzerland"
"Wauwil","47.1831","8.0167","2247","Switzerland"
"La Chaux-du-Milieu","47.0167","6.7000","492","Switzerland"
"Chalais","46.2477","7.5302","3524","Switzerland"
"Saint Moritz","46.4972","9.8378","4994","Switzerland"
"Neukirch an der Thur","47.5110","9.1730","0","Switzerland"
"Vaumarcus","46.8833","6.7500","268","Switzerland"
"Muttenz","47.5228","7.6452","17805","Switzerland"
"Volken","47.5750","8.6261","337","Switzerland"
"Sils im Domleschg","46.7000","9.4497","943","Switzerland"
"Commugny","46.3167","6.1833","2874","Switzerland"
"Maisprach","47.5244","7.8458","922","Switzerland"
"Durrenroth","47.0892","7.7910","1061","Switzerland"
"Oberdorf","47.3919","7.7514","2434","Switzerland"
"Rossa","46.3664","9.1331","148","Switzerland"
"Begnins","46.4333","6.2500","1950","Switzerland"
"Filisur","46.6722","9.6875","434","Switzerland"
"Nunningen","47.3942","7.6194","1880","Switzerland"
"Zuzwil","47.0517","7.4725","577","Switzerland"
"Buttisholz","47.1136","8.0944","3294","Switzerland"
"Interlaken","46.6881","7.8646","5592","Switzerland"
"Niederdorf","47.4078","7.7533","1795","Switzerland"
"Personico","46.3667","8.9167","335","Switzerland"
"Ropraz","46.6110","6.7537","495","Switzerland"
"Wolfenschiessen","46.9094","8.3972","2097","Switzerland"
"Rufenach","47.5094","8.2081","854","Switzerland"
"Moosleerau","47.2692","8.0653","919","Switzerland"
"Tegerfelden","47.5619","8.2848","1190","Switzerland"
"Flims","46.8331","9.2831","2834","Switzerland"
"Lucerne","47.0523","8.3059","81691","Switzerland"
"Othmarsingen","47.4012","8.2153","2897","Switzerland"
"Binningen","47.5333","7.5667","15580","Switzerland"
"Fisibach","47.5636","8.4094","506","Switzerland"
"Wetzikon","47.3208","8.7931","24452","Switzerland"
"Roveredo","46.2348","9.1257","2520","Switzerland"
"Romont","46.7001","6.9181","5276","Switzerland"
"Altwis","47.2386","8.2497","438","Switzerland"
"Kriens","47.0344","8.2800","26997","Switzerland"
"Baden","47.4729","8.3080","19122","Switzerland"
"Ruti bei Buren","47.1528","7.4056","857","Switzerland"
"Ruti bei Lyssach","47.0564","7.5769","160","Switzerland"
"Walkringen","46.9467","7.6200","1767","Switzerland"
"Zuchwil","47.2056","7.5597","8875","Switzerland"
"Hasle","46.9783","8.0467","1743","Switzerland"
"Giffers","46.7614","7.2103","1634","Switzerland"
"Bonstetten","47.3156","8.4692","5543","Switzerland"
"Vucherens","46.6167","6.8000","572","Switzerland"
"Hochfelden","47.5244","8.5167","1927","Switzerland"
"Grens","46.3938","6.1913","389","Switzerland"
"Beurnevesin","47.4833","7.1333","123","Switzerland"
"Rossmoos","47.0103","8.0269","670","Switzerland"
"Rumlang","47.4533","8.5331","7929","Switzerland"
"Ennenda","47.0336","9.0775","2808","Switzerland"
"Menzingen","47.1803","8.5917","4540","Switzerland"
"Rudlingen","47.5667","8.5664","750","Switzerland"
"Courgenay","47.4000","7.1333","2329","Switzerland"
"Villeneuve","46.4063","6.9731","5767","Switzerland"
"Sennwald","47.2439","9.4768","5592","Switzerland"
"Chavannes-le-Chene","46.7801","6.7809","308","Switzerland"
"Solothurn","47.2081","7.5375","16777","Switzerland"
"Battwil","47.5000","7.5167","1186","Switzerland"
"Heimenhausen","47.2097","7.7000","1142","Switzerland"
"Berolle","46.5500","6.3333","304","Switzerland"
"Cureglia","46.0333","8.9500","1385","Switzerland"
"Turgi","47.4946","8.2527","3014","Switzerland"
"Champery","46.1751","6.8714","1336","Switzerland"
"Oetwil am See","47.2708","8.7211","4754","Switzerland"
"Bournens","46.6000","6.5667","402","Switzerland"
"Kemmen","47.6164","9.1664","2545","Switzerland"
"Neuendorf","47.3025","7.7944","2236","Switzerland"
"Villars-le-Comte","46.7167","6.8000","132","Switzerland"
"Balgach","47.4000","9.5997","4797","Switzerland"
"Schnottwil","47.1088","7.3912","1135","Switzerland"
"Widnau","47.3997","9.6333","9616","Switzerland"
"Sins","47.1914","8.3969","4259","Switzerland"
"Wegenstetten","47.5000","7.9333","1066","Switzerland"
"Vuisternens-devant-Romont","46.6500","6.9333","2324","Switzerland"
"Plan-les-Ouates","46.1667","6.1167","10656","Switzerland"
"Saas-Balen","46.1333","7.9167","347","Switzerland"
"Mund","46.3167","7.9500","544","Switzerland"
"Oberschlatt","47.4683","8.8269","730","Switzerland"
"Kriechenwil","46.9112","7.2159","428","Switzerland"
"Horgen","47.2608","8.5975","22662","Switzerland"
"Humlikon","47.5767","8.6703","487","Switzerland"
"Darligen","46.6534","7.8129","435","Switzerland"
"Rothenthurm","47.1042","8.6744","2412","Switzerland"
"Gretzenbach","47.3581","7.9986","2783","Switzerland"
"Vitznau","47.0101","8.4842","1379","Switzerland"
"Ferreyres","46.6667","6.4833","309","Switzerland"
"Courtedoux","47.4129","7.0280","765","Switzerland"
"Waldstatt","47.3575","9.2858","1869","Switzerland"
"Lussy-sur-Morges","46.5000","6.4500","686","Switzerland"
"Peseux","46.9955","6.8895","5809","Switzerland"
"Chamoson","46.2000","7.2167","3897","Switzerland"
"Clarmont","46.5500","6.4500","190","Switzerland"
"Huttwil","47.1164","7.8500","4836","Switzerland"
"Arbaz","46.2667","7.3833","1280","Switzerland"
"Gontenschwil","47.2733","8.1472","2171","Switzerland"
"Eptingen","47.3831","7.8167","529","Switzerland"
"Reinach","47.4936","7.5908","19144","Switzerland"
"Les Verrieres","46.9000","6.4833","668","Switzerland"
"Yvorne","46.3333","6.9500","1066","Switzerland"
"Schwanden bei Brienz","46.7497","8.0500","617","Switzerland"
"Rheineck","47.4701","9.5834","3419","Switzerland"
"Eggenwil","47.3706","8.3403","1053","Switzerland"
"Schwyz","47.0211","8.6536","14177","Switzerland"
"Agno","46.0002","8.9001","4445","Switzerland"
"Servion","46.5667","6.7833","1944","Switzerland"
"Balerna","45.8500","9.0000","3269","Switzerland"
"Reisiswil","47.1664","7.8458","176","Switzerland"
"Frick","47.5081","8.0222","5563","Switzerland"
"Minusio","46.1833","8.8167","7303","Switzerland"
"Densburen","47.4553","8.0536","730","Switzerland"
"Bolligen","46.9761","7.4986","6262","Switzerland"
"Rheinau","47.6458","8.6067","1298","Switzerland"
"Buchegg","47.1361","7.4764","2580","Switzerland"
"Illgau","46.9875","8.7247","802","Switzerland"
"Salouf","46.6241","9.5756","211","Switzerland"
"Zofingen","47.2884","7.9475","11655","Switzerland"
"Meisterschwanden","47.2961","8.2303","2960","Switzerland"
"Cressier","46.9000","7.1333","1001","Switzerland"
"Massonnens","46.7000","6.9667","527","Switzerland"
"Madiswil","47.1664","7.8000","3277","Switzerland"
"Hunenberg","47.1761","8.4264","8807","Switzerland"
"Ruschegg","46.7797","7.3931","1661","Switzerland"
"Bossonnens","46.5167","6.8500","1505","Switzerland"
"Schmitten","46.6871","9.6723","234","Switzerland"
"Siblingen","47.6997","8.5164","886","Switzerland"
"Pratteln","47.5185","7.6928","16621","Switzerland"
"Morschwil","47.4676","9.4261","3585","Switzerland"
"Ruti","47.2614","8.8556","12098","Switzerland"
"Root","47.1158","8.3914","5040","Switzerland"
"Bonaduz","46.8164","9.4000","3330","Switzerland"
"Develier","47.3500","7.2833","1354","Switzerland"
"Guttannen","46.6497","8.2833","263","Switzerland"
"La Tour-de-Peilz","46.4500","6.8667","11829","Switzerland"
"Ponte Tresa","45.9667","8.8667","795","Switzerland"
"Hori","47.5086","8.5100","2721","Switzerland"
"Neerach","47.5117","8.4725","3140","Switzerland"
"Gals","47.0271","7.0489","827","Switzerland"
"Derendingen","47.1919","7.5899","6483","Switzerland"
"Gommiswald","47.2404","9.0474","5164","Switzerland"
"Troinex","46.1631","6.1475","2501","Switzerland"
"Bremgarten","47.3528","8.3400","7765","Switzerland"
"Wattenwil","46.7700","7.5072","2935","Switzerland"
"Gersau","46.9911","8.5247","2332","Switzerland"
"Reichenbach im Kandertal","46.5753","7.7371","3616","Switzerland"
"Moutier","47.2803","7.3708","7378","Switzerland"
"Hemberg","47.3005","9.1754","906","Switzerland"
"Niedergosgen","47.3736","7.9931","3865","Switzerland"
"Flaach","47.5764","8.6092","1375","Switzerland"
"Evolene","46.1128","7.4961","1684","Switzerland"
"Chene-Bougeries","46.1833","6.1833","12215","Switzerland"
"Langenbruck","47.3494","7.7694","958","Switzerland"
"Grono","46.2482","9.1477","1376","Switzerland"
"Eisten","46.2000","7.9000","204","Switzerland"
"Anieres","46.2667","6.2167","2402","Switzerland"
"Gunsberg","47.2567","7.5761","1174","Switzerland"
"Aubonne","46.5000","6.3833","3241","Switzerland"
"Klingnau","47.5831","8.2500","3480","Switzerland"
"Fiesch","46.4000","8.1333","921","Switzerland"
"Mies","46.3000","6.1667","2078","Switzerland"
"Seewen","47.4358","7.6597","1010","Switzerland"
"Malleray","47.2386","7.2708","1903","Switzerland"
"Buchs","47.4589","8.4378","6303","Switzerland"
"Galmiz","46.9500","7.1500","678","Switzerland"
"Sorvilier","47.2403","7.3056","283","Switzerland"
"Vernayaz","46.1333","7.0333","1885","Switzerland"
"Saint-Sulpice","46.5167","6.5667","4668","Switzerland"
"Schonholzerswilen","47.5163","9.1403","865","Switzerland"
"Rothrist","47.3028","7.8833","9121","Switzerland"
"Lumino","46.2383","9.0680","1513","Switzerland"
"Biezwil","47.1150","7.4181","305","Switzerland"
"Sumiswald","47.0275","7.7453","5046","Switzerland"
"Demoret","46.7500","6.7500","141","Switzerland"
"Siselen","47.0326","7.1960","595","Switzerland"
"Aire-la-Ville","46.1902","6.0423","1184","Switzerland"
"Orny","46.6684","6.5269","368","Switzerland"
"Courtetelle","47.3309","7.3176","2610","Switzerland"
"Monchaltorf","47.3114","8.7222","3715","Switzerland"
"Prato","46.4833","8.7500","405","Switzerland"
"Stein am Rhein","47.6594","8.8592","3376","Switzerland"
"Lengnau","47.5222","8.3306","2740","Switzerland"
"Farera","46.5500","9.4333","75","Switzerland"
"Yens","46.5270","6.4067","1430","Switzerland"
"Bettingen","47.5708","7.6650","1213","Switzerland"
"Novalles","46.8167","6.5833","101","Switzerland"
"Flawil","47.4053","9.1977","10520","Switzerland"
"Emmetten","46.9567","8.5181","1429","Switzerland"
"Rochefort","46.9833","6.8167","1239","Switzerland"
"La Ferriere","47.1434","6.9003","534","Switzerland"
"Seltisberg","47.4594","7.7172","1301","Switzerland"
"Brenzikofen","46.8172","7.6133","555","Switzerland"
"Eiken","47.5331","7.9903","2289","Switzerland"
"Unterlunkhofen","47.3219","8.3819","1415","Switzerland"
"Lenz","46.6831","9.5664","533","Switzerland"
"Sullens","46.6000","6.5667","1036","Switzerland"
"Le Lieu","46.6500","6.2833","874","Switzerland"
"Gisikon","47.1239","8.3981","1387","Switzerland"
"Ettiswil","47.1486","8.0172","2747","Switzerland"
"Freienwil","47.5030","8.3265","1053","Switzerland"
"Puplinge","46.2108","6.2322","2465","Switzerland"
"Cressier","47.0508","7.0356","1886","Switzerland"
"Ennetbaden","47.4817","8.3167","3498","Switzerland"
"Thalwil","47.2953","8.5647","17784","Switzerland"
"Buseno","46.2730","9.1072","87","Switzerland"
"Oberhallau","47.7053","8.4775","444","Switzerland"
"Sonogno","46.3500","8.7833","86","Switzerland"
"Beckenried","46.9665","8.4747","3672","Switzerland"
"Aristau","47.2856","8.3624","1498","Switzerland"
"Spiez","46.6831","7.6664","12810","Switzerland"
"Jenins","46.9997","9.5500","886","Switzerland"
"Laconnex","46.1589","6.0340","699","Switzerland"
"Muri","46.9319","7.4872","13058","Switzerland"
"Obfelden","47.2639","8.4242","5340","Switzerland"
"Hettlingen","47.5478","8.7097","3147","Switzerland"
"Corbieres","46.6667","7.1000","898","Switzerland"
"Bercher","46.6916","6.7062","1238","Switzerland"
"Buchillon","46.4667","6.4167","651","Switzerland"
"Hellikon","47.5097","7.9229","783","Switzerland"
"Dinhard","47.5575","8.7697","1551","Switzerland"
"Miege","46.3144","7.5484","1348","Switzerland"
"Satigny","46.2141","6.0368","4185","Switzerland"
"Willisau","47.1206","7.9928","7780","Switzerland"
"Zermatt","46.0193","7.7461","5643","Switzerland"
"Attalens","46.5167","6.8500","3521","Switzerland"
"Bernex","46.1784","6.0684","10233","Switzerland"
"Mauborget","46.8668","6.6082","122","Switzerland"
"Lausanne","46.5333","6.6333","138905","Switzerland"
"Menziken","47.2400","8.1917","6330","Switzerland"
"Holziken","47.3219","8.0389","1454","Switzerland"
"Ufhusen","47.1164","7.8969","902","Switzerland"
"Mustair","46.6167","10.4497","764","Switzerland"
"Dorflingen","47.7075","8.7202","1028","Switzerland"
"Nuvilly","46.7825","6.8311","426","Switzerland"
"Pierrafortscha","46.7833","7.1833","156","Switzerland"
"Bedretto","46.5000","8.5167","110","Switzerland"
"Batterkinden","47.1333","7.5333","3251","Switzerland"
"Hermance","46.2936","6.2447","1062","Switzerland"
"Gossau","47.3081","8.7567","9937","Switzerland"
"Longirod","46.5000","6.2667","478","Switzerland"
"Bachs","47.5247","8.4392","588","Switzerland"
"Torry","46.7667","6.9667","963","Switzerland"
"Herdern","47.5997","8.8997","1079","Switzerland"
"Oberwald","46.5333","8.3500","277","Switzerland"
"Beatenberg","46.6997","7.8000","1196","Switzerland"
"Thundorf","47.5472","8.9644","1437","Switzerland"
"Tubach","47.4833","9.4500","1461","Switzerland"
"Oberruti","47.1661","8.3948","1534","Switzerland"
"Elfingen","47.5083","8.1000","300","Switzerland"
"Walchwil","47.0997","8.5164","3663","Switzerland"
"Rossenges","46.6500","6.7833","65","Switzerland"
"Grandcour","46.8718","6.9288","929","Switzerland"
"Cottens","46.7500","7.0333","1509","Switzerland"
"Lyssach","47.0644","7.5794","1446","Switzerland"
"Kreuzlingen","47.6458","9.1783","21801","Switzerland"
"Iserables","46.1645","7.2434","832","Switzerland"
"Allaman","46.4667","6.4000","442","Switzerland"
"Le Locle","47.0532","6.7482","10433","Switzerland"
"Cuarny","46.7667","6.6833","243","Switzerland"
"Schemelhof","47.3069","7.5167","58","Switzerland"
"Santa Maria in Calanca","46.2664","9.1500","110","Switzerland"
"Rapperswil","47.0631","7.4100","2617","Switzerland"
"Hemmiken","47.4883","7.8931","263","Switzerland"
"Marbach","46.8542","7.9000","1212","Switzerland"
"Bettwiesen","47.5000","9.0333","1247","Switzerland"
"Courchavon","47.4333","7.0500","294","Switzerland"
"Corseaux","46.4667","6.8333","2282","Switzerland"
"Zufikon","47.3459","8.3595","4479","Switzerland"
"Bennwil","47.4032","7.7799","664","Switzerland"
"Bargen","47.7934","8.5919","313","Switzerland"
"Splugen","46.5497","9.3167","378","Switzerland"
"Rougemont","46.4833","7.2167","882","Switzerland"
"Mauraz","46.6000","6.4167","59","Switzerland"
"Onnens","46.8333","6.6833","493","Switzerland"
"Silenen","46.7911","8.6692","1991","Switzerland"
"Miglieglia","46.0313","8.8494","311","Switzerland"
"Anwil","47.4508","7.9414","566","Switzerland"
"Ellikon an der Thur","47.5642","8.8256","903","Switzerland"
"Heremence","46.1833","7.4000","1392","Switzerland"
"Trin","46.8624","9.3299","1429","Switzerland"
"Kestenholz","47.2833","7.7542","1805","Switzerland"
"Ruswil","47.0836","8.1261","6856","Switzerland"
"Hornussen","47.5011","8.0639","966","Switzerland"
"Saint-Aubin-Sauges","46.8949","6.7773","2399","Switzerland"
"Riaz","46.6333","7.0667","2780","Switzerland"
"Schleuin","46.7831","9.2331","648","Switzerland"
"Gy","46.2500","6.2500","477","Switzerland"
"Valangin","47.0167","6.9000","509","Switzerland"
"Attiswil","47.2472","7.6135","1504","Switzerland"
"Cudrefin","46.9521","7.0271","1632","Switzerland"
"Bissone","45.9500","8.9667","923","Switzerland"
"Roches","47.3025","7.3833","201","Switzerland"
"Kunten","47.3896","8.3303","1749","Switzerland"
"Trient","46.0500","7.0000","162","Switzerland"
"Dubendorf","47.3981","8.6194","28002","Switzerland"
"Jegenstorf","47.0497","7.5069","5742","Switzerland"
"Jongny","46.4876","6.8466","1534","Switzerland"
"Hagneck","47.0561","7.1853","413","Switzerland"
"La Neuveville","47.0653","7.0944","3738","Switzerland"
"Birrhard","47.4344","8.2458","729","Switzerland"
"Bourg-Saint-Pierre","45.9500","7.2000","196","Switzerland"
"Rovio","45.9333","8.9833","839","Switzerland"
"Grindel","47.3831","7.5042","512","Switzerland"
"Aarwangen","47.2414","7.7708","4514","Switzerland"
"Valeyres-sous-Rances","46.7500","6.5333","621","Switzerland"
"Saubraz","46.5167","6.3333","418","Switzerland"
"Walterswil","47.3261","7.9608","724","Switzerland"
"La Brevine","46.9833","6.6000","630","Switzerland"
"La Roche","46.7000","7.1333","1711","Switzerland"
"Origlio","46.0500","8.9500","1457","Switzerland"
"Hundwil","47.3653","9.3194","940","Switzerland"
"Grossaffoltern","47.0667","7.3597","3017","Switzerland"
"Saillon","46.1667","7.1833","2618","Switzerland"
"Fribourg","46.8000","7.1500","38365","Switzerland"
"Bosco Gurin","46.3167","8.5000","46","Switzerland"
"Bockten","47.4625","7.8356","820","Switzerland"
"Bonigen","46.6864","7.8946","2535","Switzerland"
"Lausen","47.4725","7.7597","5209","Switzerland"
"Oensingen","47.2886","7.7139","6284","Switzerland"
"Bonvillars","46.8378","6.6713","505","Switzerland"
"Schlatterlehn","47.3567","9.3961","1126","Switzerland"
"Meilen","47.2703","8.6411","13999","Switzerland"
"Ergisch","46.2833","7.7000","184","Switzerland"
"Waltensburg","46.7764","9.1168","333","Switzerland"
"Borex","46.3787","6.1781","1133","Switzerland"
"Venthone","46.3000","7.5333","1283","Switzerland"
"Bruttelen","47.0240","7.1512","578","Switzerland"
"Kuttigen","47.4164","8.0500","6180","Switzerland"
"Turbenthal","47.4383","8.8442","4748","Switzerland"
"Bronschhofen","47.4831","9.0331","4515","Switzerland"
"Sankt Peter","46.8331","9.6331","168","Switzerland"
"Welschenrohr","47.2814","7.5289","1114","Switzerland"
"Schlieren","47.3989","8.4497","18666","Switzerland"
"Gansbrunnen","47.2620","7.4670","85","Switzerland"
"Courchapoix","47.3500","7.4500","426","Switzerland"
"Suchy","46.7213","6.6051","599","Switzerland"
"Corminboeuf","46.8000","7.1000","2695","Switzerland"
"Dulliken","47.3525","7.9458","5048","Switzerland"
"Niederhelfenschwil","47.4833","9.1831","3149","Switzerland"
"Preverenges","46.5167","6.5333","5287","Switzerland"
"Paudex","46.5084","6.6737","1504","Switzerland"
"Niederbuchsiten","47.2969","7.7708","1175","Switzerland"
"Prangins","46.4000","6.2500","4038","Switzerland"
"Sankt Niklaus","46.1833","7.8000","2239","Switzerland"
"Champoz","47.2583","7.3000","169","Switzerland"
"Rehetobel","47.4278","9.4816","1747","Switzerland"
"Bottmingen","47.5236","7.5697","6691","Switzerland"
"Rapperswil-Jona","47.2286","8.8317","26989","Switzerland"
"Mex","46.5775","6.5592","725","Switzerland"
"Agiez","46.7167","6.5000","326","Switzerland"
"Ballaigues","46.7333","6.4167","1064","Switzerland"
"Chexbres","46.4843","6.7801","2238","Switzerland"
"Muolen","47.5167","9.3164","1200","Switzerland"
"Schonenwerd","47.3719","8.0028","4910","Switzerland"
"Wettingen","47.4659","8.3267","20721","Switzerland"
"Muriaux","47.2500","6.9833","502","Switzerland"
"Ried bei Kerzers","46.9633","7.1810","1183","Switzerland"
"Alchenstorf","47.1239","7.6436","575","Switzerland"
"Niederrohrdorf","47.4235","8.3049","4105","Switzerland"
"Saxon","46.1500","7.1667","5897","Switzerland"
"Chatel-Saint-Denis","46.5269","6.9011","6969","Switzerland"
"Meikirch","47.0097","7.3653","2461","Switzerland"
"Busswil bei Melchnau","47.1869","7.8333","187","Switzerland"
"Luthern","47.0583","7.9158","1275","Switzerland"
"Sonvilier","47.1394","6.9653","1237","Switzerland"
"Aegerten","47.1164","7.2833","2158","Switzerland"
"Oberweningen","47.5033","8.4078","1797","Switzerland"
"Bagnes","46.0833","7.2167","8096","Switzerland"
"Niederweningen","47.5075","8.3789","3024","Switzerland"
"Altikon","47.5733","8.7808","674","Switzerland"
"Chandolin","46.2500","7.6000","82","Switzerland"
"Martigny-Combe","46.0833","7.0500","2314","Switzerland"
"Balsthal","47.3164","7.6944","6117","Switzerland"
"Schiers","46.9664","9.6833","2679","Switzerland"
"Landecy","46.1897","6.1158","31942","Switzerland"
"Seedorf","46.8828","8.6131","1858","Switzerland"
"Radelfingen","46.9998","7.2683","1283","Switzerland"
"Egliswil","47.3499","8.1863","1456","Switzerland"
"Flums","47.0928","9.3439","4856","Switzerland"
"Concise","46.8510","6.7205","995","Switzerland"
"Onex","46.1833","6.1000","18977","Switzerland"
"Albinen","46.3333","7.6333","238","Switzerland"
"Les Bois","47.1833","6.9000","1241","Switzerland"
"Gunzgen","47.3164","7.8292","1652","Switzerland"
"Hauteville","46.6667","7.1167","672","Switzerland"
"Hurden","47.1997","8.7831","268","Switzerland"
"Lommis","47.5164","8.9831","1215","Switzerland"
"Stein","47.5442","7.9514","3198","Switzerland"
"Stein","47.3733","9.3444","1423","Switzerland"
"Courtelary","47.1792","7.0722","1437","Switzerland"
"Court","47.2403","7.3375","1427","Switzerland"
"Ammerswil","47.3692","8.2067","700","Switzerland"
"Chatel-sur-Montsalvens","46.6167","7.1333","286","Switzerland"
"Soazza","46.3497","9.2164","319","Switzerland"
"Corsier-sur-Vevey","46.4667","6.8500","3390","Switzerland"
"Lotzwil","47.1914","7.7931","2565","Switzerland"
"Sigriswil","46.7164","7.7167","4832","Switzerland"
"Riedholz","47.2300","7.5681","2310","Switzerland"
"Landiswil","46.9572","7.6797","625","Switzerland"
"Chatillon","47.3291","7.3419","481","Switzerland"
"Therwil","47.4997","7.5500","9947","Switzerland"
"Massongex","46.2500","6.9833","1785","Switzerland"
"Icogne","46.2833","7.4333","581","Switzerland"
"Grusch","46.9664","9.6331","2076","Switzerland"
"Valzeina","46.9497","9.6000","130","Switzerland"
"Linden","46.8500","7.6833","1299","Switzerland"
"Rocourt","47.3894","6.9557","156","Switzerland"
"Kriegstetten","47.1747","7.5986","1294","Switzerland"
"Oltingen","47.4331","7.9333","474","Switzerland"
"Schinznach Dorf","47.4486","8.1445","2255","Switzerland"
"Montilier","46.9333","7.1167","972","Switzerland"
"Lugnez","47.4833","7.1000","186","Switzerland"
"Cevio","46.3783","8.5423","1159","Switzerland"
"Gruningen","47.2842","8.7625","3361","Switzerland"
"Starrkirch","47.3483","7.9264","1714","Switzerland"
"Salvan","46.1167","7.0167","1393","Switzerland"
"Aesch","47.2547","8.2414","1205","Switzerland"
"Kilchberg","47.4256","7.8986","159","Switzerland"
"Schupfart","47.5153","7.9667","808","Switzerland"
"Zug","47.1681","8.5169","30542","Switzerland"
"Riemenstalden","46.9472","8.6653","90","Switzerland"
"Arogno","45.9667","8.9833","982","Switzerland"
"Gland","46.4167","6.2667","13106","Switzerland"
"Les Genevez","47.2500","7.1333","501","Switzerland"
"Wyssachen","47.0740","7.8214","1137","Switzerland"
"Bedigliora","46.0000","8.8500","621","Switzerland"
"Grandevent","46.8333","6.6000","238","Switzerland"
"Holstein","47.4261","7.7701","2528","Switzerland"
"Benken","47.1924","8.9957","3025","Switzerland"
"Baretswil","47.3369","8.8575","5026","Switzerland"
"Feuerthalen","47.6922","8.6453","3636","Switzerland"
"Delemont","47.3653","7.3472","12682","Switzerland"
"Bischofszell","47.4997","9.2333","6016","Switzerland"
"Kyburg","47.4578","8.7450","405","Switzerland"
"Auvernier","46.9763","6.8783","1559","Switzerland"
"Sankt Gallen","47.4233","9.3772","75833","Switzerland"
"Hubersdorf","47.2433","7.5906","747","Switzerland"
"Burg","47.2372","8.1819","1023","Switzerland"
"Kusnacht","47.3181","8.5825","14250","Switzerland"
"Chavannes-des-Bois","46.3167","6.1333","982","Switzerland"
"Dalpe","46.4667","8.7667","182","Switzerland"
"Wil","47.6058","8.5075","1425","Switzerland"
"Lengnau","47.1817","7.3667","5254","Switzerland"
"Vacallo","45.8500","9.0333","3398","Switzerland"
"Wollerau","47.1956","8.7194","7255","Switzerland"
"Russin","46.1939","6.0140","541","Switzerland"
"Waldkirch","47.4664","9.2831","3500","Switzerland"
"Kammersrohr","47.2533","7.5933","28","Switzerland"
"Brienz","46.7497","8.0333","3090","Switzerland"
"Etagnieres","46.6000","6.6167","1115","Switzerland"
"Pignieu","46.5997","9.4331","123","Switzerland"
"Seon","47.3458","8.1597","5288","Switzerland"
"Eschert","47.2764","7.4000","376","Switzerland"
"Ogens","46.7167","6.7167","298","Switzerland"
"Huttlingen","47.5831","8.9833","850","Switzerland"
"Birmenstorf","47.4636","8.2500","2992","Switzerland"
"Vuiteboeuf","46.8081","6.5492","589","Switzerland"
"Berikon","47.3525","8.3736","4776","Switzerland"
"Lucens","46.7092","6.8373","4200","Switzerland"
"Pfafers","46.9831","9.4997","1564","Switzerland"
"Gundlischwand","46.6164","7.8997","338","Switzerland"
"Zetzwil","47.2886","8.1528","1305","Switzerland"
"Campo","46.2833","8.4833","53","Switzerland"
"Thun","46.7590","7.6300","43743","Switzerland"
"Leysin","46.3333","7.0000","4032","Switzerland"
"Affoltern im Emmental","47.0497","7.7167","1097","Switzerland"
"Ennetburgen","46.9844","8.4139","4801","Switzerland"
"Reichenburg","47.1694","8.9744","3751","Switzerland"
"Ringgenberg","46.7029","7.8951","2561","Switzerland"
"Riehen","47.5794","7.6512","21448","Switzerland"
"Bremblens","46.5500","6.5167","548","Switzerland"
"Vevey","46.4667","6.8500","19891","Switzerland"
"Heiligenschwendi","46.7520","7.6823","703","Switzerland"
"Yverdon-les-Bains","46.7785","6.6408","30157","Switzerland"
"Saviese","46.2500","7.3333","7712","Switzerland"
"Bulach","47.5189","8.5422","20046","Switzerland"
"Niederglatt","47.4922","8.5033","4917","Switzerland"
"Fahrni","46.7972","7.6704","809","Switzerland"
"La Sarraz","46.6580","6.5084","2595","Switzerland"
"Saint-Prex","46.4836","6.4575","5679","Switzerland"
"Ochlenberg","47.1492","7.7358","570","Switzerland"
"Twann","47.0831","7.1500","1171","Switzerland"
"Fallanden","47.3717","8.6400","8575","Switzerland"
"Unterbach","46.2667","7.7833","436","Switzerland"
"Burchen","46.2667","7.8167","730","Switzerland"
"Andermatt","46.6205","8.6314","1390","Switzerland"
"Monte Ceneri","46.1250","8.9200","4521","Switzerland"
"Jussy","46.2371","6.2791","1279","Switzerland"
"Fehren","47.3958","7.5803","605","Switzerland"
"Hildisrieden","47.1500","8.2292","2333","Switzerland"
"Oberburg","47.0389","7.6275","2934","Switzerland"
"Schanis","47.1588","9.0466","3818","Switzerland"
"Sempach","47.1328","8.1936","4169","Switzerland"
"Hedingen","47.2986","8.4494","3734","Switzerland"
"Tamins","46.8294","9.4066","1217","Switzerland"
"Gorgier","46.9000","6.7833","2021","Switzerland"
"St-Barthelemy","46.6333","6.6000","781","Switzerland"
"Daniken","47.3567","7.9819","2851","Switzerland"
"Noreaz","46.8000","7.0333","716","Switzerland"
"Niederburen","47.4664","9.2000","1514","Switzerland"
"Ligerz","47.0833","7.1333","544","Switzerland"
"Bauma","47.3681","8.8778","4925","Switzerland"
"Chippis","46.2833","7.5333","1617","Switzerland"
"Les Ponts-de-Martel","46.9968","6.7266","1248","Switzerland"
"Uetikon am See","47.2669","8.6772","6145","Switzerland"
"Kussnacht","47.0828","8.4408","13084","Switzerland"
"Burglen","46.8750","8.6628","3976","Switzerland"
"Champagne","46.8358","6.6516","1035","Switzerland"
"Wurenlos","47.4418","8.3647","6482","Switzerland"
"Veysonnaz","46.1972","7.3381","604","Switzerland"
"Wadenswil","47.2303","8.6722","21716","Switzerland"
"Hirschthal","47.3206","8.0517","1590","Switzerland"
"Raron","46.3100","7.8000","1944","Switzerland"
"Hallau","47.6966","8.4578","2220","Switzerland"
"Grancy","46.5921","6.4658","398","Switzerland"
"Ederswiler","47.4167","7.3333","122","Switzerland"
"Curio","46.0024","8.8742","559","Switzerland"
"Niederhasli","47.4822","8.4861","9188","Switzerland"
"Canobbio","46.0333","8.9667","2249","Switzerland"
"Zurich","47.3786","8.5400","434008","Switzerland"
"Neuenhof","47.4469","8.3292","8824","Switzerland"
"Rolle","46.4575","6.3317","6259","Switzerland"
"Lamone","46.0500","8.9333","1741","Switzerland"
"Tannay","46.3000","6.1833","1574","Switzerland"
"Kirchlindach","47.0000","7.4111","3158","Switzerland"
"Wiesendangen","47.5222","8.7911","6521","Switzerland"
"Leimbach","47.2733","8.1694","452","Switzerland"
"Krattigen","46.6502","7.7402","1132","Switzerland"
"Hafelfingen","47.4164","7.8667","250","Switzerland"
"Rifferswil","47.2331","8.4667","1096","Switzerland"
"Belmont-sur-Lausanne","46.5265","6.6876","3721","Switzerland"
"Arth","47.0644","8.5242","11983","Switzerland"
"Echichens","46.5333","6.5000","3059","Switzerland"
"Kirchleerau","47.2778","8.0694","863","Switzerland"
"Maggia","46.2480","8.7080","2592","Switzerland"
"Vogorno","46.2167","8.8500","282","Switzerland"
"Pailly","46.6997","6.6735","560","Switzerland"
"Fey","46.6729","6.6801","734","Switzerland"
"Huttwilen","47.5997","8.8667","1729","Switzerland"
"Giez","46.8167","6.6167","410","Switzerland"
"Langrickenbach","47.5936","9.2475","1291","Switzerland"
"Schnellen","47.3307","7.5507","36","Switzerland"
"Rohrbachgraben","47.1219","7.8014","404","Switzerland"
"Fislisbach","47.4386","8.2944","5544","Switzerland"
"Duillier","46.4167","6.2333","1080","Switzerland"
"Bavois","46.6833","6.5667","941","Switzerland"
"Niederbipp","47.2658","7.6958","4715","Switzerland"
"Rebstein","47.3997","9.5833","4387","Switzerland"
"Altdorf","46.8806","8.6394","9401","Switzerland"
"Chamblon","46.7833","6.6000","542","Switzerland"
"Hagglingen","47.3891","8.2523","2422","Switzerland"
"Mendrisio","45.8667","8.9833","14942","Switzerland"
"Vuarrens","46.6833","6.6500","1004","Switzerland"
"Zwingen","47.4331","7.5333","2399","Switzerland"
"Thayngen","47.7331","8.6997","5453","Switzerland"
"Wildberg","47.4286","8.8164","994","Switzerland"
"Wachseldorn","46.8201","7.7371","315","Switzerland"
"Egg","47.3019","8.6906","8596","Switzerland"
"Bellikon","47.3891","8.3436","1562","Switzerland"
"Lauterbrunnen","46.5997","7.9086","2732","Switzerland"
"Sulgen","47.5423","9.1931","3869","Switzerland"
"Zullwil","47.3914","7.6014","668","Switzerland"
"Neuchatel","46.9903","6.9306","33475","Switzerland"
"Ursenbach","47.1375","7.7736","896","Switzerland"
"Reitnau","47.2525","8.0444","1243","Switzerland"
"Dotzigen","47.1206","7.3403","1457","Switzerland"
"Neuhausen am Rheinfall","47.6831","8.6167","10510","Switzerland"
"Varen","46.3167","7.6000","642","Switzerland"
"Rueyres","46.6938","6.6935","254","Switzerland"
"La Sonnaz","46.8339","7.1086","1190","Switzerland"
"Oberkulm","47.3000","8.1236","2718","Switzerland"
"Froideville","46.5982","6.6918","2579","Switzerland"
"Dietikon","47.4056","8.4039","26936","Switzerland"
"Fischenthal","47.3322","8.9211","2504","Switzerland"
"Adligenswil","47.0706","8.3650","5391","Switzerland"
"Leutwil","47.3094","8.1750","765","Switzerland"
"Dagmersellen","47.2131","7.9894","5503","Switzerland"
"Frauenfeld","47.5580","8.8964","21979","Switzerland"
"Salmsach","47.5497","9.3664","1457","Switzerland"
"Ruthi","47.2958","9.5373","2399","Switzerland"
"Diessenhofen","47.6833","8.7497","3998","Switzerland"
"Gilly","46.4500","6.3000","1322","Switzerland"
"Rickenbach","47.2194","8.1536","3364","Switzerland"
"Saxeten","46.6331","7.8331","99","Switzerland"
"Fontenais","47.4000","7.0833","1685","Switzerland"
"Kolliken","47.3375","8.0236","4476","Switzerland"
"Busserach","47.3914","7.5403","2296","Switzerland"
"Unterendingen","47.5483","8.2917","350","Switzerland"
"Hirslen","47.3646","8.5663","7465","Switzerland"
"Mergoscia","46.2167","8.8500","213","Switzerland"
"Sisseln","47.5544","7.9903","1616","Switzerland"
"Samedan","46.5336","9.8719","2924","Switzerland"
"Fieschertal","46.5000","8.1333","318","Switzerland"
"Schaffhausen","47.6965","8.6339","36587","Switzerland"
"Hofstetten","47.4775","7.5153","3157","Switzerland"
"Rorschach","47.4786","9.4936","9439","Switzerland"
"Appenzell","47.3306","9.4086","5649","Switzerland"
"Marsens","46.6500","7.0667","1909","Switzerland"
"Wasterkingen","47.5917","8.4742","560","Switzerland"
"Lavigny","46.5005","6.4081","999","Switzerland"
"Luins","46.4500","6.2667","611","Switzerland"
"Worb","46.9306","7.5644","11311","Switzerland"
"Broc","46.6000","7.1000","2651","Switzerland"
"Rumisberg","47.2642","7.6414","488","Switzerland"
"Vaulion","46.6833","6.3833","467","Switzerland"
"Dintikon","47.3650","8.2292","2228","Switzerland"
"Dizy","46.6333","6.5000","222","Switzerland"
"Renens","46.5353","6.5897","20927","Switzerland"
"Fontaines-sur-Grandson","46.8333","6.6167","218","Switzerland"
"Ursy","46.6333","6.8333","3198","Switzerland"
"Matzendorf","47.3069","7.6306","1332","Switzerland"
"Bedano","46.0500","8.9167","1551","Switzerland"
"Flasch","47.0397","9.5330","799","Switzerland"
"Oberbipp","47.2614","7.6592","1767","Switzerland"
"Roggwil","47.4994","9.3950","3068","Switzerland"
"Zwischbergen","46.1667","8.1167","77","Switzerland"
"Laufenburg","47.5608","8.0594","3626","Switzerland"
"Sergey","46.7512","6.5010","146","Switzerland"
"Chavornay","46.7065","6.5690","5000","Switzerland"
"Chenens","46.7333","7.0000","856","Switzerland"
"Steinerberg","47.0519","8.5850","946","Switzerland"
"Cheseaux-sur-Lausanne","46.5833","6.6000","4342","Switzerland"
"Wimmis","46.6752","7.6376","2538","Switzerland"
"Veytaux","46.4167","6.9333","880","Switzerland"
"Boningen","47.3094","7.8583","772","Switzerland"
"Massagno","46.0167","8.9500","6227","Switzerland"
"Teufen","47.3900","9.3900","6265","Switzerland"
"Gimel","46.5102","6.3066","2238","Switzerland"
"Recherswil","47.1636","7.5944","2009","Switzerland"
"Waltikon","47.3667","8.5833","10600","Switzerland"
"Lohn","47.7497","8.6667","758","Switzerland"
"Botterens","46.6167","7.1167","577","Switzerland"
"Fideris","46.8866","9.7394","606","Switzerland"
"Utzenstorf","47.1269","7.5572","4331","Switzerland"
"Dorenaz","46.1500","7.0500","969","Switzerland"
"Amden","47.1489","9.1408","1782","Switzerland"
"Schofflisdorf","47.5008","8.4169","1398","Switzerland"
"Veyrier","46.1667","6.1833","11609","Switzerland"
"Koblenz","47.6097","8.2372","1656","Switzerland"
"Schonenbuch","47.5369","7.5008","1385","Switzerland"
"Arconciel","46.7500","7.1167","949","Switzerland"
"Bassins","46.4667","6.2333","1344","Switzerland"
"Kehrsatz","46.9094","7.4708","4302","Switzerland"
"Lauwil","47.3901","7.6757","326","Switzerland"
"Vex","46.2167","7.4000","1811","Switzerland"
"Steffisburg","46.7831","7.6333","15816","Switzerland"
"Liddes","45.9833","7.1833","720","Switzerland"
"Scanfs","46.6164","9.9833","690","Switzerland"
"Brusio","46.2555","10.1190","1114","Switzerland"
"Eschlikon","47.4610","8.9590","4372","Switzerland"
"Chevroux","46.8833","6.9000","481","Switzerland"
"Arboldswil","47.4159","7.7168","578","Switzerland"
"Herznach","47.4747","8.0514","1545","Switzerland"
"Siviriez","46.6500","6.8833","2238","Switzerland"
"Magden","47.5289","7.8153","3915","Switzerland"
"Zell","47.1357","7.9263","2037","Switzerland"
"Ersigen","47.0917","7.5942","2066","Switzerland"
"Buckten","47.4097","7.8447","698","Switzerland"
"Agarn","46.2833","7.6500","718","Switzerland"
"Zuzwil","47.4713","9.1022","4785","Switzerland"
"Ferpicloz","46.7500","7.1667","273","Switzerland"
"Landarenca","46.3178","9.1108","10","Switzerland"
"Schoftland","47.3053","8.0528","4393","Switzerland"
"Schongau","47.2672","8.2581","1044","Switzerland"
"Eischoll","46.2667","7.7667","444","Switzerland"
"Magliaso","45.9833","8.8833","1620","Switzerland"
"Buchholterberg","46.8164","7.6833","1526","Switzerland"
"Juriens","46.6833","6.4500","308","Switzerland"
"Oetwil an der Limmat","47.4308","8.3942","2464","Switzerland"
"Au","47.4331","9.6333","7788","Switzerland"
"Monthal","47.5192","8.1403","394","Switzerland"
"Itingen","47.4648","7.7848","2157","Switzerland"
"Gempen","47.4764","7.6597","867","Switzerland"
"Gettnau","47.1403","7.9694","1170","Switzerland"
"Boncourt","47.5000","7.0167","1225","Switzerland"
"Leuggern","47.5819","8.2194","2169","Switzerland"
"Embrach","47.5103","8.5933","9419","Switzerland"
"Muhlethurnen","46.8136","7.5075","1402","Switzerland"
"Furna","46.9331","9.6664","221","Switzerland"
"Fehraltorf","47.3861","8.7547","6378","Switzerland"
"Maroggia","45.9333","8.9667","686","Switzerland"
"Ramlinsburg","47.4489","7.7642","715","Switzerland"
"Braunau","47.4997","9.0667","778","Switzerland"
"Sattel","47.0808","8.6339","1938","Switzerland"
"Ziefen","47.4314","7.7053","1589","Switzerland"
"Pfyn","47.6022","8.9527","2016","Switzerland"
"La Foilla","46.7333","6.9667","982","Switzerland"
"Wichtrach","46.8428","7.5764","4294","Switzerland"
"Leukerbad","46.3833","7.6333","1368","Switzerland"
"Pompaples","46.6667","6.5167","847","Switzerland"
"Wattwil","47.2957","9.0830","8736","Switzerland"
"Ruti","47.3206","9.4300","3648","Switzerland"
"Unterkulm","47.3122","8.1150","3086","Switzerland"
"Berlingen","47.6664","9.0164","890","Switzerland"
"Wangen","47.1908","8.8956","5053","Switzerland"
"Falera","46.8274","9.2085","615","Switzerland"
"Mauensee","47.1672","8.0658","1458","Switzerland"
"Wolflinswil","47.4611","7.9979","1048","Switzerland"
"Diessbach bei Buren","47.1094","7.3625","984","Switzerland"
"Merishausen","47.7606","8.6092","859","Switzerland"
"Seuzach","47.5358","8.7294","7291","Switzerland"
"Fetigny","46.7961","6.9144","1060","Switzerland"
"Geneva","46.2000","6.1500","201818","Switzerland"
"Le Mont-sur-Lausanne","46.5500","6.6333","8523","Switzerland"
"Frenkendorf","47.5031","7.7144","6435","Switzerland"
"Mont-la-Ville","46.6458","6.4094","465","Switzerland"
"Le Noirmont","47.2137","6.9441","1847","Switzerland"
"Vals","46.6164","9.1833","1007","Switzerland"
"Uerkheim","47.3053","8.0250","1334","Switzerland"
"Waltalingen","47.6233","8.7797","654","Switzerland"
"Ependes","46.7500","7.1500","1089","Switzerland"
"Dottingen","47.5706","8.2597","4057","Switzerland"
"Malans","46.9819","9.5761","2378","Switzerland"
"Lugano","46.0103","8.9625","63185","Switzerland"
"Bever","46.5497","9.8831","616","Switzerland"
"Presinge","46.2191","6.2551","712","Switzerland"
"Pfaffikon","47.3667","8.7822","11817","Switzerland"
"Saas-Almagel","46.0945","7.9574","370","Switzerland"
"Wilen","47.4500","9.0333","2520","Switzerland"
"Sankt Stephan","46.5000","7.3831","1339","Switzerland"
"Untersiggenthal","47.5020","8.2538","7240","Switzerland"
"Riedern","47.0494","9.0517","726","Switzerland"
"Dieterswil","47.0192","7.4281","206","Switzerland"
"Andelfingen","47.5947","8.6789","2201","Switzerland"
"Vernate","46.0000","8.8833","592","Switzerland"
"Niedergesteln","46.3167","7.7667","710","Switzerland"
"Davos","46.8091","9.8398","10862","Switzerland"
"Ormalingen","47.4706","7.8764","2215","Switzerland"
"Kaltbrunn","47.2164","9.0333","4839","Switzerland"
"Seedorf","47.0347","7.3125","3114","Switzerland"
"Oberwil","47.5135","7.5546","11136","Switzerland"
"Astano","46.0124","8.8164","308","Switzerland"
"Liestal","47.4839","7.7350","14390","Switzerland"
"Degen","46.6997","9.1664","252","Switzerland"
"Carouge","46.1817","6.1404","22336","Switzerland"
"Bodio","46.3833","8.9167","992","Switzerland"
"Littau","47.0494","8.2639","17224","Switzerland"
"Saint-Maurice","46.2190","7.0047","4571","Switzerland"
"Laufen","47.4167","7.5000","5556","Switzerland"
"Dallikon","47.4406","8.4389","4100","Switzerland"
"Grandvillard","46.5333","7.0833","844","Switzerland"
"Felsberg","46.8331","9.4664","2622","Switzerland"
"Fischbach","47.1553","7.9081","711","Switzerland"
"Toffen","46.8588","7.4924","2509","Switzerland"
"Bauen","46.9361","8.5794","165","Switzerland"
"Oberembrach","47.4875","8.6183","1073","Switzerland"
"Wigoltingen","47.5958","9.0329","2457","Switzerland"
"Buus","47.5053","7.8644","1066","Switzerland"
"Lachen","47.1911","8.8567","8754","Switzerland"
"Essertes","46.5667","6.7833","374","Switzerland"
"Mulligen","47.4581","8.2403","1109","Switzerland"
"Chevilly","46.6500","6.4833","314","Switzerland"
"Hausen","47.4622","8.2139","3633","Switzerland"
"Mont-sur-Rolle","46.4667","6.3333","2654","Switzerland"
"Muhlau","47.2303","8.3917","1175","Switzerland"
"Mervelier","47.3500","7.4833","500","Switzerland"
"Bottenwil","47.2858","8.0053","789","Switzerland"
"Tenniken","47.4369","7.8111","906","Switzerland"
"Avusy","46.1500","5.9833","1416","Switzerland"
"Lupfig","47.4414","8.2000","3113","Switzerland"
"Renan","47.1261","6.9259","928","Switzerland"
"Buchrain","47.0953","8.3475","6116","Switzerland"
"Lauperswil","46.9661","7.7417","2615","Switzerland"
"Steckborn","47.6664","8.9831","3753","Switzerland"
"Ossingen","47.6128","8.7269","1566","Switzerland"
"Finhaut","46.0830","6.9767","379","Switzerland"
"Realp","46.5986","8.5031","153","Switzerland"
"Aarburg","47.3206","7.9014","8068","Switzerland"
"Vinzel","46.4504","6.2770","358","Switzerland"
"Lully","46.5000","6.4667","786","Switzerland"
"Aesch","47.3369","8.4381","1341","Switzerland"
"Vionnaz","46.3167","6.9000","2727","Switzerland"
"Givrins","46.4333","6.2000","1026","Switzerland"
"Leuk","46.3167","7.6333","3948","Switzerland"
"Mathon","46.6406","9.3803","51","Switzerland"
"Rasa","46.1560","8.6547","12","Switzerland"
"Bottstein","47.5567","8.2247","3952","Switzerland"
"Croglio","45.9833","8.7500","849","Switzerland"
"Erlenbach im Simmental","46.6608","7.5529","1744","Switzerland"
"Orzens","46.7167","6.6833","196","Switzerland"
"Boulens","46.6833","6.7167","384","Switzerland"
"Untervaz","46.9275","9.5350","2517","Switzerland"
"Dorf","47.5742","8.6497","684","Switzerland"
"Birmensdorf","47.3542","8.4378","6385","Switzerland"
"Diepflingen","47.4467","7.8383","756","Switzerland"
"Mollens","46.5833","6.3667","283","Switzerland"
"Genolier","46.4333","6.2167","1937","Switzerland"
"Montalchez","46.9000","6.7500","240","Switzerland"
"Weisslingen","47.4325","8.7639","3301","Switzerland"
"Hagenbuch","47.5225","8.8883","1105","Switzerland"
"Laupen","46.9000","7.2331","3138","Switzerland"
"Sagogn","46.7922","9.2558","719","Switzerland"
"Trullikon","47.6392","8.6931","1054","Switzerland"
"Saas-Grund","46.1167","7.9333","1000","Switzerland"
"Wiliberg","47.2694","8.0222","166","Switzerland"
"Biberist","47.1828","7.5586","8567","Switzerland"
"Romanshorn","47.5635","9.3564","11167","Switzerland"
"Castrisch","46.7664","9.2167","396","Switzerland"
"Penthalaz","46.6128","6.5291","3283","Switzerland"
"Lungern","46.7872","8.1597","2119","Switzerland"
"Cottens","46.5743","6.4534","486","Switzerland"
"Basel","47.5606","7.5906","177595","Switzerland"
"Roggliswil","47.2117","7.8856","706","Switzerland"
"Wikon","47.2628","7.9658","1528","Switzerland"
"Sisikon","46.9497","8.6211","369","Switzerland"
"Buchberg","47.5667","8.5497","866","Switzerland"
"Mannedorf","47.2553","8.6917","10957","Switzerland"
"Montanaire","46.6667","6.7333","2683","Switzerland"
"Trasadingen","47.6698","8.4262","584","Switzerland"
"Wynigen","47.1067","7.6681","2060","Switzerland"
"Orsieres","45.9723","7.1016","3183","Switzerland"
"Maschwanden","47.2356","8.4278","656","Switzerland"
"Perroy","46.4667","6.3667","1536","Switzerland"
"Hochdorf","47.1664","8.2889","9832","Switzerland"
"Reverolle","46.5333","6.4333","399","Switzerland"
"Berg","47.5664","9.1664","3410","Switzerland"
"Heitenried","46.8276","7.3045","1403","Switzerland"
"Burtigny","46.4667","6.2500","391","Switzerland"
"San Vittore","46.2380","9.1061","834","Switzerland"
"Nyon","46.3820","6.2389","20272","Switzerland"
"Winkel","47.4922","8.5539","4511","Switzerland"
"Melide","45.9500","8.9500","1802","Switzerland"
"Berg am Irchel","47.5664","8.5997","562","Switzerland"
"Ernen","46.4000","8.1500","492","Switzerland"
"Gerzensee","46.8333","7.5500","1215","Switzerland"
"Porrentruy","47.4167","7.0833","6675","Switzerland"
"Mullheim","47.6028","9.0037","2991","Switzerland"
"Boppelsen","47.4714","8.4033","1365","Switzerland"
"Ueberstorf","46.8695","7.3264","2375","Switzerland"
"Melchnau","47.1831","7.8528","1517","Switzerland"
"Stallikon","47.3272","8.4908","3687","Switzerland"
"Soyhieres","47.4000","7.3667","433","Switzerland"
"Obergosgen","47.3664","7.9528","2203","Switzerland"
"Jenaz","46.9164","9.7164","1146","Switzerland"
"Eggiwil","46.8757","7.7957","2438","Switzerland"
"Doppleschwand","47.0183","8.0553","782","Switzerland"
"Boecourt","47.3500","7.2167","914","Switzerland"
"Wila","47.4183","8.8492","1971","Switzerland"
"Kirchdorf","46.8203","7.5497","1844","Switzerland"
"Koppigen","47.1344","7.6042","2095","Switzerland"
"Bulle","46.6167","7.0500","22709","Switzerland"
"Torbel","46.2382","7.8514","481","Switzerland"
"Le Cerneux-Pequignot","47.0167","6.6667","311","Switzerland"
"Schmiedrued","47.2639","8.1125","1168","Switzerland"
"Veltheim","47.4400","8.1483","1465","Switzerland"
"Eriz","46.7879","7.8117","483","Switzerland"
"Schenkon","47.1736","8.1369","2939","Switzerland"
"Ependes","46.7448","6.6027","358","Switzerland"
"Schwendi","46.7664","7.6500","248","Switzerland"
"Wengi bei Buren","47.0833","7.4000","613","Switzerland"
"Rothenbrunnen","46.7667","9.4167","299","Switzerland"
"Orvin","47.1606","7.2139","1222","Switzerland"
"Bern","46.9480","7.4474","133798","Switzerland"
"Provence","46.9012","6.6841","373","Switzerland"
"Schneisingen","47.5192","8.3667","1462","Switzerland"
"Novaggio","46.0167","8.8500","852","Switzerland"
"Thierachern","46.7500","7.5667","2428","Switzerland"
"Buochs","46.9746","8.4207","5312","Switzerland"
"Coinsins","46.4167","6.2333","497","Switzerland"
"Syens","46.6500","6.7833","159","Switzerland"
"Werthenstein","47.0561","8.1017","2121","Switzerland"
"Corippo","46.2333","8.8333","11","Switzerland"
"Lostallo","46.2997","9.1833","792","Switzerland"
"Saint-Ursanne","47.3667","7.1500","870","Switzerland"
"Locarno","46.1664","8.7997","16012","Switzerland"
"Vaux-sur-Morges","46.5333","6.4667","184","Switzerland"
"Wittinsburg","47.4269","7.8428","424","Switzerland"
"Corcelles-pres-Concise","46.8333","6.7000","403","Switzerland"
"Ruderswil","46.9844","7.7239","2383","Switzerland"
"Reinach","47.2539","8.1833","8498","Switzerland"
"Cologny","46.2167","6.1833","5570","Switzerland"
"Plaffeien","46.7412","7.2871","3594","Switzerland"
"Beinwil","47.3639","7.5875","283","Switzerland"
"Versoix","46.2833","6.1667","13422","Switzerland"
"Enges","47.0667","7.0167","272","Switzerland"
"Herbetswil","47.2969","7.5931","541","Switzerland"
"Villars-sous-Mont","46.5333","7.0667","94","Switzerland"
"Selzach","47.2056","7.4556","3453","Switzerland"
"Castaneda","46.2497","9.1331","275","Switzerland"
"Vandoeuvres","46.2167","6.2000","2484","Switzerland"
"Kernenried","47.0689","7.5458","553","Switzerland"
"Mellingen","47.4192","8.2764","5633","Switzerland"
"Valeyres-sous-Montagny","46.8000","6.6000","708","Switzerland"
"Saint-Blaise","47.0131","6.9864","3211","Switzerland"
"Saignelegier","47.2500","7.0000","2608","Switzerland"
"Wenslingen","47.4408","7.9083","722","Switzerland"
"Chancy","46.1476","5.9789","1686","Switzerland"
"Rumikon","47.5667","8.3789","333","Switzerland"
"Fluhli","46.8831","8.0164","1961","Switzerland"
"Pomy","46.7583","6.6692","781","Switzerland"
"Innertkirchen","46.6997","8.2333","1063","Switzerland"
"Frutigen","46.5831","7.6497","6921","Switzerland"
"Birrwil","47.2902","8.1962","1166","Switzerland"
"Sessa","46.0000","8.8167","687","Switzerland"
"Lauerz","47.0347","8.5803","1100","Switzerland"
"Echallens","46.6333","6.6333","5740","Switzerland"
"Arni","46.9347","7.6653","928","Switzerland"
"Magenwil","47.4136","8.2333","2110","Switzerland"
"Scherz","47.4483","8.1861","662","Switzerland"
"Corbeyrier","46.3696","6.9798","438","Switzerland"
"Rennaz","46.3667","6.9167","843","Switzerland"
"Cortebert","47.1833","7.1000","740","Switzerland"
"La Cote-aux-Fees","46.8667","6.4833","442","Switzerland"
"Molondin","46.7667","6.7500","236","Switzerland"
"Obergerlafingen","47.1611","7.5833","1176","Switzerland"
"Charrat","46.1167","7.1333","1849","Switzerland"
"Arlesheim","47.4922","7.6203","9202","Switzerland"
"Tavannes","47.2208","7.2014","3626","Switzerland"
"Titterten","47.4019","7.7175","404","Switzerland"
"Roggwil","47.2417","7.8236","4079","Switzerland"
"Rickenbach bei Wil","47.4497","9.0497","2774","Switzerland"
"Maur","47.3417","8.6703","10148","Switzerland"
"Kallern","47.3136","8.2944","368","Switzerland"
"Muhen","47.3331","8.0528","3877","Switzerland"
"Walterswil","47.1139","7.7786","538","Switzerland"
"Wileroltigen","46.9721","7.2385","360","Switzerland"
"Veyras","46.3000","7.5333","1833","Switzerland"
"Worben","47.1007","7.2965","2286","Switzerland"
"Mosnang","47.3500","9.0331","2881","Switzerland"
"Le Bemont","47.2667","7.0167","317","Switzerland"
"Fraschels","47.0000","7.2000","464","Switzerland"
"Oberhelfenschwil","47.3497","9.1000","1261","Switzerland"
"Gonten","47.3283","9.3467","1455","Switzerland"
"Stusslingen","47.3942","7.9708","1055","Switzerland"
"Cadempino","46.0333","8.9333","1530","Switzerland"
"Eschenbach","47.1328","8.3197","3589","Switzerland"
"Iseltwald","46.7098","7.9636","438","Switzerland"
"Donat","46.4664","9.4664","202","Switzerland"
"Huttikon","47.4458","8.3872","925","Switzerland"
"Bioley-Orjulaz","46.6167","6.6000","512","Switzerland"
"Bretonnieres","46.7167","6.4667","264","Switzerland"
"Holderbank","47.3333","7.7542","696","Switzerland"
"Remaufens","46.5167","6.8667","1139","Switzerland"
"Movelier","47.4091","7.3284","422","Switzerland"
"Beromunster","47.1997","8.2000","6580","Switzerland"
"Aclens","46.5667","6.5167","535","Switzerland"
"Oberdorf","47.2319","7.5042","1723","Switzerland"
"Reigoldswil","47.3983","7.6914","1582","Switzerland"
"Rumlingen","47.4253","7.8497","420","Switzerland"
"Gerlafingen","47.1722","7.5739","5202","Switzerland"
"Tartegnin","46.4668","6.3157","248","Switzerland"
"Konolfingen Dorf","46.8833","7.6167","5282","Switzerland"
"Savosa","46.0167","8.9500","2213","Switzerland"
"Riederalp","46.3833","8.0333","452","Switzerland"
"Besenburen","47.3150","8.3458","624","Switzerland"
"Niederlenz","47.4025","8.1764","4776","Switzerland"
"Klosters Platz","46.8548","9.9538","4437","Switzerland"
"Ettingen","47.4809","7.5444","5156","Switzerland"
"Sorengo","46.0000","8.9333","1774","Switzerland"
"Auenstein","47.4178","8.1358","1581","Switzerland"
"Grossdietwil","47.1717","7.8850","858","Switzerland"
"Langendorf","47.2206","7.5144","3781","Switzerland"
"Madulain","46.5831","9.9331","210","Switzerland"
"Bettwil","47.2914","8.2664","626","Switzerland"
"Untereggen","47.4664","9.4497","1073","Switzerland"
"Marbach","47.3917","9.5681","2105","Switzerland"
"Gryon","46.2906","7.0975","1364","Switzerland"
"Mutrux","46.8833","6.7167","158","Switzerland"
"Trelex","46.4167","6.2000","1402","Switzerland"
"Geroldswil","47.4228","8.4108","4918","Switzerland"
"Oberrohrdorf","47.4219","8.3167","4072","Switzerland"
"Hospenthal","46.6206","8.5700","186","Switzerland"
"Maracon","46.5585","6.8790","491","Switzerland"
"Visperterminen","46.2500","7.9000","1345","Switzerland"
"Udligenswil","47.0906","8.4006","2280","Switzerland"
"Urnasch","47.3181","9.2858","2315","Switzerland"
"Ratschen","47.1736","7.7750","557","Switzerland"
"Durrenasch","47.3219","8.1569","1255","Switzerland"
"Weesen","47.1427","9.0933","1723","Switzerland"
"Gachlingen","47.7027","8.4990","836","Switzerland"
"Le Vaud","46.4775","6.2337","1310","Switzerland"
"Rue","46.6167","6.8167","1526","Switzerland"
"Ehrendingen","47.4995","8.3443","4823","Switzerland"
"Saint-Leonard","46.2566","7.4269","2442","Switzerland"
"Pfaffnau","47.2278","7.8994","2678","Switzerland"
"Bretigny-sur-Morrens","46.6000","6.6333","841","Switzerland"
"Wallisellen","47.4122","8.5922","15855","Switzerland"
"Witterswil","47.4872","7.5236","1438","Switzerland"
"Sankt Antoni","46.8167","7.2667","2076","Switzerland"
"Oberglatt","47.4775","8.5200","6964","Switzerland"
"Corcelles","47.2861","7.4542","205","Switzerland"
"Lufingen","47.4897","8.5942","2373","Switzerland"
"Wangi","47.5000","8.9497","4720","Switzerland"
"Trub","46.9331","7.8831","1350","Switzerland"
"Buttenhardt","47.7532","8.6443","416","Switzerland"
"Arisdorf","47.5128","7.7650","1638","Switzerland"
"Erlen","47.5497","9.2331","3749","Switzerland"
"Montherod","46.5000","6.3667","534","Switzerland"
"Beringen","47.6964","8.5754","4643","Switzerland"
"Ebnat-Kappel","47.2632","9.1234","5031","Switzerland"
"Ins","47.0000","7.1000","3564","Switzerland"
"Steinhaus","47.1969","8.4861","10025","Switzerland"
"Hergiswil","46.9844","8.3125","5777","Switzerland"
"Faoug","46.9024","7.0744","905","Switzerland"
"Cartigny","46.1740","6.0210","974","Switzerland"
"Grabs","47.1831","9.4500","7068","Switzerland"
"Ballens","46.5500","6.3667","536","Switzerland"
"Dachsen","47.6656","8.6186","1931","Switzerland"
"Schwaderloch","47.5858","8.1442","672","Switzerland"
"Aesch","47.4694","7.5942","10352","Switzerland"
"Zizers","46.9361","9.5653","3434","Switzerland"
"Speicher","47.4106","9.4433","4379","Switzerland"
"Innerthal","47.1050","8.9186","173","Switzerland"
"Thalheim","47.4372","8.1042","831","Switzerland"
"Cronay","46.7500","6.7000","385","Switzerland"
"Oulens-sous-Echallens","46.6500","6.5833","616","Switzerland"
"Sevelen","47.1204","9.4857","5103","Switzerland"
"Ottenbach","47.2814","8.4039","2556","Switzerland"
"Scuol","46.7970","10.2995","4591","Switzerland"
"Guttingen","47.5964","9.2864","1591","Switzerland"
"Richterswil","47.2081","8.7058","13407","Switzerland"
"Thal","47.4664","9.5667","6570","Switzerland"
"Cortaillod","46.9440","6.8479","4729","Switzerland"
"Illighausen","47.6042","9.2081","0","Switzerland"
"Laax","46.8460","9.2279","1857","Switzerland"
"Seewis im Pratigau","46.9903","9.6375","1342","Switzerland"
"Nurensdorf","47.4467","8.6486","5591","Switzerland"
"Kaiserstuhl","47.5686","8.4192","433","Switzerland"
"Isenthal","46.9106","8.5628","483","Switzerland"
"Borisried","46.7667","7.2833","644","Switzerland"
"Henniez","46.7500","6.8833","346","Switzerland"
"Sion","46.2304","7.3661","34708","Switzerland"
"Grandval","47.2844","7.4264","404","Switzerland"
"Munchwilen","47.4815","8.9924","5377","Switzerland"
"Senarclens","46.6000","6.4833","488","Switzerland"
"Hendschiken","47.3872","8.2194","1269","Switzerland"
"Balm bei Gunsberg","47.2528","7.5581","204","Switzerland"
"Waldenburg","47.3831","7.7500","1125","Switzerland"
"Subingen","47.1967","7.6153","3201","Switzerland"
"Deitingen","47.2158","7.6236","2207","Switzerland"
"Zeneggen","46.2667","7.8333","293","Switzerland"
"Villars-le-Terroir","46.6500","6.6333","1212","Switzerland"
"Vezia","46.0167","8.9333","1914","Switzerland"
"Port","47.1167","7.2500","3695","Switzerland"
"Coeuve","47.4542","7.0975","734","Switzerland"
"Bex","46.2500","7.0167","7771","Switzerland"
"Corcelles-le-Jorat","46.6000","6.7500","458","Switzerland"
"Kanerkinden","47.4122","7.8372","528","Switzerland"
"Freienstein","47.5322","8.5847","2376","Switzerland"
"Vernier","46.2000","6.1000","35132","Switzerland"
"Unteriberg","47.0622","8.8036","2395","Switzerland"
"L'Abbaye","46.6500","6.3167","1476","Switzerland"
"Cadenazzo","46.1500","8.9500","2932","Switzerland"
"Runenberg","47.4331","7.8833","758","Switzerland"
"Stein","47.4997","9.4333","3604","Switzerland"
"Inden","46.3333","7.6167","106","Switzerland"
"Soubey","47.3101","7.0405","126","Switzerland"
"Meggen","47.0464","8.3744","7238","Switzerland"
"Reconvilier","47.2361","7.2222","2317","Switzerland"
"Grandson","46.8085","6.6443","3357","Switzerland"
"Vulliens","46.6167","6.8000","594","Switzerland"
"Prilly","46.5333","6.6000","12399","Switzerland"
"Reutigen","46.6942","7.6200","999","Switzerland"
"Marthalen","47.6267","8.6506","1949","Switzerland"
"Regensberg","47.4839","8.4386","473","Switzerland"
"Attelwil","47.2594","8.0444","302","Switzerland"
"Eglisau","47.5733","8.5261","5170","Switzerland"
"Belmont-sur-Yverdon","46.7500","6.6167","384","Switzerland"
"Founex","46.3364","6.1851","3774","Switzerland"
"Meyrin","46.2322","6.0791","24144","Switzerland"
"Fullinsdorf","47.5056","7.7297","4484","Switzerland"
"Oberhof","47.4511","8.0069","605","Switzerland"
"Otelfingen","47.4608","8.3911","2831","Switzerland"
"Seegraben","47.3433","8.7719","1426","Switzerland"
"Arnex-sur-Nyon","46.3667","6.1833","235","Switzerland"
"Munstschemier","46.9833","7.1333","1404","Switzerland"
"Cheiry","46.7492","6.8333","416","Switzerland"
"Comano","46.0333","8.9500","2035","Switzerland"
"Rickenbach","47.3414","7.8583","1012","Switzerland"
"Flueln","46.9146","8.6460","1972","Switzerland"
"Biasca","46.3500","8.9667","6115","Switzerland"
"Val-d'Illiez","46.2000","6.9000","1961","Switzerland"
"Kesswil","47.5876","9.3129","991","Switzerland"
"Morigen","47.0850","7.2133","879","Switzerland"
"Buttikon","47.3292","8.2692","994","Switzerland"
"Staldenried","46.2167","7.8667","537","Switzerland"
"Morlon","46.6333","7.0833","615","Switzerland"
"Oberlunkhofen","47.3125","8.3977","2037","Switzerland"
"Remigen","47.5164","8.1875","1135","Switzerland"
"Ausserberg","46.3167","7.8500","626","Switzerland"
"Guggisberg","46.7664","7.3331","1508","Switzerland"
"Brissago","46.1167","8.7000","1773","Switzerland"
"Safenwil","47.3192","7.9833","3842","Switzerland"
"Gruyeres","46.5836","7.0819","2199","Switzerland"
"Avry-sur-Matran","46.7833","7.0667","1921","Switzerland"
"Heiden","47.4411","9.5311","4161","Switzerland"
"Bursinel","46.4333","6.3000","471","Switzerland"
"Affoltern am Albis","47.2817","8.4502","12080","Switzerland"
"Coppet","46.3214","6.1891","3152","Switzerland"
"Dagerlen","47.5619","8.7231","1012","Switzerland"
"Feusisberg","47.1869","8.7472","5262","Switzerland"
"Buhler","47.3728","9.4211","1798","Switzerland"
"Hersberg","47.4922","7.7831","319","Switzerland"
"Matten","46.6664","7.8497","4101","Switzerland"
"Churwalden","46.7808","9.5433","1949","Switzerland"
"Zunzgen","47.4493","7.8079","2560","Switzerland"
"Winterthur","47.4992","8.7267","109775","Switzerland"
"Zuoz","46.6020","9.9598","1186","Switzerland"
"Stafa","47.2401","8.7328","14389","Switzerland"
"Neggio","45.9833","8.8833","329","Switzerland"
"Maladers","46.8359","9.5591","518","Switzerland"
"La Rippe","46.3833","6.1500","1166","Switzerland"
"Barbengo","45.9622","8.9153","1970","Switzerland"
"Romont","47.1903","7.3417","199","Switzerland"
"Herzogenbuchsee","47.1884","7.7062","7197","Switzerland"
"Suscevaz","46.7667","6.5833","212","Switzerland"
"Le Paquier","46.5943","7.0552","1344","Switzerland"
"Saanen","46.4831","7.2664","6817","Switzerland"
"Andeer","46.6030","9.4264","908","Switzerland"
"Cuarnens","46.6333","6.4333","478","Switzerland"
"Schangnau","46.8112","7.8834","908","Switzerland"
"Staffelbach","47.2831","8.0472","1281","Switzerland"
"Hombrechtikon","47.2533","8.7703","8595","Switzerland"
"L'Abergement","46.7500","6.4833","248","Switzerland"
"Evilard","47.1514","7.2389","2674","Switzerland"
"Hochwald","47.4569","7.6403","1310","Switzerland"
"Chardonne","46.4886","6.8216","2944","Switzerland"
"Cademario","46.0167","8.9000","775","Switzerland"
"Munchenwiler","46.9131","7.1253","522","Switzerland"
"Fahy","47.4167","6.9500","350","Switzerland"
"Mutten","46.6712","9.4923","61","Switzerland"
"Nebikon","47.1925","7.9781","2635","Switzerland"
"Russikon","47.3953","8.7778","4355","Switzerland"
"Schwarzenberg","47.0142","8.1733","1709","Switzerland"
"Morges","46.5094","6.4986","15838","Switzerland"
"Auboranges","46.5833","6.8000","287","Switzerland"
"Unterengstringen","47.4147","8.4497","3804","Switzerland"
"Cremines","47.2833","7.4417","510","Switzerland"
"Rovray","46.7889","6.7667","179","Switzerland"
"Ostermundigen","46.9553","7.4833","17546","Switzerland"
"Windisch","47.4803","8.2222","7654","Switzerland"
"Obererli","47.1358","8.6136","6080","Switzerland"
"Saicourt","47.2442","7.2069","628","Switzerland"
"Graben","47.2175","7.7211","331","Switzerland"
"Oberdorf","46.9525","8.3819","3121","Switzerland"
"Oberholz","46.9164","7.6664","727","Switzerland"
"Kublis","46.9147","9.7743","853","Switzerland"
"Tolochenaz","46.5000","6.4667","1932","Switzerland"
"Arbon","47.5167","9.4333","14537","Switzerland"
"Gampelen","47.0144","7.0581","962","Switzerland"
"Puidoux","46.4833","6.7667","2878","Switzerland"
"Dompierre","46.7113","6.8801","239","Switzerland"
"Paradiso","45.9833","8.9500","4144","Switzerland"
"Kirchberg","47.0858","7.5861","5965","Switzerland"
"Auw","47.2122","8.3664","2157","Switzerland"
"Luzein","46.9197","9.7668","1582","Switzerland"
"Lupsingen","47.4456","7.6939","1436","Switzerland"
"Wuppenau","47.4972","9.1089","1111","Switzerland"
"Augst","47.5350","7.7128","1024","Switzerland"
"Deisswil bei Munchenbuchsee","47.0342","7.4558","86","Switzerland"
"Morel-Filet","46.3570","8.0480","680","Switzerland"
"Lenzerheide","46.7289","9.5567","2641","Switzerland"
"Eclepens","46.6500","6.5333","1212","Switzerland"
"Weiningen","47.4208","8.4356","4760","Switzerland"
"Zweisimmen","46.5497","7.3664","3020","Switzerland"
"Schinznach Bad","47.4497","8.1694","1347","Switzerland"
"Aedermannsdorf","47.3067","7.6111","570","Switzerland"
"Nidau","47.1256","7.2403","6815","Switzerland"
"Siat","46.7831","9.1500","181","Switzerland"
"Bioley-Magnoux","46.7333","6.7167","226","Switzerland"
"Vetroz","46.2258","7.2707","6372","Switzerland"
"Ramsen","47.6997","8.7997","1469","Switzerland"
"Lens","46.2667","7.4333","4198","Switzerland"
"Rietheim","47.6025","8.2792","725","Switzerland"
"Birwinken","47.5833","9.2000","1319","Switzerland"
"Fechy","46.4833","6.3667","861","Switzerland"
"Neftenbach","47.5283","8.6681","5692","Switzerland"
"Mettmenstetten","47.2447","8.4644","4865","Switzerland"
"Grenchen","47.1931","7.3958","17140","Switzerland"
"Giebenach","47.5231","7.7447","1055","Switzerland"
"Hunzenschwil","47.3858","8.1264","4014","Switzerland"
"Monteggio","46.0000","8.8167","869","Switzerland"
"Langwiesen","47.6708","8.6367","1669","Switzerland"
"Pont-en-Ogoz","46.6833","7.0833","1824","Switzerland"
"Ferden","46.3667","7.7500","251","Switzerland"
"Siglistorf","47.5458","8.3806","640","Switzerland"
"Lavertezzo","46.1755","8.8961","1302","Switzerland"
"Rafz","47.6122","8.5408","4462","Switzerland"
"Habkern","46.7551","7.8900","639","Switzerland"
"Montfaucon","47.2833","7.0500","603","Switzerland"
"Hemishofen","47.6882","8.8410","468","Switzerland"
"Dozwil","47.5667","9.3164","694","Switzerland"
"Blonay","46.4667","6.9000","6173","Switzerland"
"Diemtigen","46.6494","7.5651","2248","Switzerland"
"Les Brenets","47.0667","6.7000","1044","Switzerland"
"Le Chenit","46.6000","6.2333","4586","Switzerland"
"Oberbalm","46.8733","7.4039","853","Switzerland"
"Torricella","46.0667","8.9167","3087","Switzerland"
"Kilchberg","47.3247","8.5492","8437","Switzerland"
"Lutzelfluh","47.0091","7.6892","4146","Switzerland"
"Naters","46.3237","7.9886","10073","Switzerland"
"Montricher","46.6000","6.3667","949","Switzerland"
"Freienbach","47.2047","8.7578","16269","Switzerland"
"Mellikon","47.5692","8.3542","224","Switzerland"
"Marstetten","47.6000","9.0664","2898","Switzerland"
"Alberswil","47.1497","8.0000","661","Switzerland"
"Leissigen","46.6497","7.7664","1123","Switzerland"
"Diegten","47.4133","7.8112","1656","Switzerland"
"Murgenthal","47.2664","7.8333","2984","Switzerland"
"Gottlieben","47.6643","9.1338","339","Switzerland"
"Herrliberg","47.2972","8.6302","6290","Switzerland"
"Chavannes-pres-Renens","46.5282","6.5762","7724","Switzerland"
"Volleges","46.0833","7.1667","2018","Switzerland"
"Ursins","46.7333","6.6667","230","Switzerland"
"Bergdietikon","47.3942","8.3861","2828","Switzerland"
"Visp","46.2922","7.8828","7891","Switzerland"
"Saint Saphorin","46.4667","6.8000","392","Switzerland"
"Monthey","46.2500","6.9500","17563","Switzerland"
"Mezieres","46.6785","6.9258","1045","Switzerland"
"Ittenthal","47.5192","8.0625","208","Switzerland"
"Unterageri","47.1386","8.5844","8867","Switzerland"
"Pollegio","46.3500","8.9333","799","Switzerland"
"Unterstammheim","47.6392","8.7903","928","Switzerland"
"Diepoldsau","47.3831","9.6500","6469","Switzerland"
"Remetschwil","47.4108","8.3319","1991","Switzerland"
"Assens","46.6178","6.6274","1077","Switzerland"
"Schonenberg","47.1939","8.6447","1844","Switzerland"
"Les Plaines","47.1082","6.7714","209","Switzerland"
"Uznach","47.2242","8.9839","6416","Switzerland"
"Schubelbach","47.1733","8.9264","9249","Switzerland"
"Adlikon bei Andelfingen","47.5822","8.6925","655","Switzerland"
"Tecknau","47.4497","7.8833","829","Switzerland"
"Furstenau","46.7164","9.4333","353","Switzerland"
"Heimberg","46.7831","7.5997","6827","Switzerland"
"Embd","46.2167","7.8167","295","Switzerland"
"Buchs","47.3889","8.0747","7966","Switzerland"
"Eriswil","47.0831","7.8500","1396","Switzerland"
"Chatillon","46.8331","6.8258","466","Switzerland"
"Bofflens","46.7000","6.5000","196","Switzerland"
"Himmelried","47.4219","7.5986","909","Switzerland"
"Suhr","47.3747","8.0806","10424","Switzerland"
"Herisau","47.3851","9.2786","15780","Switzerland"
"Barschwil","47.3833","7.4736","788","Switzerland"
"Boudry","46.9500","6.8333","6152","Switzerland"
"Brione sopra Minusio","46.1833","8.8167","485","Switzerland"
"Waltenschwil","47.3358","8.3053","2933","Switzerland"
"Berg","47.5000","8.1500","1589","Switzerland"
"Gams","47.2000","9.4333","3471","Switzerland"
"Muralto","46.1667","8.8000","2683","Switzerland"
"Ecublens","46.6153","6.8070","339","Switzerland"
"Saint Legier-La Chiesaz","46.4667","6.8833","5184","Switzerland"
"Schmerikon","47.2253","8.9500","3709","Switzerland"
"Flerden","46.6997","9.3997","248","Switzerland"
"Conters","46.5997","9.5831","215","Switzerland"
"Nusshof","47.4917","7.8047","263","Switzerland"
"Schlierbach","47.2242","8.1114","889","Switzerland"
"Zeiningen","47.5428","7.8708","2310","Switzerland"
"Vullierens","46.5734","6.4808","508","Switzerland"
"Luterbach","47.2194","7.5861","3479","Switzerland"
"Obersteckholz","47.1997","7.8194","419","Switzerland"
"Tauffelen","47.0667","7.2000","2872","Switzerland"
"Tagerwilen","47.6556","9.1311","4642","Switzerland"
"Tasch","46.0667","7.7667","1318","Switzerland"
"Meierskappel","47.1256","8.4442","1460","Switzerland"
"Aetingen","47.1331","7.5056","297","Switzerland"
"Ronco","46.1333","8.7333","587","Switzerland"
"Haggenschwil","47.4831","9.3500","1364","Switzerland"
"Schupfheim","46.9500","8.0150","4219","Switzerland"
"Lignerolle","46.7333","6.4500","419","Switzerland"
"Wolhusen","47.0617","8.0744","4340","Switzerland"
"Champtauroz","46.7667","6.7833","122","Switzerland"
"Grengiols","46.3667","8.1000","424","Switzerland"
"Oberstammheim","47.6339","8.7994","1196","Switzerland"
"Sissach","47.4644","7.8106","6681","Switzerland"
"Trun","46.7433","8.9831","1170","Switzerland"
"Hagendorf","47.3344","7.8444","5137","Switzerland"
"Sirnach","47.4664","8.9997","7767","Switzerland"
"Vuadens","46.6167","7.0167","2405","Switzerland"
"Bellwald","46.4333","8.1500","378","Switzerland"
"Severy","46.5833","6.4333","225","Switzerland"
"Trimmis","46.8958","9.5642","3304","Switzerland"
"Villigen","47.5262","8.2196","2126","Switzerland"
"Orges","46.8167","6.5833","333","Switzerland"
"Cornaux","47.0387","7.0199","1563","Switzerland"
"Rupperswil","47.4025","8.1278","5486","Switzerland"
"Les Breuleux","47.2052","7.0025","1526","Switzerland"
"Marchissy","46.4833","6.2500","463","Switzerland"
"Quinto","46.5167","8.7000","1026","Switzerland"
"Meienried","47.1400","7.3403","59","Switzerland"
"Mont-Tramelan","47.2111","7.0542","122","Switzerland"
"Saint Oyens","46.5000","6.3167","446","Switzerland"
"Sierre","46.2918","7.5320","16860","Switzerland"
"Seeberg","47.1550","7.6647","1560","Switzerland"
"Essertines-sur-Yverdon","46.7167","6.6333","1023","Switzerland"
"Bolken","47.1928","7.6639","601","Switzerland"
"Leytron","46.1833","7.2000","3204","Switzerland"
"Bellach","47.2150","7.5000","5214","Switzerland"
"Manno","46.0333","8.9167","1324","Switzerland"
"Chessel","46.3496","6.8955","426","Switzerland"
"Rhazuns","46.7997","9.3997","1496","Switzerland"
"Thurnen","47.4572","7.8303","1363","Switzerland"
"Gebenstorf","47.4795","8.2424","5414","Switzerland"
"Villars-Sainte-Croix","46.5667","6.5667","962","Switzerland"
"Triengen","47.2358","8.0758","4652","Switzerland"
"Rottenschwil","47.3137","8.3620","857","Switzerland"
"Neunkirch","47.6900","8.4989","2289","Switzerland"
"Matzingen","47.5197","8.9325","2917","Switzerland"
"Effingen","47.4914","8.1042","595","Switzerland"
"Romanel-sur-Lausanne","46.5667","6.6000","3309","Switzerland"
"Trogen","47.4075","9.4647","1735","Switzerland"
"Weiach","47.5581","8.4375","1750","Switzerland"
"Langenthal","47.2153","7.7889","15639","Switzerland"
"Ennetmoos","46.9567","8.3372","2193","Switzerland"
"Walliswil bei Wangen","47.2311","7.6850","607","Switzerland"
"Ayent","46.3280","7.4103","4059","Switzerland"
"Bubikon","47.2694","8.8203","7194","Switzerland"
"Caslano","45.9699","8.8795","4356","Switzerland"
"Pully","46.5167","6.6667","18313","Switzerland"
"Aeugst am Albis","47.2675","8.4853","1982","Switzerland"
"Acquarossa","46.4599","8.9273","1808","Switzerland"
"Grancia","45.9667","8.9333","492","Switzerland"
"Oberems","46.2152","7.6840","122","Switzerland"
"Oberentfelden","47.3597","8.0486","8360","Switzerland"
"Motschwil","47.0494","7.5686","118","Switzerland"
"Rivaz","46.4667","6.7667","358","Switzerland"
"Stettfurt","47.5261","8.9556","1204","Switzerland"
"Arnex-sur-Orbe","46.7000","6.5167","630","Switzerland"
"Geuensee","47.1997","8.1069","2940","Switzerland"
"Sorens","46.6667","7.0667","1098","Switzerland"
"Vallon","46.8847","6.9536","447","Switzerland"
"Menznau","47.0831","8.0392","2879","Switzerland"
"Echarlens","46.6458","7.0772","839","Switzerland"
"Zollikon","47.3422","8.5783","13008","Switzerland"
"La Chaux-de-Fonds","47.0996","6.8296","38965","Switzerland"
"Thusis","46.6885","9.4328","3217","Switzerland"
"Krauchthal","47.0108","7.5681","2365","Switzerland"
"Perrefitte","47.2761","7.3417","463","Switzerland"
"Spiringen","46.8731","8.7289","849","Switzerland"
"Corgemont","47.1911","7.1386","1706","Switzerland"
"Bretzwil","47.3979","7.6528","768","Switzerland"
"Bad Zurzach","47.5872","8.2944","4242","Switzerland"
"Cheserex","46.4167","6.1667","1221","Switzerland"
"Salgesch","46.3000","7.5667","1547","Switzerland"
"Iffwil","47.0639","7.4781","443","Switzerland"
"Killwangen","47.4316","8.3460","2074","Switzerland"
"Neyruz","46.7667","7.0667","2566","Switzerland"
"Vufflens-la-Ville","46.5833","6.5333","1298","Switzerland"
"Geltwil","47.2495","8.3235","215","Switzerland"
"Montreux","46.4333","6.9167","25984","Switzerland"
"Fahrwangen","47.2958","8.2431","2136","Switzerland"
"Seftigen","46.7867","7.5408","2143","Switzerland"
"Allmendingen","46.9167","7.5167","590","Switzerland"
"Plasselb","46.7333","7.2500","1048","Switzerland"
"Ohmstal","47.1600","7.9472","307","Switzerland"
"Rongellen","46.6739","9.4405","52","Switzerland"
"Gachnang","47.5331","8.8500","4364","Switzerland"
"Pfeffingen","47.4600","7.5906","2336","Switzerland"
"Simplon Dorf","46.2000","8.0500","305","Switzerland"
"Semsales","46.5667","6.9333","1412","Switzerland"
"Stampa","46.3331","9.5831","595","Switzerland"
"Bellinzona","46.1956","9.0238","43220","Switzerland"
"Emmen","47.0772","8.3000","29292","Switzerland"
"Grachen","46.1967","7.8488","1251","Switzerland"
"Beinwil am See","47.2678","8.2025","3276","Switzerland"
"Farnern","47.2681","7.6211","202","Switzerland"
"Dottikon","47.3844","8.2403","3881","Switzerland"
"Jonschwil","47.4283","9.0885","3773","Switzerland"
"Verossaz","46.2167","6.9833","770","Switzerland"
"Nenzlingen","47.4486","7.5633","443","Switzerland"
"Breitenbach","47.4083","7.5444","3854","Switzerland"
"Thunstetten","47.2039","7.7569","3395","Switzerland"
"Amriswil","47.5497","9.3000","13534","Switzerland"
"Bullet","46.8426","6.5569","655","Switzerland"
"Matran","46.7839","7.0910","1521","Switzerland"
"Vellerat","47.3167","7.3667","71","Switzerland"
"Munchwilen","47.5386","7.9639","930","Switzerland"
"Chiasso","45.8353","9.0320","7975","Switzerland"
"Rorbas","47.5341","8.5684","2837","Switzerland"
"Unterramsern","47.1197","7.4833","218","Switzerland"
"Giornico","46.4000","8.8667","858","Switzerland"
"La Verrerie","46.6167","6.9167","1188","Switzerland"
"Bussy","46.5500","6.5500","8736","Switzerland"
"Weggis","47.0322","8.4383","4368","Switzerland"
"Goldach","47.4831","9.4664","9269","Switzerland"
"Dielsdorf","47.4836","8.4542","5940","Switzerland"
"Missy","46.8762","6.9738","370","Switzerland"
"Neuheim","47.2067","8.5778","2255","Switzerland"
"Urmein","46.6860","9.4018","154","Switzerland"
"Sarnen","46.8969","8.2469","10368","Switzerland"
"Schwellbrunn","47.3523","9.2490","1573","Switzerland"
"Essertines-sur-Rolle","46.5000","6.3167","721","Switzerland"
"Einsiedeln","47.1278","8.7431","15550","Switzerland"
"Cresuz","46.6167","7.1333","382","Switzerland"
"Lenzburg","47.3875","8.1803","10569","Switzerland"
"Steinen","47.0489","8.6114","3417","Switzerland"
"Hofstetten","47.4739","8.8542","500","Switzerland"
"Bivio","46.4697","9.6511","225","Switzerland"
"Kienberg","47.4414","7.9681","513","Switzerland"
"Aarau","47.3923","8.0446","21268","Switzerland"
"Ecublens","46.5276","6.5605","12854","Switzerland"
"Harkingen","47.3094","7.8181","1644","Switzerland"
"Niederhausern","46.8614","7.4656","501","Switzerland"
"Zernez","46.6997","10.0997","1527","Switzerland"
"Lax","46.3833","8.1167","309","Switzerland"
"Munsterlingen","47.6313","9.2337","3448","Switzerland"
"Cornol","47.4000","7.1667","1010","Switzerland"
"Meiringen","46.7283","8.1861","4621","Switzerland"
"Blatten","46.4167","7.8167","290","Switzerland"
"Lonay","46.5333","6.5167","2592","Switzerland"
"Lauenen","46.4164","7.3164","825","Switzerland"
"Dallenwil","46.9344","8.3917","1845","Switzerland"
"Berneck","47.4246","9.6125","3963","Switzerland"
"Wolfisberg","47.2722","7.6606","184","Switzerland"
"Grone","46.2500","7.4500","2414","Switzerland"
"Bister","46.3667","8.0667","33","Switzerland"
"Gondiswil","47.1456","7.8736","730","Switzerland"
"Corcelles-pres-Payerne","46.8333","6.9667","2480","Switzerland"
"Durnten","47.2789","8.8433","7518","Switzerland"
"Grellingen","47.4422","7.5897","1845","Switzerland"
"Bottighofen","47.6397","9.2014","2226","Switzerland"
"Grimisuat","46.2667","7.3833","3445","Switzerland"
"Porza","46.0167","8.9500","1579","Switzerland"
"Bunzen","47.3108","8.3261","1110","Switzerland"
"Reiden","47.2431","7.9683","7131","Switzerland"
"La Roche","47.4167","7.1667","1162","Switzerland"
"Granichen","47.3583","8.0997","7733","Switzerland"
"Mattstetten","47.0294","7.5136","560","Switzerland"
"Villnachern","47.4714","8.1608","1632","Switzerland"
"Etziken","47.1886","7.6486","881","Switzerland"
"Lignieres","47.0833","7.0667","968","Switzerland"
"Muzzano","45.9976","8.9205","819","Switzerland"
"Dudingen","46.8461","7.1906","7961","Switzerland"
"Fraubrunnen","47.0850","7.5269","5106","Switzerland"
"Riniken","47.4956","8.1875","1452","Switzerland"
"Coldrerio","45.8500","8.9833","2939","Switzerland"
"Wassen","46.7056","8.5992","398","Switzerland"
"La Chaux-des-Breuleux","47.2226","7.0275","90","Switzerland"
"Sent","46.8167","10.3333","861","Switzerland"
"Curtilles","46.7000","6.8500","313","Switzerland"
"Corserey","46.7719","6.9891","419","Switzerland"
"Altstatten","47.3780","9.5488","11730","Switzerland"
"Cazis","46.7372","9.4267","2223","Switzerland"
"Sembrancher","46.0780","7.1512","1042","Switzerland"
"Savigny","46.5667","6.7167","3357","Switzerland"
"Aranno","46.0167","8.8667","374","Switzerland"
"Vinelz","47.0328","7.1113","867","Switzerland"
"Gossau","47.4164","9.2500","18171","Switzerland"
"Hohenrain","47.1808","8.3178","2474","Switzerland"
"Daillens","46.6167","6.5500","1027","Switzerland"
"Romerswil","47.1694","8.2447","1769","Switzerland"
"Walzenhausen","47.4511","9.6014","1971","Switzerland"
"Buren an der Aare","47.1403","7.3722","3580","Switzerland"
"Bettens","46.6333","6.5833","590","Switzerland"
"Roschenz","47.4248","7.4759","1863","Switzerland"
"Altishofen","47.1997","7.9667","1577","Switzerland"
"Zuzgen","47.5261","7.9000","860","Switzerland"
"Villars-sur-Glane","46.7833","7.1167","12092","Switzerland"
"Jonen","47.2983","8.3972","2108","Switzerland"
"Villmergen","47.3483","8.2456","7324","Switzerland"
"Hilterfingen","46.7432","7.6582","4044","Switzerland"
"Bottens","46.6167","6.6667","1297","Switzerland"
"Lajoux","47.2806","7.1375","673","Switzerland"
"Liedertswil","47.3922","7.7192","162","Switzerland"
"Ponthaux","46.8167","7.0333","743","Switzerland"
"Saint-Cergue","46.4500","6.1500","2575","Switzerland"
"Roche","46.3500","6.9167","1647","Switzerland"
"Penthaz","46.6000","6.5333","1749","Switzerland"
"Belp","46.8914","7.4972","11439","Switzerland"
"Thalheim an der Thur","47.5806","8.7542","922","Switzerland"
"Brugg","47.1264","7.2817","4388","Switzerland"
"Ardon","46.2000","7.2500","3212","Switzerland"
"Affeltrangen","47.5164","9.0167","2551","Switzerland"
"Romanel-sur-Morges","46.5500","6.5167","458","Switzerland"
"Lyss","47.0750","7.3069","15279","Switzerland"
"Kappel","47.3250","7.8500","3237","Switzerland"
"Buch","47.7164","8.7831","316","Switzerland"
"Saint-Martin","46.1667","7.4333","825","Switzerland"
"Wangen an der Aare","47.2311","7.6502","2311","Switzerland"
"Bonfol","47.4767","7.1521","666","Switzerland"
"Rohrhof","47.4111","7.9553","91","Switzerland"
"Gandria","46.0000","9.0000","279","Switzerland"
"Lalden","46.2833","7.9000","649","Switzerland"
"Kottwil","47.1617","8.0453","398","Switzerland"
"Treytorrens","46.7667","6.8000","120","Switzerland"
"Horn","47.4953","9.4630","2752","Switzerland"
"Biglen","46.9278","7.6267","1811","Switzerland"
"Volketswil","47.3906","8.6953","18615","Switzerland"
"Bourrignon","47.4000","7.2500","262","Switzerland"
"Schleinikon","47.4978","8.3989","728","Switzerland"
"Sainte-Croix","46.8237","6.4889","4863","Switzerland"
"Pontresina","46.4997","9.8997","2162","Switzerland"
"Senedes","46.7500","7.1500","160","Switzerland"
"Muri","47.2747","8.3417","7810","Switzerland"
"Grub","47.4481","9.5094","1008","Switzerland"
"Ruschlikon","47.3081","8.5542","5830","Switzerland"
"Binn","46.3667","8.1833","140","Switzerland"
"Chigny","46.5197","6.4772","359","Switzerland"
"Stetten","47.4014","8.3069","2201","Switzerland"
"Zeihen","47.4775","8.0847","1171","Switzerland"
"Vendlincourt","47.4500","7.1500","540","Switzerland"
"Wagenhausen","47.6597","8.8486","1694","Switzerland"
"Aarberg","47.0458","7.2764","4629","Switzerland"
"Payerne","46.8167","6.9333","9943","Switzerland"
"Hitzkirch","47.2250","8.2622","5201","Switzerland"
"Denges","46.5234","6.5390","1611","Switzerland"
"Donneloye","46.7500","6.7167","808","Switzerland"
"Rekingen","47.5706","8.3236","971","Switzerland"
"Meltingen","47.3889","7.5908","660","Switzerland"
"Rueggisberg","46.8218","7.4394","1791","Switzerland"
"Lohn","46.6514","9.4276","42","Switzerland"
"Loveresse","47.2431","7.2375","347","Switzerland"
"Steinmaur","47.4942","8.4478","3460","Switzerland"
"Faido","46.4833","8.8000","2903","Switzerland"
"Cama","46.2598","9.2076","560","Switzerland"
"Knonau","47.2247","8.4614","2301","Switzerland"
"Ponte Capriasca","46.0667","8.9500","1904","Switzerland"
"Henggart","47.5650","8.6856","2256","Switzerland"
"Laupersdorf","47.3150","7.6514","1813","Switzerland"
"Biere","46.5333","6.3333","1590","Switzerland"
"Fresens","46.8886","6.7478","252","Switzerland"
"Oftringen","47.3150","7.9236","13791","Switzerland"
"Erschwil","47.3733","7.5431","925","Switzerland"
"Pont-la-Ville","46.7000","7.1167","601","Switzerland"
"Les Enfers","47.2885","7.0471","133","Switzerland"
"Le Chatelard","46.6833","6.9833","372","Switzerland"
"Damphreux","47.4833","7.1000","176","Switzerland"
"Vechigen","46.9469","7.5625","5298","Switzerland"
"Avenches","46.8800","7.0398","4292","Switzerland"
"Gurtnellen","46.7381","8.6283","540","Switzerland"
"Gordola","46.1884","8.8638","4697","Switzerland"
"Quarten","47.0997","9.2333","2937","Switzerland"
"Cugy","46.5815","6.6437","2737","Switzerland"
"Bettlach","47.2039","7.4250","4910","Switzerland"
"Wald","47.4156","9.4903","877","Switzerland"
"Adelboden","46.4931","7.5586","3371","Switzerland"
"Meinier","46.2430","6.2351","2131","Switzerland"
"Altnau","47.6073","9.2612","2208","Switzerland"
"Buchs","47.1656","9.4711","12612","Switzerland"
"Bure","47.4384","6.9969","659","Switzerland"
"Les Clees","46.7333","6.4667","185","Switzerland"
"Walliswil bei Niederbipp","47.2536","7.6897","211","Switzerland"
"Prevonloup","46.7000","6.8833","184","Switzerland"
"Andiast","46.7831","9.1164","211","Switzerland"
"Sarmenstorf","47.3122","8.2500","2902","Switzerland"
"Bardonnex","46.1333","6.1000","2299","Switzerland"
"Yvonand","46.8000","6.7500","3427","Switzerland"
"Saint-Livres","46.5095","6.3856","689","Switzerland"
"Wiedlisbach","47.2520","7.6467","2377","Switzerland"
"Waldi","47.6333","9.0831","1059","Switzerland"
"Airolo","46.5333","8.6167","1527","Switzerland"
"Stettlen","46.9594","7.5236","3113","Switzerland"
"Penthereaz","46.6833","6.6000","422","Switzerland"
"Attinghausen","46.8611","8.6281","1725","Switzerland"
"Buron","47.2133","8.0947","2540","Switzerland"
"Surpierre","46.7444","6.8611","708","Switzerland"
"Horw","47.0164","8.3111","14243","Switzerland"
"Aigle","46.3173","6.9646","10131","Switzerland"
"Duggingen","47.4500","7.6000","1541","Switzerland"
"Bitsch","46.3333","8.0000","974","Switzerland"
"Dully","46.4333","6.3000","633","Switzerland"
"Corsier","46.2621","6.2283","2108","Switzerland"
"Unterentfelden","47.3692","8.0417","4155","Switzerland"
"Walenstadt","47.1234","9.3150","5679","Switzerland"
"Villarsel-sur-Marly","46.7667","7.1667","84","Switzerland"
"Rorschacherberg","47.4664","9.5000","7285","Switzerland"
"Boltigen","46.6291","7.3911","1262","Switzerland"
"Jaun","46.6167","7.2667","644","Switzerland"
"Villars-sous-Yens","46.5167","6.4333","608","Switzerland"
"Vich","46.4333","6.2500","1035","Switzerland"
"Messen","47.0914","7.4486","1480","Switzerland"
"Melano","45.9167","8.9833","1439","Switzerland"
"Widen","47.3700","8.3581","3698","Switzerland"
"Laufelfingen","47.3950","7.8559","1291","Switzerland"
"Rossemaison","47.3500","7.3500","634","Switzerland"
"Kaisten","47.5400","8.0458","2670","Switzerland"
"Erlenbach","47.3044","8.5922","5567","Switzerland"
"Mammern","47.6453","8.9156","654","Switzerland"
"Rohrbach","47.1372","7.8139","1480","Switzerland"
"Holderbank","47.4331","8.1681","1320","Switzerland"
"Heimiswil","47.0644","7.6597","1580","Switzerland"
"Erlach","47.0426","7.0974","1384","Switzerland"
"Flond","46.7664","9.1497","208","Switzerland"
"Oberwil bei Buren","47.1303","7.4069","875","Switzerland"
"Prevondavaux","46.7278","6.7933","65","Switzerland"
"Tagerig","47.4039","8.2806","1511","Switzerland"
"Schupfen","47.0358","7.3747","3732","Switzerland"
"Corban","47.3500","7.4667","481","Switzerland"
"Arch","47.1679","7.4326","1592","Switzerland"
"Saules","47.2458","7.2194","151","Switzerland"
"Oberrieden","47.2778","8.5781","5083","Switzerland"
"Stetten","47.7331","8.6500","1351","Switzerland"
"Trachselwald","47.0169","7.7379","960","Switzerland"
"Buch am Irchel","47.5489","8.6219","970","Switzerland"
"Belprahon","47.2858","7.4069","294","Switzerland"
"Zumikon","47.3328","8.6239","5120","Switzerland"
"Forel","46.5379","6.7629","2078","Switzerland"
"Huntwangen","47.5961","8.4939","1020","Switzerland"
"Hittnau","47.3700","8.8239","3613","Switzerland"
"Treyvaux","46.7333","7.1333","1470","Switzerland"
"Salenstein","47.6736","9.0497","1323","Switzerland"
"Silvaplauna","46.4667","9.7997","1111","Switzerland"
"Isone","46.1335","9.0145","398","Switzerland"
"Schwarzhausern","47.2539","7.7667","522","Switzerland"
"Brunegg","47.4194","8.2178","847","Switzerland"
"Dietwil","47.1488","8.3920","1336","Switzerland"
"Epalinges","46.5500","6.6667","9611","Switzerland"
"La Sagne","47.0388","6.7988","1016","Switzerland"
"Brislach","47.4188","7.5428","1652","Switzerland"
"Burgdorf","47.0567","7.6264","16280","Switzerland"
"Beggingen","47.7667","8.5331","476","Switzerland"
"Oberburen","47.4500","9.1664","4447","Switzerland"
"Courtepin","46.8667","7.1167","5451","Switzerland"
"Kappel am Albis","47.2286","8.5272","1124","Switzerland"
"Baltschieder","46.3759","7.8806","1328","Switzerland"
"Schafisheim","47.3789","8.1431","2997","Switzerland"
"Rothenfluh","47.4619","7.9161","766","Switzerland"
"Thonex","46.2000","6.2167","14122","Switzerland"
"Vorderthal","47.1203","8.9008","1015","Switzerland"
"Confignon","46.1834","6.0833","4627","Switzerland"
"Ruttenen","47.2303","7.5297","1462","Switzerland"
"Rodersdorf","47.4806","7.4569","1310","Switzerland"
"Medels","46.6331","8.8331","362","Switzerland"
"Wahlen","47.4028","7.5164","1462","Switzerland"
"Berg","47.4864","9.4072","850","Switzerland"
"Unterseen","46.6872","7.8497","5750","Switzerland"
"Pampigny","46.5802","6.4266","1114","Switzerland"
"Bogis-Bossey","46.3500","6.1667","888","Switzerland"
"Unterschachen","46.8639","8.7706","696","Switzerland"
"Merenschwand","47.2622","8.3775","3549","Switzerland"
"Sankt Margrethen","47.4497","9.6331","5886","Switzerland"
"Zeglingen","47.4181","7.9061","508","Switzerland"
"Arni","47.3192","8.4222","1843","Switzerland"
"Andwil","47.4406","9.2810","2014","Switzerland"
"Autigny","46.7398","7.0275","796","Switzerland"
"Fully","46.1333","7.1167","8759","Switzerland"
"Hallwil","47.3303","8.1786","875","Switzerland"
"Le Landeron","47.0554","7.0691","4645","Switzerland"
"Menieres","46.7822","6.8808","439","Switzerland"
"Dietlikon","47.4200","8.6192","7685","Switzerland"
"Morbio Inferiore","45.8500","9.0167","4575","Switzerland"
"Collonges","46.1667","7.0333","798","Switzerland"
"Celigny","46.3500","6.2000","799","Switzerland"
"Auswil","47.1375","7.8333","435","Switzerland"
"Kippel","46.3833","7.7667","325","Switzerland"
"Grosswangen","47.1331","8.0500","3241","Switzerland"
"Dornach","47.4789","7.6181","6778","Switzerland"
"Oberbuchsiten","47.3108","7.7667","2296","Switzerland"
"Stalden","46.2333","7.8667","1086","Switzerland"
"Rickenbach","47.4846","7.8506","596","Switzerland"
"Estavayer-le-Lac","46.8500","6.8472","9712","Switzerland"
"Schlossrued","47.2914","8.0914","838","Switzerland"
"Saas-Fee","46.1097","7.9292","1597","Switzerland"
"Oberriet","47.3164","9.5664","8878","Switzerland"
"Moudon","46.6687","6.7974","6135","Switzerland"
"Meinisberg","47.1594","7.3478","1303","Switzerland"
"Bozen","47.4972","8.0847","745","Switzerland"
"Gansingen","47.5442","8.1347","1034","Switzerland"
"Bursins","46.4500","6.2833","755","Switzerland"
"Olten","47.3531","7.9078","17133","Switzerland"
"Strengelbach","47.2817","7.9292","4893","Switzerland"
"Chur","46.8521","9.5297","35038","Switzerland"
"Trimbach","47.3636","7.9000","6543","Switzerland"
"Aadorf","47.4939","8.8975","9036","Switzerland"
"Teufenthal","47.3317","8.1167","1672","Switzerland"
"Ballwil","47.1497","8.3164","2786","Switzerland"
"Schleitheim","47.7493","8.4851","1681","Switzerland"
"Cugy","46.8147","6.8908","1752","Switzerland"
"Oeschgen","47.5219","8.0181","1026","Switzerland"
"Uitikon","47.3719","8.4531","4239","Switzerland"
"Soral","46.1434","6.0427","853","Switzerland"
"Boniswil","47.3178","8.1858","1427","Switzerland"
"Ueken","47.4858","8.0497","903","Switzerland"
"Wisen SO","47.3942","7.8875","416","Switzerland"
"Raperswilen","47.6368","9.0468","414","Switzerland"
"Lovatens","46.6833","6.8667","146","Switzerland"
"Wald","47.2753","8.9144","9758","Switzerland"
"Arosa","46.7831","9.6831","3185","Switzerland"
"Brugg","47.4864","8.2083","11129","Switzerland"
"Villarzel","46.7500","6.9167","446","Switzerland"
"Gross Hochstetten","46.8997","7.6333","4165","Switzerland"
"Brot-Plamboz","46.9848","6.7532","270","Switzerland"
"Hinterrhein","46.5331","9.1997","61","Switzerland"
"Kerns","46.9025","8.2761","6337","Switzerland"
"Saint George","46.5167","6.2667","1032","Switzerland"
"Hermenches","46.6333","6.7667","364","Switzerland"
"Haldenstein","46.8786","9.5269","1033","Switzerland"
"Brienzwiler","46.7514","8.1022","478","Switzerland"
"Fiez","46.8513","6.5780","448","Switzerland"
"Lichtensteig","47.3164","9.0831","1870","Switzerland"
"Trey","46.7667","6.9167","267","Switzerland"
"Schonengrund","47.3264","9.2267","533","Switzerland"
"Fulenbach","47.2775","7.8361","1776","Switzerland"
"Lommiswil","47.2217","7.4711","1535","Switzerland"
"Rickenbach","47.5525","8.7958","2655","Switzerland"
"Ruegsbach","47.0164","7.6831","3258","Switzerland"
"Winznau","47.3656","7.9333","1919","Switzerland"
"Bellevue","46.2500","6.1500","3299","Switzerland"
"Wohlenschwil","47.4115","8.2590","1565","Switzerland"
"Zaziwil","46.9017","7.6617","1595","Switzerland"
"Gletterens","46.8950","6.9375","1070","Switzerland"
"Poliez-Pittet","46.6333","6.6833","847","Switzerland"
"Rechthalten","46.7634","7.2460","1103","Switzerland"
"Scharans","46.7180","9.4589","789","Switzerland"
"Sumvitg","46.7164","8.9331","1158","Switzerland"
"Greppen","47.0550","8.4294","1118","Switzerland"
"Birr","47.4358","8.2028","4354","Switzerland"
"Saint Martin","46.5833","6.8667","1005","Switzerland"
"Benken","47.6542","8.6539","857","Switzerland"
"Biberstein","47.4141","8.0818","1571","Switzerland"
"Samnaun","46.9522","10.3665","773","Switzerland"
"Niederonz","47.1836","7.6894","1670","Switzerland"
"Kloten","47.4481","8.5828","19362","Switzerland"
"Burglen","47.5497","9.1497","3841","Switzerland"
"Wohlen","47.3506","8.2778","16078","Switzerland"
"Stans","46.9594","8.3667","8393","Switzerland"
"Uttwil","47.5844","9.3410","1857","Switzerland"
"Dittingen","47.4406","7.4972","729","Switzerland"
"Lindau","47.4431","8.6719","5621","Switzerland"
"Stansstad","46.9803","8.3389","4576","Switzerland"
"Chatonnaye","46.7500","6.9333","846","Switzerland"
"Alle","47.4257","7.1291","1849","Switzerland"
"Kaiseraugst","47.5414","7.7278","5576","Switzerland"
"Riggisberg","46.8094","7.4781","2553","Switzerland"
"Wil","47.4664","9.0497","23768","Switzerland"
"Seengen","47.3275","8.2083","3994","Switzerland"
"Birsfelden","47.5531","7.6231","10299","Switzerland"
"Orpund","47.1389","7.3064","2799","Switzerland"
"Alpnach","46.9499","8.2309","6031","Switzerland"
"Bussy-sur-Moudon","46.6833","6.8167","214","Switzerland"
"Crissier","46.5500","6.5833","7930","Switzerland"
"Ascona","46.1500","8.7667","5534","Switzerland"
"Evionnaz","46.1792","7.0225","1265","Switzerland"
"Amsoldingen","46.7289","7.5873","812","Switzerland"
"Sant' Antonino","46.1500","8.9833","2525","Switzerland"
"Uetendorf","46.7664","7.5667","5892","Switzerland"
"Premier","46.7041","6.4456","214","Switzerland"
"Oberegg","47.4222","9.5533","1916","Switzerland"
"Wurenlingen","47.5322","8.2566","4701","Switzerland"
"Pfungen","47.5156","8.6469","3845","Switzerland"
"Gollion","46.5833","6.5167","941","Switzerland"
"Flumenthal","47.2372","7.5986","976","Switzerland"
"Wittnau","47.4811","7.9778","1309","Switzerland"
"Sachseln","46.8678","8.2386","5146","Switzerland"
"Obermumpf","47.5317","7.9375","1074","Switzerland"
"Wilchingen","47.6664","8.4667","1737","Switzerland"
"Vufflens-le-Chateau","46.5258","6.4667","885","Switzerland"
"Chavannes-le-Veyron","46.6000","6.4500","142","Switzerland"
"Urdorf","47.3867","8.4278","9768","Switzerland"
"Valeyres-sous-Ursins","46.7500","6.6500","233","Switzerland"
"Stadel bei Niederglatt","47.5294","8.4664","2271","Switzerland"
"Wolfhalden","47.4539","9.5508","1837","Switzerland"
"Oberuzwil","47.4294","9.1236","6412","Switzerland"
"Brittnau","47.2608","7.9472","3954","Switzerland"
"Forel-sur-Lucens","46.7333","6.8167","153","Switzerland"
"Wittenbach","47.4667","9.3795","9691","Switzerland"
"Schwanden","47.1289","7.3053","661","Switzerland"
"Troistorrents","46.2333","6.9167","4683","Switzerland"
"Alterswil","46.7926","7.2638","2028","Switzerland"
"Koniz","46.9250","7.4153","41507","Switzerland"
"Endingen","47.5386","8.2903","2574","Switzerland"
"Nufenen","46.5400","9.2386","139","Switzerland"
"Chateau-d'Oex","46.4667","7.1167","3459","Switzerland"
"Biel/Bienne","47.1372","7.2472","54456","Switzerland"
"Egnach","47.5497","9.3833","4711","Switzerland"
"Erlinsbach","47.4067","8.0069","3556","Switzerland"
"Uezwil","47.3164","8.2750","485","Switzerland"
"Grandfontaine","47.3833","6.9333","395","Switzerland"
"Nottwil","47.1347","8.1369","3857","Switzerland"
"Choulex","46.2263","6.2238","1179","Switzerland"
"Losone","46.1689","8.7421","6701","Switzerland"
"Randa","46.1000","7.7833","434","Switzerland"
"Adliswil","47.3122","8.5256","18731","Switzerland"
"Buren","47.4511","7.6708","1042","Switzerland"
"Seelisberg","46.9756","8.5861","661","Switzerland"
"Engelberg","46.8206","8.4028","4181","Switzerland"
"Crassier","46.3667","6.1667","1177","Switzerland"
"Gelterkinden","47.4653","7.8528","6200","Switzerland"
"Villaz-Saint-Pierre","46.7167","6.9500","1305","Switzerland"
"Sufers","46.5703","9.3664","144","Switzerland"
"Linescio","46.3000","8.5833","48","Switzerland"
"Lutschenthal","46.6331","7.9497","216","Switzerland"
"Le Mouret","46.7500","7.1667","3153","Switzerland"
"Conthey","46.2725","7.2548","8691","Switzerland"
"Riva San Vitale","45.9000","8.9667","2646","Switzerland"
"Uster","47.3492","8.7192","34442","Switzerland"
"Brig-Glis","46.3159","7.9876","13109","Switzerland"
"Lengwil","47.6164","9.1831","1734","Switzerland"
"Hinwil","47.3033","8.8444","11179","Switzerland"
"Denens","46.5167","6.4500","747","Switzerland"
"Honau","47.1331","8.4061","395","Switzerland"
"Lampenberg","47.4247","7.7584","499","Switzerland"
"Orbe","46.7245","6.5322","6987","Switzerland"
"Kandergrund","46.5362","7.6769","805","Switzerland"
"Courrendlin","47.3333","7.3667","2995","Switzerland"
"Oberiberg","47.0394","8.7819","902","Switzerland"
"Schwerzenbach","47.3818","8.6559","5088","Switzerland"
"Sursee","47.1742","8.1081","9900","Switzerland"
"Domat/Ems","46.8198","9.4545","8037","Switzerland"
"Langnau am Albis","47.2894","8.5414","7500","Switzerland"
"L'Isle","46.6167","6.4167","1001","Switzerland"
"Roggenburg","47.4342","7.3407","276","Switzerland"
"Champvent","46.7830","6.5719","685","Switzerland"
"Cerentino","46.3000","8.5333","45","Switzerland"
"Nods","47.1153","7.0819","765","Switzerland"
"Morrens","46.5833","6.6333","1079","Switzerland"
"Treycovagnes","46.7667","6.6000","477","Switzerland"
"Rheinfelden","47.5539","7.7958","13337","Switzerland"
"Montagny-pres-Yverdon","46.7833","6.6167","737","Switzerland"
"Stabio","45.8500","8.9333","4591","Switzerland"
"Leuzigen","47.1761","7.4597","1259","Switzerland"
"Teuffenthal","46.7658","7.7126","174","Switzerland"
"Burg im Leimental","47.4575","7.4424","263","Switzerland"
"Colombier","46.9667","6.8667","5547","Switzerland"
"Vaulruz","46.6167","6.9833","1063","Switzerland"
"Ingenbohl","47.0028","8.6117","8912","Switzerland"
"Staufen","47.3833","8.1667","3336","Switzerland"
"Halten","47.1682","7.6120","864","Switzerland"
"Muhleberg","46.9497","7.2667","2985","Switzerland"
"Bannwil","47.2372","7.7319","669","Switzerland"
"Tuggen","47.2031","8.9456","3309","Switzerland"
"Islisberg","47.3231","8.4394","609","Switzerland"
"Mesocco","46.3915","9.2374","1347","Switzerland"
"Kleinlutzel","47.4278","7.4167","1261","Switzerland"
"Les Montets","46.8164","6.8669","1474","Switzerland"
"Glattfelden","47.5608","8.4994","5189","Switzerland"
"Villeret","47.1594","7.0194","925","Switzerland"
"Rebevelier","47.2931","7.1931","41","Switzerland"
"Bellmund","47.1029","7.2432","1689","Switzerland"
"Inwil","47.1219","8.3497","2557","Switzerland"
"Degersheim","47.3667","9.1997","4129","Switzerland"
"Blumenstein","46.7331","7.5164","1246","Switzerland"
"Wilderswil","46.6664","7.8667","2655","Switzerland"
"Genthod","46.2667","6.1500","2782","Switzerland"
"Belfaux","46.8287","7.0950","3281","Switzerland"
"Betschwanden","46.9464","9.0278","191","Switzerland"
"Sankt Ursen","46.7869","7.2243","1345","Switzerland"
"Blauen","47.4497","7.5167","691","Switzerland"
"Niederwil","47.3803","8.2972","2830","Switzerland"
"Hausen am Albis","47.2447","8.5344","3646","Switzerland"
"Rossiniere","46.4667","7.0833","546","Switzerland"
"Vallorbe","46.7167","6.3833","3837","Switzerland"
"Allschwil","47.5508","7.5358","21150","Switzerland"
"Lully","46.8333","6.8447","1141","Switzerland"
"Kallnach","47.0222","7.2361","1918","Switzerland"
"Eysins","46.3833","6.2000","1608","Switzerland"
"Sevaz","46.8392","6.8750","289","Switzerland"
"Danikon","47.4469","8.4069","1869","Switzerland"
"Buonas","47.1422","8.4559","753","Switzerland"
"Grindelwald","46.6256","8.0333","3801","Switzerland"
"Elgg","47.4914","8.8645","4903","Switzerland"
"Eggerberg","46.3000","7.8833","335","Switzerland"
"Boussens","46.6000","6.5833","969","Switzerland"
"Baar","47.1956","8.5264","24322","Switzerland"
"Moiry","46.6500","6.4500","310","Switzerland"
"Pleigne","47.4073","7.2898","355","Switzerland"
"Mathod","46.7667","6.5667","612","Switzerland"
"Le Grand-Saconnex","46.2333","6.1167","12162","Switzerland"
"Gais","47.3606","9.4511","3086","Switzerland"
"Regensdorf","47.4383","8.4744","18253","Switzerland"
"Buhlhof","47.0664","7.2500","464","Switzerland"
"Dardagny","46.1952","5.9946","1864","Switzerland"
"Lostorf","47.3844","7.9500","3952","Switzerland"
"Weinfelden","47.5698","9.1120","11534","Switzerland"
"Tramelan","47.2233","7.1014","4564","Switzerland"
"Entlebuch","46.9928","8.0631","3315","Switzerland"
"Vrin","46.6556","9.0983","466","Switzerland"
"Gravesano","46.0500","8.9167","1386","Switzerland"
"Brusino Arsizio","45.9282","8.9387","470","Switzerland"
"Rebeuvelier","47.3333","7.4167","384","Switzerland"
"Schwarzenburg","46.8167","7.3333","6829","Switzerland"
"Ermensee","47.2331","8.2333","984","Switzerland"
"Homburg","47.6333","9.0164","1543","Switzerland"
"Dattlikon","47.5261","8.6253","783","Switzerland"
"Vico Morcote","45.9333","8.9167","405","Switzerland"
"Kappelen","47.0608","7.2681","1419","Switzerland"
"Hohentannen","47.5000","9.2164","586","Switzerland"
"Wynau","47.2608","7.8111","1629","Switzerland"
"Castel San Pietro","45.8823","9.0153","2159","Switzerland"
