"city","lat","lng","population","country"
"Zhborivtsi","48.5025","22.7497","335","Ukraine"
"Dolynivka","48.0846","34.9687","81","Ukraine"
"Veremiyivka","48.5820","36.6956","188","Ukraine"
"Nadezhdivka","48.0102","33.5735","853","Ukraine"
"Nadezhdivka","48.7703","35.6239","354","Ukraine"
"Nadezhdivka","48.7378","36.9697","75","Ukraine"
"Verby","46.9119","34.6264","730","Ukraine"
"Yavdotivka","47.6895","33.0343","332","Ukraine"
"Verbivka","49.4883","36.8297","3515","Ukraine"
"Izluchyste","47.9309","33.7704","206","Ukraine"
"Babychi","49.8366","33.9961","12","Ukraine"
"Babychi","49.6687","34.1719","6","Ukraine"
"Pryhid'","48.2608","23.7417","663","Ukraine"
"Rokytna Sloboda","50.9306","29.9628","71","Ukraine"
"Richyshche","50.6286","25.8042","92","Ukraine"
"Machukhy","49.5296","34.4297","3337","Ukraine"
"Dubova","49.2039","27.9172","643","Ukraine"
"Chervonyy Ranok","47.9126","33.0985","114","Ukraine"
"Novopillia","47.9539","33.5278","4037","Ukraine"
"Sukhyy","48.5822","23.4256","395","Ukraine"
"Sukhyy","48.9492","22.7900","187","Ukraine"
"Solontsi","49.1207","33.6565","147","Ukraine"
"Dubrivka","49.5144","23.1142","725","Ukraine"
"Mostyshche","49.6800","24.3050","57","Ukraine"
"Samushyn","48.6011","26.0539","382","Ukraine"
"Lozova","48.6728","28.0108","1369","Ukraine"
"Lozova","49.5156","27.8375","245","Ukraine"
"Krasnoilsk","48.0167","25.5833","10351","Ukraine"
"Miziakiv","49.3944","28.3811","815","Ukraine"
"Rokytne","49.9442","23.9081","266","Ukraine"
"Andriyivka","48.8411","28.0467","332","Ukraine"
"Stepkivka","48.6617","30.3064","435","Ukraine"
"Vidrada","47.8689","29.5503","43","Ukraine"
"Malyye Nagortsy","49.9994","24.3883","374","Ukraine"
"Mykhailivka","48.3853","26.6072","568","Ukraine"
"Mykhailivka","49.9242","32.1781","1096","Ukraine"
"Shakhtarsk","48.0333","38.4833","49482","Ukraine"
"Berehy","48.5575","23.7122","211","Ukraine"
"Dibrivske","50.7008","27.4689","34","Ukraine"
"Ust-Chorna","48.3192","23.9389","1560","Ukraine"
"Uzhhorod","48.6239","22.2950","114897","Ukraine"
"Peredivane","48.7078","25.6444","286","Ukraine"
"Berestechko","50.3500","25.1167","1711","Ukraine"
"Novopavlivka","48.8906","37.1526","599","Ukraine"
"Chabanove","48.1814","33.4738","266","Ukraine"
"Buymerivka","50.2811","34.8105","42","Ukraine"
"Dolynka","47.4727","35.5327","387","Ukraine"
"Bobrynets","48.0578","32.1581","10898","Ukraine"
"Zahrunivka","50.1027","34.1385","418","Ukraine"
"Pasytsely","47.8364","29.6500","1369","Ukraine"
"Polianivka","46.7432","35.0835","604","Ukraine"
"Adamivka","49.4356","29.3139","638","Ukraine"
"Adamivka","48.8639","29.5144","300","Ukraine"
"Adamivka","51.6222","24.6703","282","Ukraine"
"Lozivka","49.7046","34.3090","256","Ukraine"
"Bilopillya","51.1532","34.3025","15215","Ukraine"
"Lypove","48.7160","33.8250","188","Ukraine"
"Forostovychi","52.0189","33.1133","10","Ukraine"
"Tomashpil","48.5471","28.5157","5527","Ukraine"
"Novodarivka","47.9664","39.3789","160","Ukraine"
"Kozyary","49.6386","26.0833","206","Ukraine"
"Stebni","48.0992","24.9839","728","Ukraine"
"Podverbtse","48.8017","25.2308","755","Ukraine"
"Biloberizka","48.1656","25.0469","1234","Ukraine"
"Holovetsko","49.3083","22.8906","1170","Ukraine"
"Preobrazhenivka","48.6525","36.3511","97","Ukraine"
"Maiaky","48.6047","28.7264","863","Ukraine"
"Ostapkivtsi","49.3125","26.5267","544","Ukraine"
"Hozhuly","49.6056","34.4479","2947","Ukraine"
"Volya-Kovel's'ka","51.1947","24.7028","792","Ukraine"
"Novolymarivka","49.2767","39.5994","819","Ukraine"
"Chaplia","49.4700","27.5847","276","Ukraine"
"Zelenopil","47.5510","36.8497","355","Ukraine"
"Pelekhivshchyna","49.3859","33.0338","79","Ukraine"
"Yasna Poliana","47.0624","34.8324","210","Ukraine"
"Yasna Poliana","47.3795","35.1205","88","Ukraine"
"Dmytrivka","46.5711","34.2892","86","Ukraine"
"Rachivka","46.3903","33.4044","78","Ukraine"
"Yahidne","48.4562","35.3384","312","Ukraine"
"Melnyky","51.4153","24.4456","57","Ukraine"
"Malinuvka","49.7064","23.8314","182","Ukraine"
"Horodske","50.3775","29.1689","406","Ukraine"
"Berestivka","49.2283","28.9606","445","Ukraine"
"Polohy","50.3355","35.0013","707","Ukraine"
"Yavornytske","48.0376","34.8660","106","Ukraine"
"Sniatyn","48.4500","25.5667","9942","Ukraine"
"Zavydo-Borzenka","48.5114","36.9178","208","Ukraine"
"Mykolaivka","47.5322","30.2489","1423","Ukraine"
"Mykolaivka","50.9422","34.3820","4210","Ukraine"
"Skazintsy","48.5125","27.9014","484","Ukraine"
"Shatsk","51.4878","23.9297","5320","Ukraine"
"Ostriv","50.9867","25.5464","228","Ukraine"
"Evhenivka","47.6711","37.0864","590","Ukraine"
"Luka","50.4602","33.2907","1480","Ukraine"
"Voloshyne","49.0983","33.6591","22","Ukraine"
"Heraskivka","49.6064","39.5417","356","Ukraine"
"Zakomaria","49.9417","24.7622","275","Ukraine"
"Zelena","48.3628","26.7250","1980","Ukraine"
"Saky","45.1336","33.5772","24885","Ukraine"
"Boromlya","50.6204","34.9723","4490","Ukraine"
"Raiduzhne","48.6000","33.9073","734","Ukraine"
"Ukrainsk","48.1000","37.3667","11824","Ukraine"
"Harasymivka","48.8860","35.4113","262","Ukraine"
"Harasymivka","47.8804","36.1718","80","Ukraine"
"Ruda","51.2292","24.2508","586","Ukraine"
"Ruda","50.9939","24.3150","62","Ukraine"
"Tokariv","50.5283","27.3278","805","Ukraine"
"Kuzmenkove","50.6733","33.6592","4","Ukraine"
"Chernyshi","49.8581","31.3144","209","Ukraine"
"Hryhorivka","47.8689","38.2603","156","Ukraine"
"Podilsk","47.7419","29.5350","40155","Ukraine"
"Hryhorivka","48.0130","34.7593","328","Ukraine"
"Morozivske","48.6427","35.9198","396","Ukraine"
"Morozivske","48.3732","35.4251","62","Ukraine"
"Yasne","51.3319","24.1703","145","Ukraine"
"Pulyny","50.4664","28.2778","5411","Ukraine"
"Krasne","48.9439","23.1639","485","Ukraine"
"Darivka","46.1967","33.1878","200","Ukraine"
"Kazankivka","47.6971","33.0786","6","Ukraine"
"Lazurne","46.0808","32.5200","3140","Ukraine"
"Chervonka","51.3717","28.1214","55","Ukraine"
"Berehove","50.7253","27.5353","122","Ukraine"
"Borzhava","48.1564","22.7217","1502","Ukraine"
"Novodvirske","47.8394","38.1400","26","Ukraine"
"Kaplunivka","49.7227","34.2880","11","Ukraine"
"Borove","50.2581","24.2053","464","Ukraine"
"Maiak","48.2513","34.6693","384","Ukraine"
"Maiak","48.0333","33.7064","212","Ukraine"
"Hrushivtsi","48.5478","26.8214","1327","Ukraine"
"Durbaily","47.1631","29.9197","15","Ukraine"
"Valky","49.8386","35.6217","9235","Ukraine"
"Ul'yanovka","49.2683","29.0900","107","Ukraine"
"Novyy Zahoriv","50.6661","24.6058","529","Ukraine"
"Kozlianychi","51.7253","32.5681","369","Ukraine"
"Sanatorne","44.3983","33.8131","229","Ukraine"
"Arsenivka","49.9905","34.2905","180","Ukraine"
"Prosyana","48.1174","36.3743","4907","Ukraine"
"Zhuzhelyany","50.3997","24.0472","676","Ukraine"
"Nekhvoroshch","49.9633","28.9561","1297","Ukraine"
"Derno","50.7728","25.7458","1529","Ukraine"
"Svesa","51.9481","33.9367","6644","Ukraine"
"Bilosaraiska Kosa","46.9028","37.3436","901","Ukraine"
"Sukhyy Yar","49.4883","37.3111","153","Ukraine"
"Kosmyryn","48.8858","25.2457","948","Ukraine"
"Kharkiv","50.0000","36.2292","1446107","Ukraine"
"Zlatoustivka","47.8818","33.7379","916","Ukraine"
"Andriivka","47.1026","36.5871","2755","Ukraine"
"Vyshnopil","48.7528","30.5972","864","Ukraine"
"Ploskyy Potik","48.6453","22.8936","269","Ukraine"
"Boratyn","50.2878","25.3356","464","Ukraine"
"Borivs'ke","48.7236","28.1344","152","Ukraine"
"Bochanytsya","50.5286","26.6953","1038","Ukraine"
"Plavske","46.5050","34.8681","835","Ukraine"
"Vyshneve","44.7324","33.6064","747","Ukraine"
"Shamraivka","49.7719","29.8328","1877","Ukraine"
"Tsybulkivka","48.8532","34.4156","381","Ukraine"
"Aneta","50.5728","27.5181","215","Ukraine"
"Sheludkivka","49.6778","36.5433","2746","Ukraine"
"Cherepashyntsi","49.5325","28.5928","1571","Ukraine"
"Donbrova","48.7636","24.5036","240","Ukraine"
"Makukhivka","49.5939","34.6315","813","Ukraine"
"Vyshkovo","48.0581","23.4164","8288","Ukraine"
"Zarichne","47.8538","36.1848","14","Ukraine"
"Lipnik","50.1189","24.2361","90","Ukraine"
"Zaytsi","50.2982","34.3206","9","Ukraine"
"Sanzharivka","48.4367","38.4244","8","Ukraine"
"Kalynivka","50.2256","30.2319","5198","Ukraine"
"Kalynivka","50.5592","30.8211","3806","Ukraine"
"Petro-Hannivka","50.0800","34.4411","3","Ukraine"
"Bilashiv","50.3528","26.4031","454","Ukraine"
"Novosamarka","47.5081","29.5244","1005","Ukraine"
"Zhukiv","49.7133","24.8000","507","Ukraine"
"Zoryane","48.4985","36.8260","1021","Ukraine"
"Vyla-Yaruzki","48.4450","28.0400","514","Ukraine"
"Klitenka","49.7758","28.3514","352","Ukraine"
"Stepanky","48.7736","27.8569","462","Ukraine"
"Stepanky","49.4864","29.0769","341","Ukraine"
"Myroliubivka","48.2586","28.8386","1402","Ukraine"
"Olyka","50.7167","25.8167","3079","Ukraine"
"Vasylkove","47.8090","35.8574","105","Ukraine"
"Pryvitne","50.0094","32.0231","310","Ukraine"
"Bukachivtsi","49.2583","24.4972","1221","Ukraine"
"Chyhrynivka","48.2824","33.6941","143","Ukraine"
"Baluchyn","49.8542","24.5619","662","Ukraine"
"Bortnyky","48.7869","28.7717","870","Ukraine"
"Zvenigorod","48.5456","26.2821","269","Ukraine"
"Vynohradivka","48.5500","33.7298","509","Ukraine"
"Vynohradivka","49.0261","34.9763","363","Ukraine"
"Ternopil","49.5667","25.6000","218653","Ukraine"
"Holubynka","44.5972","33.9153","1433","Ukraine"
"Zelena Dibrova","47.8413","35.9619","104","Ukraine"
"Dovhe","48.3675","23.2869","6790","Ukraine"
"Trostyanka","50.8747","24.1922","174","Ukraine"
"Andriivka","50.3606","24.4358","326","Ukraine"
"Andriivka","44.8161","33.5635","1498","Ukraine"
"Ivanopil","49.8586","28.2156","3154","Ukraine"
"Slobodka","48.7533","27.2994","548","Ukraine"
"Kytaihorod","48.9667","29.4969","1236","Ukraine"
"Dvorets","50.0531","26.5761","580","Ukraine"
"Onut","48.5672","26.0500","624","Ukraine"
"Olenivka","47.9536","29.5017","679","Ukraine"
"Zelene","48.0508","24.7561","815","Ukraine"
"Dibrova","49.9208","34.6080","8","Ukraine"
"Oleksandrivka","47.4889","30.0494","422","Ukraine"
"Oleksandrivka","50.9352","34.2294","142","Ukraine"
"Haliyka","50.0223","34.3820","54","Ukraine"
"Ukrainka","50.1500","30.7519","16056","Ukraine"
"Zelenyi Stav","47.7214","33.0633","141","Ukraine"
"Kononivka","50.1917","32.0919","841","Ukraine"
"Parnyts'ke","50.4240","33.2097","9","Ukraine"
"Stavok","50.7772","25.7847","351","Ukraine"
"Stavok","51.1100","24.4881","126","Ukraine"
"Bilche","49.4100","23.8294","1684","Ukraine"
"Poliana","48.2325","33.9487","58","Ukraine"
"Perechyn","48.7333","22.4667","6683","Ukraine"
"Makiyivka","49.2200","37.9836","819","Ukraine"
"Voskresenivka","48.9171","35.2602","150","Ukraine"
"Trudove","49.5753","23.7903","43","Ukraine"
"Bohdanivske","49.8833","37.8389","969","Ukraine"
"Horodenka","50.3678","28.8533","51","Ukraine"
"Dovzhok","48.2392","28.5261","2013","Ukraine"
"Dovzhok","48.7358","28.2289","929","Ukraine"
"Dovzhok","49.3744","29.1339","388","Ukraine"
"Dovzhok","48.8325","28.9672","252","Ukraine"
"Yavtukhy","49.1135","27.4773","661","Ukraine"
"Nesterenky","49.7227","34.7445","369","Ukraine"
"Kozyrshchyna","49.0354","35.3016","542","Ukraine"
"Shestovytsia","51.3850","31.1919","688","Ukraine"
"Matrosove","48.1469","34.4693","53","Ukraine"
"Pershe Travnya","48.3151","35.1751","415","Ukraine"
"Pershe Travnya","48.1005","34.9479","165","Ukraine"
"V'yazivka","49.3257","33.7912","39","Ukraine"
"Inhulets","47.7298","33.2536","627","Ukraine"
"Inhulets","47.9856","33.2669","331","Ukraine"
"Kyrylivka","47.6586","29.8119","8","Ukraine"
"Kamianets-Podilskyi","48.6806","26.5806","100462","Ukraine"
"Ulianivka","48.3584","34.3029","140","Ukraine"
"Ulianivka","47.7726","34.0877","131","Ukraine"
"Fedorivka","50.0703","36.6933","216","Ukraine"
"Fedorivka","46.8006","32.8061","1222","Ukraine"
"Hruzke","48.7461","29.6117","749","Ukraine"
"Zorya","50.5533","30.9472","271","Ukraine"
"Lyman","48.9861","37.8111","22315","Ukraine"
"Shchaslyve","48.5661","33.3275","734","Ukraine"
"Chyzhi","50.4824","33.4610","8","Ukraine"
"Liubarka","47.4175","32.1986","11","Ukraine"
"Honcharove","49.2350","39.4300","4","Ukraine"
"Svalyava","48.5472","22.9861","17234","Ukraine"
"Khroly","49.9014","36.3687","2687","Ukraine"
"Novochornomoria","46.2011","32.2581","314","Ukraine"
"Poliany","49.7428","24.9942","793","Ukraine"
"Rosokhovatets","49.5572","26.0581","331","Ukraine"
"Zavadivka","49.1431","23.0633","929","Ukraine"
"Vidnozhyne","47.3266","35.0285","567","Ukraine"
"Dymer","50.7872","30.3117","5582","Ukraine"
"Shcherbivtsi","48.8281","27.3856","355","Ukraine"
"Buzovytsia","48.5014","26.9275","1642","Ukraine"
"Staryy Skalat","49.4639","25.9822","1081","Ukraine"
"Deynekivka","49.8195","34.2901","114","Ukraine"
"Metanivka","48.5508","29.5514","947","Ukraine"
"Krute","48.1122","34.6958","124","Ukraine"
"Nyzhnie","49.0181","22.9986","547","Ukraine"
"Bobly","51.0067","24.4969","956","Ukraine"
"Pavlivshchyna","49.8903","32.1756","340","Ukraine"
"Odarivka","48.3247","34.4050","389","Ukraine"
"Anysiv","51.4356","31.3611","1441","Ukraine"
"Illiashivka","49.6606","27.4103","525","Ukraine"
"Bobryk","50.3736","29.0725","66","Ukraine"
"Mukacheve","48.4414","22.7136","86257","Ukraine"
"Slobozhanske","48.5342","35.0749","13221","Ukraine"
"Kalush","49.0442","24.3597","66406","Ukraine"
"Poltavoboholyubivka","48.3885","33.5449","51","Ukraine"
"Kashperivka","50.2714","27.5281","1052","Ukraine"
"Sonyachne","48.4078","28.8303","135","Ukraine"
"Rozhychna","49.1864","29.6144","408","Ukraine"
"Rubanka","49.6614","28.7861","141","Ukraine"
"Klenovyi","48.1189","39.4564","2070","Ukraine"
"Bene","48.1664","22.7569","1409","Ukraine"
"Stolpin","50.0758","24.7475","227","Ukraine"
"Skosohorivka","50.0472","35.6578","74","Ukraine"
"Pasat","47.9706","29.8017","703","Ukraine"
"Kropyvnya","48.6972","28.1403","83","Ukraine"
"Ulanove","51.7576","34.3082","820","Ukraine"
"Knyahynya","48.9761","22.5161","319","Ukraine"
"Harmashivka","49.3525","39.6211","306","Ukraine"
"Novi Bilokorovychi","51.0475","28.0519","3117","Ukraine"
"Yurivka","49.7494","28.4728","672","Ukraine"
"Bobove","48.1244","23.6667","198","Ukraine"
"Naberezhne","47.5787","34.0973","69","Ukraine"
"Starosiltsi","50.4064","28.9886","770","Ukraine"
"Naberezhne","47.3117","37.8447","238","Ukraine"
"Bilenke","48.7664","37.6314","9136","Ukraine"
"Smyrenivka","47.2175","35.3367","182","Ukraine"
"Monastyrets","48.2928","23.4278","1891","Ukraine"
"Novokurske","47.5791","33.2337","651","Ukraine"
"Stanislavchyk","50.1703","24.9139","460","Ukraine"
"Truskavets","49.2806","23.5050","28867","Ukraine"
"Pyliavka","49.5792","27.3944","585","Ukraine"
"Duba","48.8481","24.1533","1150","Ukraine"
"Vodyane","48.3867","35.6529","208","Ukraine"
"Rudaieve","48.8372","36.4653","6","Ukraine"
"Topolivka","48.7561","29.7422","670","Ukraine"
"Sedniv","51.6433","31.5689","1116","Ukraine"
"Velykyi Zhvanchyk","48.7617","26.9631","1584","Ukraine"
"Kalynove","49.7817","37.6350","0","Ukraine"
"Volodymyrivka","48.2052","36.4891","804","Ukraine"
"Volodymyrivka","48.0661","34.1682","381","Ukraine"
"Volodymyrivka","48.2677","34.4872","172","Ukraine"
"Volodymyrivka","48.6165","33.8389","141","Ukraine"
"Volodymyrivka","48.2127","33.6397","97","Ukraine"
"Topolyne","47.2750","35.0120","661","Ukraine"
"Novomykolayivka","47.9779","35.9099","5238","Ukraine"
"Medvedivka","49.7503","28.6708","348","Ukraine"
"Kotlyarivka","48.1023","34.5622","249","Ukraine"
"Kotlyarivka","48.4246","34.3172","21","Ukraine"
"Mays'ke","50.2804","35.2875","116","Ukraine"
"Mittsau","48.6047","26.0106","349","Ukraine"
"Mar'yanivka","48.7211","35.2162","914","Ukraine"
"Tsvitkove","47.6961","33.1223","180","Ukraine"
"Yalta","46.9667","37.2667","5159","Ukraine"
"Yalta","48.0444","36.7497","143","Ukraine"
"Mardarivka","47.5333","29.7333","1241","Ukraine"
"Mardarivka","47.1450","30.0153","8","Ukraine"
"Chornohlazivka","49.6867","34.3760","266","Ukraine"
"Horiane","50.0761","37.3775","363","Ukraine"
"Dubivskyi","48.0822","39.1569","4550","Ukraine"
"Ternuvate","47.8305","36.1276","1306","Ukraine"
"Terno-Lozuvatka","48.4156","33.8796","427","Ukraine"
"Kyianka","50.6600","28.0897","422","Ukraine"
"Troyany","49.4439","23.2664","87","Ukraine"
"Dnistrove","48.5359","26.2351","757","Ukraine"
"Brestiv","48.4989","22.9033","355","Ukraine"
"Pirky","50.2669","34.4235","703","Ukraine"
"Vyr","51.9161","30.9628","18","Ukraine"
"Novotarasivka","48.2757","34.6587","20","Ukraine"
"Papuzhyntsi","48.9736","30.5750","644","Ukraine"
"Lokachi","50.7383","24.6372","3856","Ukraine"
"Yablunytsia","48.3161","24.5033","1986","Ukraine"
"Lohvynove","48.3758","38.3489","57","Ukraine"
"Mala Danylivka","50.0614","36.1675","8228","Ukraine"
"Rivne","48.9498","35.4707","169","Ukraine"
"Berezivka","49.7736","27.8500","970","Ukraine"
"Porechnoye","49.6886","23.7036","632","Ukraine"
"Zaliznychne","47.6504","36.1662","1099","Ukraine"
"Dubravka","49.2169","24.2514","439","Ukraine"
"Novovasylivka","47.9332","33.9659","447","Ukraine"
"Novovasylivka","48.7871","34.8854","89","Ukraine"
"Novovasylivka","48.5099","33.6857","70","Ukraine"
"Lysohirka","49.2325","27.9828","457","Ukraine"
"Bilokorovychi","51.1089","28.0175","2520","Ukraine"
"Babans'ke","50.0031","34.4701","4","Ukraine"
"Pluhatar","49.2342","39.7428","637","Ukraine"
"Novostavtsi","50.2583","24.9117","362","Ukraine"
"Stepove","48.6387","34.9063","1375","Ukraine"
"Stepove","48.4480","34.5384","669","Ukraine"
"Stepove","48.2916","36.7949","153","Ukraine"
"Stepove","48.0153","33.7233","110","Ukraine"
"Stepove","47.9571","33.5585","71","Ukraine"
"Stepove","48.7044","33.9247","66","Ukraine"
"Stepove","47.7844","34.1738","65","Ukraine"
"Stepove","47.8891","36.4525","16","Ukraine"
"Dniprovka","47.9348","33.5747","61","Ukraine"
"Trudoliubivka","47.7662","33.5078","136","Ukraine"
"Opolzneve","44.4075","33.9450","401","Ukraine"
"Dovbysh","50.3722","27.9895","4288","Ukraine"
"Rozhyshche","50.9131","25.2700","12953","Ukraine"
"Samarske","48.4799","36.4621","1094","Ukraine"
"Samarske","48.4453","36.1054","214","Ukraine"
"Asiivka","49.3655","36.6866","770","Ukraine"
"Bakhmut","48.6044","38.0067","75798","Ukraine"
"Sviatylivka","49.4628","32.8108","1594","Ukraine"
"Velyka Pozharnya","50.2195","34.4746","136","Ukraine"
"Anadol","47.4506","37.5814","666","Ukraine"
"Stepanivka","48.4430","34.4512","434","Ukraine"
"Zazdrivka","50.5706","28.3092","79","Ukraine"
"Leventsivka","48.9088","35.6086","517","Ukraine"
"Tsuman","50.8333","25.8833","6548","Ukraine"
"Demydivka","49.1164","28.2547","940","Ukraine"
"Boharevytsya","48.2894","22.9211","513","Ukraine"
"Shandra","49.7864","31.1519","1023","Ukraine"
"Pokrovske","50.5875","31.0767","43","Ukraine"
"Kitay Gorod","48.4867","29.0086","383","Ukraine"
"Bashtechky","49.2414","30.3192","866","Ukraine"
"Mar'yivka","48.9446","35.1986","605","Ukraine"
"Mar'yivka","48.6029","36.2277","350","Ukraine"
"Kurylivka","49.4994","28.0875","797","Ukraine"
"Budzyn","48.9042","25.1906","498","Ukraine"
"Stinka","48.9172","25.2504","2090","Ukraine"
"Blahodatne","48.1273","34.2085","96","Ukraine"
"Bel'chinka","50.1092","26.7275","164","Ukraine"
"Apostolove","47.6595","33.7170","13792","Ukraine"
"Trytuzne","48.1289","34.7348","505","Ukraine"
"Sudak","44.8514","34.9725","16756","Ukraine"
"Bobrytsya","50.3503","30.1914","565","Ukraine"
"Verkhovyna","48.1517","24.8136","5829","Ukraine"
"Verkhovyna","46.7406","34.9673","50","Ukraine"
"Obortiv","50.3408","24.4917","42","Ukraine"
"Sychanske","49.4322","39.3978","490","Ukraine"
"Kernosivka","48.9548","35.6361","620","Ukraine"
"Malomykolaivka","48.3069","39.0219","2096","Ukraine"
"Vasylkiv","50.1775","30.3217","37696","Ukraine"
"Vershyna","50.5045","34.6064","32","Ukraine"
"Gan'chary","49.7583","24.1717","418","Ukraine"
"Vynohradne","48.6947","27.4539","654","Ukraine"
"Dubivka","50.2064","34.4784","121","Ukraine"
"Bratske","47.8636","31.5781","5313","Ukraine"
"Paskivka","49.6250","34.6713","218","Ukraine"
"Horbachi","49.5953","23.9086","753","Ukraine"
"Zhyrivka","49.7353","24.0708","584","Ukraine"
"Mazepyntsi","49.9139","29.9822","399","Ukraine"
"Borsuky","48.0406","29.4281","581","Ukraine"
"Verkhnokamianysta","48.7262","33.8838","70","Ukraine"
"Lany","49.6206","23.8672","1008","Ukraine"
"Lany","49.6017","24.2939","316","Ukraine"
"Zabolottya","50.3933","24.0200","823","Ukraine"
"Kozak","50.3411","28.9639","127","Ukraine"
"Tsarychanka","48.9432","34.4748","7415","Ukraine"
"Katsiveli","44.3961","33.9711","541","Ukraine"
"Zaperedillia","48.4747","23.5042","1043","Ukraine"
"Tereshky","49.5471","34.6227","2450","Ukraine"
"Karpaty","48.5244","22.8731","235","Ukraine"
"Kolodnytsya","49.2322","23.7350","368","Ukraine"
"Mala Ternivka","46.5893","35.2106","230","Ukraine"
"Pidkamin","49.4508","24.4761","579","Ukraine"
"Svyrydonivka","46.4942","34.3658","2","Ukraine"
"Nehrovets","48.4617","23.6406","1456","Ukraine"
"Buhas","47.6347","37.5614","1449","Ukraine"
"Svoboda","48.6344","23.7433","239","Ukraine"
"Lativka","46.5642","30.7114","1955","Ukraine"
"Peremoha","51.5482","33.9418","1128","Ukraine"
"Pidvysoke","49.0750","29.5981","565","Ukraine"
"Kozyriany","48.3711","26.6461","1005","Ukraine"
"Lukovytsia","48.1939","26.0867","610","Ukraine"
"Lokhvytsya","50.3610","33.2652","11485","Ukraine"
"Dmytrivka","50.2225","35.3936","351","Ukraine"
"Dmytrivka","49.7992","35.3900","135","Ukraine"
"Dyakivka","51.1795","34.0316","707","Ukraine"
"Napadivka","49.6111","28.5564","395","Ukraine"
"Zamahora","48.1022","24.8217","1185","Ukraine"
"Strutsivka","50.1883","29.2278","93","Ukraine"
"Novovitebske","47.9761","33.8943","92","Ukraine"
"Kuz'menky","49.1470","33.6178","60","Ukraine"
"Drachyntsi","48.3164","25.7003","2324","Ukraine"
"Vasiutyntsi","49.1415","27.7782","437","Ukraine"
"Komariv","48.5597","26.9883","1804","Ukraine"
"Opytne","48.5542","38.0169","1983","Ukraine"
"Voloshky","51.1817","24.8633","573","Ukraine"
"Trylistsi","51.0111","25.1436","223","Ukraine"
"Kotovka","49.1301","34.9428","2689","Ukraine"
"Verkhivtsi","49.6353","23.1006","1047","Ukraine"
"Mis'ki Mlyny","49.9474","34.6414","231","Ukraine"
"Shabelkivka","48.7608","37.4881","4267","Ukraine"
"Beizymy","49.9786","26.9150","249","Ukraine"
"Ustia","48.6134","26.0868","1099","Ukraine"
"Isliam-Terek","45.2256","35.2033","7067","Ukraine"
"Pavlivka","49.5069","23.0867","27","Ukraine"
"Serhiivka","48.1572","33.6605","759","Ukraine"
"Serhiivka","47.6128","33.4969","214","Ukraine"
"Serhiivka","48.1389","34.8442","141","Ukraine"
"Khmelnytskyi","49.4200","27.0000","274176","Ukraine"
"Krylos","49.0883","24.6886","1697","Ukraine"
"Vovchynets","49.7483","28.5656","913","Ukraine"
"Kropyvnytskyi","48.5103","32.2667","227413","Ukraine"
"Steblivka","50.4075","26.0994","610","Ukraine"
"Suvorovske","48.3642","34.5031","475","Ukraine"
"Simer","48.7322","22.5169","1856","Ukraine"
"Pryvilne","49.2189","39.4031","121","Ukraine"
"Zelenyy Luh","48.4571","33.7252","36","Ukraine"
"Vesele","47.1842","36.9689","162","Ukraine"
"Vesele","48.2317","36.6133","1081","Ukraine"
"Vesele","47.8789","34.3558","967","Ukraine"
"Vesele","47.8380","33.5821","941","Ukraine"
"Vesele","48.3471","35.5255","884","Ukraine"
"Vesele","48.5892","35.7870","201","Ukraine"
"Vesele","48.3194","35.2540","96","Ukraine"
"Vesele","48.8487","35.4689","109","Ukraine"
"Vesele","48.3142","36.7151","67","Ukraine"
"Vesele","48.7720","34.8731","39","Ukraine"
"Hannivka","48.0722","31.6328","479","Ukraine"
"Rozhayivka","49.5775","34.3340","9","Ukraine"
"Solyanyky","51.2146","34.3794","92","Ukraine"
"Bervinkova","48.1178","25.0328","291","Ukraine"
"Bilkivtsi","50.3675","28.9772","1056","Ukraine"
"Dobrovelychkivka","48.3500","31.1667","5763","Ukraine"
"Holubyne","48.5714","22.9697","2781","Ukraine"
"Nezabudyne","48.0777","34.4155","480","Ukraine"
"Bykov","49.7681","22.9356","183","Ukraine"
"Lykoshyne","48.5306","33.8562","103","Ukraine"
"Kotelnytsia","48.8217","23.0661","444","Ukraine"
"Pestychevs'ke","50.3042","33.1948","26","Ukraine"
"Ridnyi Krai","50.1581","35.9136","33","Ukraine"
"Ridnyi Krai","49.4781","37.2650","26","Ukraine"
"Horodyshche","49.4686","23.3272","509","Ukraine"
"Horodyshche","50.3156","24.2403","132","Ukraine"
"Romashky","46.7724","35.1617","156","Ukraine"
"Starobilsk","49.2667","38.9167","18796","Ukraine"
"Tarutyne","46.1846","29.1495","8125","Ukraine"
"Myronivka","48.3036","28.1794","744","Ukraine"
"Novyi Yarychiv","49.9019","24.3033","3002","Ukraine"
"Velyka Pavlivka","50.2369","34.2683","1813","Ukraine"
"Bazarivka","51.2581","28.7144","64","Ukraine"
"Ustyluh","50.8600","24.1569","2176","Ukraine"
"Botfalva","48.5814","22.2081","579","Ukraine"
"Bodakva","50.2996","33.4281","1152","Ukraine"
"Polianky","48.0658","24.9550","604","Ukraine"
"Zav'yalivka","48.2300","33.6517","101","Ukraine"
"Kamiane","47.6783","38.1244","131","Ukraine"
"Lviv","49.8419","24.0315","724314","Ukraine"
"Armashivka","47.2492","30.1978","724","Ukraine"
"Rus'ka Kuchava","48.5514","22.5783","89","Ukraine"
"Bershad","48.3728","29.5325","12795","Ukraine"
"Barvinivka","47.8130","35.9305","490","Ukraine"
"Novokam'yanka","47.5772","34.7445","94","Ukraine"
"Khmilne","49.6681","31.4972","598","Ukraine"
"Shyroke","50.4172","24.8569","456","Ukraine"
"Chervoni Luky","50.3088","33.5526","85","Ukraine"
"Vodiane","48.6308","36.4512","149","Ukraine"
"Starodniprovske","48.1527","34.6937","97","Ukraine"
"Cheremoshna Volya","51.3781","24.1911","442","Ukraine"
"Shevchenkivka","48.8089","34.8409","398","Ukraine"
"Hrechyntsi","49.4897","27.5186","705","Ukraine"
"Barvinkove","50.7674","32.7474","2","Ukraine"
"Vyzhnytsia","48.2500","25.1917","3997","Ukraine"
"Dmukhailivka","49.0566","34.7604","1367","Ukraine"
"Hlukhiv Druhyi","50.5356","29.2003","91","Ukraine"
"Stara Huta","51.4119","24.2436","1161","Ukraine"
"Nikita","44.5111","34.2353","2466","Ukraine"
"Alushta","44.6672","34.3978","29668","Ukraine"
"Uspenka","48.3939","39.1536","8974","Ukraine"
"Chernihivka","48.0668","34.2553","64","Ukraine"
"Znamianka","46.7058","32.3933","136","Ukraine"
"Zelenyi Klyn","49.1278","36.0161","58","Ukraine"
"Tsebliv","50.4214","24.0586","312","Ukraine"
"Novaya Guta","49.2794","27.7122","27","Ukraine"
"Svystunove","47.7867","33.4092","297","Ukraine"
"Mikhailivka","48.2733","28.0944","1138","Ukraine"
"Paliyivka","51.9187","33.6422","610","Ukraine"
"Byblo","49.6464","22.8589","414","Ukraine"
"Malynove","48.7217","39.4233","73","Ukraine"
"Stepanivka Druha","46.7648","35.9435","752","Ukraine"
"Kryntyata","49.1500","23.2522","127","Ukraine"
"Ivana Franka","49.3619","23.3206","2518","Ukraine"
"Repuzhyntsi","48.6531","25.7931","1936","Ukraine"
"Berestechko","50.4894","25.2658","463","Ukraine"
"Kizya","48.7275","26.3217","346","Ukraine"
"Hrubske","50.1872","29.2592","131","Ukraine"
"Novopetrivka","46.8266","36.8944","2161","Ukraine"
"Novopetrivka","48.0664","34.9825","599","Ukraine"
"Novopetrivka","47.2912","34.5403","265","Ukraine"
"Pashkivka","50.3075","29.8706","775","Ukraine"
"Petrivske","48.2365","34.7112","110","Ukraine"
"Shestypillia","48.1058","34.7719","164","Ukraine"
"Rusanovtsy","49.4147","27.3531","309","Ukraine"
"Svichkarivshchyna","50.2358","34.5453","3","Ukraine"
"Karpusi","49.6019","34.3233","73","Ukraine"
"Kalinovka","49.9036","23.3067","466","Ukraine"
"Novospaske","48.7621","34.9278","110","Ukraine"
"Petropavlivka","48.4549","36.4394","7032","Ukraine"
"Petropavlivka","47.8495","33.9909","146","Ukraine"
"Petropavlivka","47.6742","38.5614","247","Ukraine"
"Voznesenske","48.3437","36.6346","336","Ukraine"
"Ukrainske","49.0000","36.0817","562","Ukraine"
"Ukrainske","46.6722","34.6522","716","Ukraine"
"Kovaleve","48.1511","33.7919","11","Ukraine"
"Rayki","49.6497","28.4964","384","Ukraine"
"Hramivka","48.6450","33.7682","71","Ukraine"
"Velyki Luchky","48.4200","22.5611","9028","Ukraine"
"Vil","51.6797","25.4800","211","Ukraine"
"Lozivka","49.4933","28.8203","311","Ukraine"
"Vovchyy","48.5925","23.0992","59","Ukraine"
"Yemilchyne","50.8708","27.8028","6616","Ukraine"
"Ploske","47.9861","29.8700","999","Ukraine"
"Krasnokamianka","44.5625","34.2931","1074","Ukraine"
"Khrapachiv Yar","50.2589","34.5075","21","Ukraine"
"Mineral'ni Vody","48.6413","35.5593","119","Ukraine"
"Hostomel","50.5692","30.2653","16190","Ukraine"
"Otyniia","48.7339","24.8569","5444","Ukraine"
"Vyhoda","48.9667","23.9500","2287","Ukraine"
"Vyhoda","48.1314","24.9694","167","Ukraine"
"Chyhyryn","49.0833","32.6667","8962","Ukraine"
"Velyka Byihan","48.2481","22.5747","1893","Ukraine"
"Nobel","51.8681","25.7617","363","Ukraine"
"Chernivtsi","48.2908","25.9344","266550","Ukraine"
"Budylivka","50.6947","28.9800","120","Ukraine"
"Vasylivka","47.4344","35.2808","13166","Ukraine"
"Kobeliaky","49.1474","34.1993","9841","Ukraine"
"Mykolaivka","49.6006","28.7506","621","Ukraine"
"Nazarivka","48.0116","34.1165","52","Ukraine"
"Velykodolynske","46.3425","30.5653","13036","Ukraine"
"Slavhorod","48.1097","35.5109","2211","Ukraine"
"Velyka Doch","51.3000","32.5667","794","Ukraine"
"Maydan Sakhnivskiy","49.3394","27.8311","62","Ukraine"
"Miusynsk","48.0727","38.9002","4830","Ukraine"
"Luka","49.0175","24.9839","411","Ukraine"
"Boyarka","50.3292","30.2886","35411","Ukraine"
"Biletske","49.3367","27.7692","170","Ukraine"
"Shostka","51.8657","33.4766","76788","Ukraine"
"Khrinnyky","50.4386","25.2494","811","Ukraine"
"Biliakivka","48.1864","36.8793","16","Ukraine"
"Shyrokyne","47.0981","37.8103","0","Ukraine"
"Svyatets","49.8439","26.2975","2074","Ukraine"
"Berezyne","48.0897","34.1807","55","Ukraine"
"Novolativka","47.7605","33.2460","675","Ukraine"
"Hola Prystan","46.5167","32.5167","14479","Ukraine"
"Kehychivka","49.2858","35.7622","6090","Ukraine"
"Mykolayiv","50.3400","24.9692","1206","Ukraine"
"Chabany","50.3400","30.4228","4641","Ukraine"
"Mykulychi","50.7881","24.5364","452","Ukraine"
"Lytvynivka","49.8442","35.6964","203","Ukraine"
"Budarky","50.3881","37.4047","253","Ukraine"
"Dubo-Osokorivka","48.2232","35.3376","38","Ukraine"
"Roven'ki","48.5917","33.6965","33","Ukraine"
"Vorzel","50.5500","30.1500","6441","Ukraine"
"Andriiashivka","49.7986","28.3564","619","Ukraine"
"Kamianohirka","48.9178","28.1103","699","Ukraine"
"Kamianohirka","49.4531","28.2839","409","Ukraine"
"Piatyhory","49.3397","29.9089","2017","Ukraine"
"Zolochiv","49.8075","24.9031","24059","Ukraine"
"Starovychi","50.8975","29.6106","172","Ukraine"
"Zhmerynka","49.0425","28.0992","34537","Ukraine"
"Chekhy","49.5503","27.6539","257","Ukraine"
"Bendzary","47.9308","29.6642","1040","Ukraine"
"Novohuivynske","50.2022","28.6850","5236","Ukraine"
"Kosyno","48.5125","22.7994","1026","Ukraine"
"Tatarivka","50.7500","31.6667","10","Ukraine"
"Bihach","51.6192","31.6433","518","Ukraine"
"Oleksiyivka","48.0882","35.7785","51","Ukraine"
"Petropavlivka","48.8044","39.2628","4768","Ukraine"
"Titkivtsi","48.6961","23.5797","205","Ukraine"
"Nyvy-Hubynski","50.5328","25.0819","141","Ukraine"
"Bazaliia","49.7178","26.4708","1541","Ukraine"
"Zhukivtsi","49.0103","28.1822","855","Ukraine"
"Darahanove","50.9079","33.8995","48","Ukraine"
"Saivka","48.3457","33.8810","1101","Ukraine"
"Skala","49.3042","29.4003","699","Ukraine"
"Balyko-Shchuchynka","49.9533","31.1372","484","Ukraine"
"Dubrovytsya","51.5667","26.5667","9424","Ukraine"
"Vysoke","47.8219","34.4832","267","Ukraine"
"Vysoke","48.1922","34.2107","33","Ukraine"
"Kusykivtsi","49.4108","27.9189","433","Ukraine"
"Antonivka","50.6442","28.2172","106","Ukraine"
"Antonivka","50.3139","29.3342","45","Ukraine"
"Koropets","48.9386","25.1794","3253","Ukraine"
"Opilsko","50.4969","24.2119","623","Ukraine"
"Podove","47.7406","33.4944","23","Ukraine"
"Dniprorudne","47.3855","34.9879","18468","Ukraine"
"Shyshkovtse","48.7091","26.0322","263","Ukraine"
"Mykhailo-Kotsiubynske","51.4550","31.0772","3028","Ukraine"
"Vyshneve","50.3833","30.3667","40919","Ukraine"
"Podliski","49.7114","23.2342","634","Ukraine"
"Tryrohove","49.6851","34.3457","12","Ukraine"
"Pomynyk","48.9017","30.2872","1201","Ukraine"
"Dolynska","48.1111","32.7648","19287","Ukraine"
"Dolyniany","48.8219","27.5853","470","Ukraine"
"Fruktove","44.6806","33.6028","744","Ukraine"
"Parafiivka","50.8850","32.6464","2407","Ukraine"
"Talne","48.8863","30.7027","13558","Ukraine"
"Halabor","48.1011","22.6781","752","Ukraine"
"Kurhanka","47.8175","33.0876","20","Ukraine"
"Khotiv","50.3333","30.4664","4737","Ukraine"
"Voronovytsia","49.0989","28.6831","6564","Ukraine"
"Myrne","50.5928","24.8939","1222","Ukraine"
"Tsybuliv","49.0733","29.8472","3568","Ukraine"
"Zarichne","48.0380","36.0993","191","Ukraine"
"Kapulivka","47.5476","34.2266","2053","Ukraine"
"Vilnokur'yanivs'ke","47.9618","35.1969","25","Ukraine"
"Vilshany","50.0533","35.8847","6865","Ukraine"
"Pototskivshchyna","50.2207","33.4514","143","Ukraine"
"Bohynivka","48.4890","36.3527","1073","Ukraine"
"Morantsy","49.9378","23.1967","489","Ukraine"
"Natalivka","48.1008","34.4519","369","Ukraine"
"Natalivka","48.4217","36.7543","118","Ukraine"
"Suvorove","46.0872","33.6911","1357","Ukraine"
"Dolynske","46.7874","35.2115","784","Ukraine"
"Sumy","50.9068","34.7992","265758","Ukraine"
"Kolomytsivka","49.4503","33.1816","116","Ukraine"
"Vesela Hirka","48.7226","35.9748","103","Ukraine"
"Busk","49.9667","24.6167","8624","Ukraine"
"Rososhany","48.3986","26.9994","2125","Ukraine"
"Novopylypivka","46.9529","35.4919","705","Ukraine"
"Chervonyy Yar","48.1426","33.8522","88","Ukraine"
"Chervonyy Yar","48.4270","33.9869","43","Ukraine"
"Dubivtsi","49.0814","24.7736","2059","Ukraine"
"Romanivka","50.0935","34.0555","133","Ukraine"
"Denyshi","50.2153","28.4078","1411","Ukraine"
"Havrylky","49.7032","34.8582","9","Ukraine"
"Pryvitne","44.8222","34.6778","1867","Ukraine"
"Pryvitne","45.3033","33.1389","534","Ukraine"
"Cherneche","48.3947","34.4665","405","Ukraine"
"Vasyliv","48.6042","25.8417","1229","Ukraine"
"Mykhailivka","47.2717","35.2248","11949","Ukraine"
"Doroshivtsi","48.5872","25.8931","1534","Ukraine"
"Kmytiv","50.3061","28.8861","482","Ukraine"
"Dovhe","48.1742","36.3709","43","Ukraine"
"Vytylivka","48.4072","25.8011","1032","Ukraine"
"Shulhivka","48.7434","34.3924","1191","Ukraine"
"Shulhivka","48.1869","34.6085","133","Ukraine"
"Stari Troiany","45.6719","29.1703","2225","Ukraine"
"Oleno-Kosohorivka","48.4739","31.8953","372","Ukraine"
"Hnativka","48.8867","35.4748","376","Ukraine"
"Kozache","51.4690","34.2000","304","Ukraine"
"Andriivka","47.5993","33.2137","958","Ukraine"
"Andriivka","48.2325","33.8086","237","Ukraine"
"Andriivka","48.2610","33.9209","201","Ukraine"
"Baykivka","48.4135","33.9525","1","Ukraine"
"Andriivka","50.5064","28.6739","584","Ukraine"
"Andriivka","50.4933","28.0303","440","Ukraine"
"Andriivka","51.3092","27.7000","219","Ukraine"
"Khrypuny","50.3503","37.3083","68","Ukraine"
"Radisne","46.9997","30.3397","1572","Ukraine"
"Vitrivka","48.3950","28.2500","388","Ukraine"
"Huiva","50.2108","28.6553","1585","Ukraine"
"Bel'chin","50.1139","26.6861","406","Ukraine"
"Prykolotne","50.1586","37.3367","2026","Ukraine"
"Stara Syniava","49.6000","27.6167","5501","Ukraine"
"Staryi Sambir","49.4333","23.0000","6630","Ukraine"
"Chasnykivka","50.1857","33.3677","350","Ukraine"
"Bezruky","50.0090","34.6338","10","Ukraine"
"Hirnyk","48.0500","37.3667","11378","Ukraine"
"Pryhiria","47.5247","33.1967","454","Ukraine"
"Svyatohirs'k","49.0333","37.5833","4395","Ukraine"
"Oleksandrivka","48.6331","28.5178","657","Ukraine"
"Apollonivka","50.8300","27.9619","144","Ukraine"
"Krynychuvate","47.9064","34.3243","458","Ukraine"
"Krynychuvate","48.1864","33.7843","365","Ukraine"
"Ostroh","50.3333","26.5167","15642","Ukraine"
"Tarasivka","50.2464","34.3491","1321","Ukraine"
"Hnivan","49.0833","28.3500","12433","Ukraine"
"Ahativka","49.9861","28.6050","155","Ukraine"
"Rybakivka","46.6203","31.3514","1640","Ukraine"
"Holoby","51.0833","25.0167","4058","Ukraine"
"Avdotivka","47.9674","33.6951","393","Ukraine"
"Kutyshche","48.9078","25.1192","1137","Ukraine"
"Zhukotky","51.5325","31.0308","382","Ukraine"
"Rovets","49.1253","28.3278","275","Ukraine"
"Pidlepychi","49.5264","34.3401","64","Ukraine"
"Barashi","50.7156","28.0308","2032","Ukraine"
"Novohurivka","48.3449","34.0120","98","Ukraine"
"Karnaukhivka","48.4698","34.7376","6631","Ukraine"
"Tverdyni","50.8753","24.7594","183","Ukraine"
"Volodymyr-Volynskyi","50.8481","24.3222","38901","Ukraine"
"Pashenivka","49.3706","33.8739","43","Ukraine"
"Krupske","49.4619","24.0300","1494","Ukraine"
"Yerky","48.9781","30.9919","3976","Ukraine"
"Vasylkivka","48.2084","36.0253","11738","Ukraine"
"Palanka","48.6022","28.6519","517","Ukraine"
"Serhiyivka","50.5058","25.1433","90","Ukraine"
"Dovzhok","50.1940","34.1673","22","Ukraine"
"Torchyn","50.5106","28.9586","810","Ukraine"
"Vyrishal'ne","50.1914","33.4488","2387","Ukraine"
"Drabiv","49.9603","32.1481","6450","Ukraine"
"Uhroyidy","50.8626","35.2688","2046","Ukraine"
"Stavyshche","49.3914","30.1917","6339","Ukraine"
"Bila Richka","47.9650","24.8953","157","Ukraine"
"Baranivka","50.3000","27.6667","11765","Ukraine"
"Baranivka","50.8747","29.2225","220","Ukraine"
"Stina","48.4525","28.4211","1033","Ukraine"
"Medvedivtsi","48.5522","22.6056","470","Ukraine"
"Basyuvka","49.7811","23.9092","1042","Ukraine"
"Vil'nyy Tabir","47.9902","33.6260","131","Ukraine"
"Zaozerne","46.6003","33.9572","855","Ukraine"
"Beshty","50.2145","33.4676","170","Ukraine"
"Mala Rostivka","49.2342","29.3561","276","Ukraine"
"Lahody","50.0565","34.2791","60","Ukraine"
"Shevchenky","49.9687","34.3817","117","Ukraine"
"Shevchenky","50.3778","33.5477","99","Ukraine"
"Buzova-Paskivka","49.5025","34.7860","83","Ukraine"
"Monastyryshche","48.9900","29.8011","8925","Ukraine"
"Shchaslyve","46.7308","34.4064","124","Ukraine"
"Veselyy Podil","48.5845","33.6314","85","Ukraine"
"Stavchyntsi","49.5778","26.7267","487","Ukraine"
"Oleyevo-Korolevka","48.7421","25.9935","1094","Ukraine"
"Vasyukivka","48.5407","36.4818","110","Ukraine"
"Zelentsi","49.8842","27.1361","363","Ukraine"
"Rososh","48.2397","23.5900","344","Ukraine"
"Lyuchyn","50.3128","26.4386","460","Ukraine"
"Sasovo","48.1006","23.7003","426","Ukraine"
"Zahorb","48.5650","23.6828","75","Ukraine"
"Shyroka Dolyna","49.8543","33.6324","453","Ukraine"
"Pidkormillya","51.8056","25.5033","822","Ukraine"
"Bezliudivka","49.8694","36.2719","9436","Ukraine"
"Odayi","48.2600","28.7458","71","Ukraine"
"Zavodske","50.4002","33.3908","8180","Ukraine"
"Voloskovtsy","51.5528","32.0214","849","Ukraine"
"Salohubivka","50.7822","33.3375","334","Ukraine"
"Shkadrety","50.2230","33.4207","162","Ukraine"
"Morske","44.8306","34.8014","2394","Ukraine"
"Berehove","44.8994","33.6256","787","Ukraine"
"Slavutych","51.5206","30.7569","25030","Ukraine"
"Velyka Slobidka","48.5747","26.7119","864","Ukraine"
"Kovalivka","50.1692","32.0572","700","Ukraine"
"Lysets","48.8717","24.6047","2914","Ukraine"
"Verkholy","49.5883","34.6675","450","Ukraine"
"Krasnyy Bor","51.6208","23.6489","11","Ukraine"
"Marivka","49.7545","34.7345","241","Ukraine"
"Zaluzh'ye","49.9661","23.4292","1371","Ukraine"
"Molochansk","47.2038","35.5985","7040","Ukraine"
"Tylove","44.4431","33.7347","573","Ukraine"
"Nadchytsi","50.6136","25.4839","284","Ukraine"
"Malyi Kobeliachok","49.3429","34.2180","1057","Ukraine"
"Kam'yano-Zubylivka","48.1399","35.0387","31","Ukraine"
"Okhotnyche","47.9062","34.4063","116","Ukraine"
"Kornyn","50.0839","29.5375","2108","Ukraine"
"Zabuzhzhia","48.8797","28.7689","305","Ukraine"
"Konotop","51.2369","33.2027","103547","Ukraine"
"Strilevshchyna","50.0674","34.4008","20","Ukraine"
"Druzhkivka","48.6203","37.5278","59400","Ukraine"
"Svichanivka","49.0072","35.2628","107","Ukraine"
"Bohdanivka","47.8158","31.1344","1839","Ukraine"
"Konovka","48.5089","26.7169","630","Ukraine"
"Maidanivka","49.4498","33.6717","133","Ukraine"
"Doroshivka","48.3314","28.1067","486","Ukraine"
"Kopachev","50.1192","30.4850","477","Ukraine"
"Mod'orosh","48.0728","23.3489","374","Ukraine"
"Kozhanka","49.9681","29.7647","2029","Ukraine"
"Dubyna","49.0608","23.5464","276","Ukraine"
"Tataryniv","49.5689","23.7511","586","Ukraine"
"Kolomytsi","50.0658","32.1778","792","Ukraine"
"Andronivka","48.3652","36.7880","242","Ukraine"
"Kultura","47.6667","38.3178","94","Ukraine"
"Kultura","48.4261","33.6273","286","Ukraine"
"Zhabky","50.4420","33.0752","654","Ukraine"
"Hubynykha","48.8084","35.2535","5509","Ukraine"
"Stepne","50.4416","33.4412","7","Ukraine"
"Komyshivka","48.1803","37.4689","422","Ukraine"
"Verbovets","48.7256","27.4325","628","Ukraine"
"Roishche","51.6539","31.2636","1190","Ukraine"
"Mykhaylivka","49.9455","34.3199","10","Ukraine"
"Snovsk","51.8167","31.9500","11390","Ukraine"
"Mykhaylivka","50.3864","26.3972","173","Ukraine"
"Bandurove","48.2275","29.8606","1980","Ukraine"
"Kryshtopivka","50.0008","32.0831","387","Ukraine"
"Kremenchuk","49.0775","33.4239","234073","Ukraine"
"Zoria","48.3394","34.0673","302","Ukraine"
"Novyi Rozdil","49.4703","24.1300","28745","Ukraine"
"Hai","50.0867","32.1628","121","Ukraine"
"Pereyaslav-Khmel'nyts'kyy","50.0650","31.4450","27088","Ukraine"
"Kalagarovka","49.2575","26.2428","685","Ukraine"
"Kyrylo-Hannivka","49.9788","34.3641","402","Ukraine"
"Kamenogorka","48.9614","29.4817","943","Ukraine"
"Berdianske","47.0903","37.7858","228","Ukraine"
"Virivka","48.4831","36.9808","667","Ukraine"
"Virivka","50.7850","27.9408","156","Ukraine"
"Oleksandro-Bilivka","48.0914","34.1123","248","Ukraine"
"Yabluneve","48.4087","34.3742","24","Ukraine"
"Vidrodzhennya","48.2818","36.2753","93","Ukraine"
"Korolivka","48.8462","35.1314","611","Ukraine"
"Zelenyy Hay","47.9189","29.3819","2","Ukraine"
"Vesela Dolyna","48.1817","34.0506","45","Ukraine"
"Chervona Hirka","48.6120","33.8130","37","Ukraine"
"Chornotysiv","48.0783","23.0536","2232","Ukraine"
"Khrestivka","48.1500","38.3667","28149","Ukraine"
"Opishnya","49.9564","34.6120","5292","Ukraine"
"Pashkove","48.9197","37.2328","133","Ukraine"
"Pidlisne","48.7842","32.2531","1022","Ukraine"
"Dymivske","47.4869","31.8919","695","Ukraine"
"Olefirivka","48.4325","36.0973","703","Ukraine"
"Broshniv-Osada","48.9994","24.1814","5557","Ukraine"
"Mali Shcherbaky","47.5482","35.5517","355","Ukraine"
"Fastiv","50.0747","29.9181","45907","Ukraine"
"Shevchenka","48.4659","36.3483","350","Ukraine"
"Shevchenka","48.2012","35.8273","104","Ukraine"
"Novomarivka","48.0701","34.3308","734","Ukraine"
"Verbka","49.3886","27.7453","725","Ukraine"
"Nyzhni Mlyny","49.5489","34.5793","697","Ukraine"
"Volitsa","49.8100","23.0878","1040","Ukraine"
"Volitsa","49.7978","24.1367","257","Ukraine"
"Hromivka","46.9198","36.0465","7","Ukraine"
"Zavitne Bazhannia","47.7222","36.8136","513","Ukraine"
"Yahotyn","50.2569","31.7817","19613","Ukraine"
"Oleksiivka","50.6031","31.8147","60","Ukraine"
"Verkhiv","50.3861","26.3131","537","Ukraine"
"Lebedi","50.3967","26.2658","148","Ukraine"
"Pylypy","48.4850","27.9344","327","Ukraine"
"Beleluia","48.4986","25.4775","1500","Ukraine"
"Boryspil","50.3500","30.9500","62281","Ukraine"
"Vilkhivka","48.2633","23.0656","1857","Ukraine"
"Rudno","49.8404","23.8747","7213","Ukraine"
"Trudove","47.9210","33.7236","21","Ukraine"
"Novomykolaivka","48.5556","34.3771","4090","Ukraine"
"Novomykolaivka","48.3092","34.8618","1314","Ukraine"
"Pliasheva","50.3553","25.1936","702","Ukraine"
"Ivankiv","48.2106","28.3772","271","Ukraine"
"Tokarivka","49.0678","27.8675","549","Ukraine"
"Karpivka","52.0700","31.3900","90","Ukraine"
"Lisovychi","49.5131","30.4664","1501","Ukraine"
"Satanov","49.2500","26.2667","2393","Ukraine"
"Lemeshivka","50.3125","32.0767","1070","Ukraine"
"Nyzhnya Budakivka","50.3009","33.5877","398","Ukraine"
"Klembivka","48.3894","28.4064","3842","Ukraine"
"Korlyukove","50.0203","34.5125","27","Ukraine"
"Zhurbyntsi","49.9794","28.7158","287","Ukraine"
"Hlodove","47.0569","36.9069","104","Ukraine"
"Novyi Myr","47.9299","33.1047","222","Ukraine"
"Imeni Shevchenko","48.2200","37.1453","1674","Ukraine"
"Dal'nye","48.1517","34.4849","101","Ukraine"
"Tovkachi","51.3433","28.8331","324","Ukraine"
"Krutenke","47.9709","34.6327","599","Ukraine"
"Marianivka","48.3118","33.5294","1016","Ukraine"
"Kyryakove","49.9292","34.5260","10","Ukraine"
"Takhtaulove","49.6616","34.5294","2231","Ukraine"
"Makariv Yar","48.5744","39.7169","1470","Ukraine"
"Laz'ky","50.0426","34.6118","63","Ukraine"
"Pisochky","50.3401","33.4341","296","Ukraine"
"Novoandriivka","47.4372","30.3861","190","Ukraine"
"Kremenets","50.1081","25.7275","20837","Ukraine"
"Pakhar","47.8616","34.4186","12","Ukraine"
"Borsuky","48.7147","27.1719","712","Ukraine"
"Shpyli","50.9153","29.9489","981","Ukraine"
"Novooleksiivka","47.8333","33.8496","215","Ukraine"
"Novoaleksiivka","47.6617","30.7386","226","Ukraine"
"Pishchane","49.2692","38.9511","1896","Ukraine"
"Podyn","51.4831","31.8208","34","Ukraine"
"Lyubeshiv","51.7631","25.4992","5762","Ukraine"
"Mokroe","51.5278","24.3261","790","Ukraine"
"Vilkhovyi Rih","49.2681","35.3781","767","Ukraine"
"Velykyi Burluk","50.0456","37.3906","3772","Ukraine"
"Sukha","48.4292","23.2997","1906","Ukraine"
"Novouspenivske","47.7387","36.3924","55","Ukraine"
"Fysuny","49.6995","34.8383","13","Ukraine"
"Rudnia","49.3711","27.5658","344","Ukraine"
"Hlybokyi","48.4753","38.5864","217","Ukraine"
"Kilochky","50.2397","34.4810","84","Ukraine"
"Lisova Lysiivka","49.3647","28.6114","1416","Ukraine"
"Vorsivka","50.6939","29.2467","374","Ukraine"
"Mezhyrichka","51.0744","28.7700","233","Ukraine"
"Lisivshchyna","50.1681","28.9656","40","Ukraine"
"Voznesensk","47.5725","31.3119","35243","Ukraine"
"Grushkovtsy","49.3306","27.6917","785","Ukraine"
"Staryi Aidar","48.7278","39.1514","283","Ukraine"
"Haluzyntsi","49.1609","27.5482","669","Ukraine"
"Tretiakivka","49.1178","39.5875","527","Ukraine"
"Hrem'yache","50.3694","26.4300","777","Ukraine"
"Velykyi Khutir","49.8617","32.1053","2184","Ukraine"
"Lanivtsi","49.8644","26.0782","8401","Ukraine"
"Alchevsk","48.4672","38.7983","105398","Ukraine"
"Novoiulivka","47.9867","33.7409","513","Ukraine"
"Anastasivka","50.7753","27.3575","62","Ukraine"
"Chervonyi Lyman","48.6217","38.7461","83","Ukraine"
"Urozhaine","47.2095","35.9533","464","Ukraine"
"Vysoka Hreblya","48.3964","28.6983","559","Ukraine"
"Levkovychi","51.3668","28.4649","911","Ukraine"
"Mena","51.5167","32.2167","11670","Ukraine"
"Teplodar","46.5036","30.3244","10148","Ukraine"
"Mykolaiv","49.5819","26.8406","373","Ukraine"
"Vysochynivka","49.7053","39.5528","440","Ukraine"
"Fastovets","50.0572","30.0442","1024","Ukraine"
"Andriyashivka","47.9150","29.7139","525","Ukraine"
"Berezova Rudka","50.3153","32.2401","1971","Ukraine"
"Vereshitsa","49.9881","23.6317","528","Ukraine"
"Kodak","48.1192","33.6809","47","Ukraine"
"Pershotravneve","50.2419","34.5131","297","Ukraine"
"Pershotravneve","49.8923","34.1018","51","Ukraine"
"Kukavka","48.6036","27.7050","1281","Ukraine"
"Pomichna","48.2500","31.4167","8994","Ukraine"
"Kryukivshchyna","50.3683","30.3681","3509","Ukraine"
"Zymne","50.7947","24.3306","943","Ukraine"
"Richytsya","51.7022","25.9397","676","Ukraine"
"Kolchyno","48.4667","22.7667","4283","Ukraine"
"Novoyehorivka","49.3292","37.9450","36","Ukraine"
"Petrykivka","48.7281","34.6288","4567","Ukraine"
"Petrykivka","47.9935","34.4402","818","Ukraine"
"Pidhirne","47.6850","38.0622","323","Ukraine"
"Pidhirne","48.4805","34.3666","109","Ukraine"
"Pidhirne","47.8284","34.2978","13","Ukraine"
"Horodyshche","51.5914","31.9781","970","Ukraine"
"Horodyshche","49.2925","31.4581","13799","Ukraine"
"Sokilnyky","49.7769","23.9614","5727","Ukraine"
"Ryasne","48.1685","34.5819","252","Ukraine"
"Partenit","44.5764","34.3397","6089","Ukraine"
"Myroliubivka","47.4067","33.6489","731","Ukraine"
"Blahovishchenka","48.4104","34.5990","343","Ukraine"
"Chervonyy Step","49.7406","28.3689","139","Ukraine"
"Yehorivka","47.8666","36.2900","182","Ukraine"
"Yehorivka","48.2731","34.5154","114","Ukraine"
"Polove","50.1393","32.3531","113","Ukraine"
"Kurhany","50.3936","26.5414","377","Ukraine"
"Velikiy Khodachkov","49.4869","25.4372","1392","Ukraine"
"Obukhivka","48.5442","34.8664","9175","Ukraine"
"Pryvar","51.3308","29.1683","50","Ukraine"
"Malyi Bukryn","49.9150","31.3303","220","Ukraine"
"Serby","50.7786","27.7069","636","Ukraine"
"Novokaterynivka","47.2886","31.4572","920","Ukraine"
"Skoriki","49.5969","26.1425","612","Ukraine"
"Dobrynka","48.6162","36.5420","239","Ukraine"
"Kalyta","50.7503","31.0264","4753","Ukraine"
"Ivano-Frankivsk","48.9228","24.7106","236602","Ukraine"
"Mytyntsi","49.5761","26.9461","620","Ukraine"
"Kobyletska Poliana","48.0822","24.0747","3498","Ukraine"
"Kolomyia","48.5167","25.0333","61269","Ukraine"
"Vyshchi Vil'shany","49.5036","34.4800","37","Ukraine"
"Klochky","48.5206","22.7469","300","Ukraine"
"Zaporizhzhia","47.6006","33.4017","203","Ukraine"
"Mala Roztoka","48.2928","23.0861","510","Ukraine"
"Krynychne","50.5522","35.0576","360","Ukraine"
"Bile","49.6086","24.7697","642","Ukraine"
"Kashtanivka","48.0500","35.8111","69","Ukraine"
"Vesele Pole","48.0688","33.6696","311","Ukraine"
"Osykuvate","48.4052","33.7695","674","Ukraine"
"Khmel'ovyk","50.2700","31.6025","180","Ukraine"
"Dubove","48.2756","35.3902","141","Ukraine"
"Chortkiv","49.0167","25.8000","29169","Ukraine"
"Nove Zhyttia","47.7483","33.5545","54","Ukraine"
"Novopetrivka","49.0059","34.9807","855","Ukraine"
"Novopetrivka","47.9738","33.7484","135","Ukraine"
"Khomenky","48.6853","28.2306","2165","Ukraine"
"Dniprovske","48.5953","34.4207","5628","Ukraine"
"Dniprovske","48.1935","34.8209","263","Ukraine"
"Dniprovske","48.2101","35.6093","42","Ukraine"
"Ivankivtsi","49.8550","28.6706","683","Ukraine"
"Khutoro-Hubynykha","48.7157","35.0770","790","Ukraine"
"Shevchenkivske","48.1892","35.7345","38","Ukraine"
"Verkhnii Luzhok","49.3617","23.0181","1216","Ukraine"
"Kozari","49.2439","24.4378","986","Ukraine"
"Kucheriv Yar","48.5064","37.2744","248","Ukraine"
"Zorivka","46.6789","32.3783","246","Ukraine"
"Kruhle","50.2443","34.4627","41","Ukraine"
"Bobulintsy","49.1686","25.3519","763","Ukraine"
"Tesnivka","50.3781","29.0264","267","Ukraine"
"Botyn","50.7558","25.6192","147","Ukraine"
"Vilnia","50.2694","29.2814","330","Ukraine"
"Tokari","50.4148","33.4274","1511","Ukraine"
"Cherniavka","49.3356","29.3458","989","Ukraine"
"Ploske","51.4572","24.0156","148","Ukraine"
"Bilohiria","47.5255","35.9914","315","Ukraine"
"Siltse","50.4614","24.7097","794","Ukraine"
"Siltse","51.7667","24.4636","608","Ukraine"
"Yavoriv","49.9469","23.3931","13057","Ukraine"
"Kachanivka","49.6392","27.8969","1337","Ukraine"
"Kolybaivka","48.6411","26.5450","1742","Ukraine"
"Maksymivka","47.8810","34.2129","113","Ukraine"
"Osychky","50.5719","29.1161","510","Ukraine"
"Polohy","49.9156","30.1147","1331","Ukraine"
"Smotryky","50.2750","32.1547","953","Ukraine"
"Podishor","48.0422","23.8658","1183","Ukraine"
"Chabyn","48.5397","22.8131","168","Ukraine"
"Filiya","48.0849","36.7524","133","Ukraine"
"Molodkiv","48.6568","24.5085","2629","Ukraine"
"Barvynivka","50.5017","27.8117","698","Ukraine"
"Zavydiv","50.5883","24.6031","658","Ukraine"
"Burshtyn","49.2600","24.6350","15039","Ukraine"
"Tetiiv","49.3708","29.6900","13015","Ukraine"
"Romaniv","50.1517","27.9392","7558","Ukraine"
"Terentiivka","49.6308","34.6625","699","Ukraine"
"Shevske","48.9923","34.9211","573","Ukraine"
"Kovtunivka","50.0156","32.2678","117","Ukraine"
"Oleksandro-Hryhorivka","48.7704","33.8207","16","Ukraine"
"Kamiani Potoky","48.9859","33.5186","3662","Ukraine"
"Zastav'ye","51.2472","24.2058","106","Ukraine"
"Poltavske","48.5084","36.6985","45","Ukraine"
"Odayev","48.8608","25.1561","362","Ukraine"
"Voloskivtsi","50.3969","26.5964","418","Ukraine"
"Bycheva","49.7506","27.7778","681","Ukraine"
"Bakhmutske","48.6603","38.0997","784","Ukraine"
"Leonivka","48.3383","28.5836","284","Ukraine"
"Ivanivka","48.2325","38.9525","8243","Ukraine"
"Novomykhaylivka","49.2031","37.8689","63","Ukraine"
"Novomykhaylivka","48.2148","33.6888","28","Ukraine"
"Lymanske","48.5310","35.5808","217","Ukraine"
"Krasnohorivka","48.4626","36.6924","160","Ukraine"
"Yezupil","49.0431","24.7764","2807","Ukraine"
"Nove","46.8658","31.6953","109","Ukraine"
"Stepnohirsk","47.5861","35.3638","4420","Ukraine"
"Olhyne","47.4753","33.4878","419","Ukraine"
"Staromeshchizna","49.5475","26.1578","827","Ukraine"
"Kam'yans'ke","47.8743","33.7649","33","Ukraine"
"Ivankovtsy","49.9807","25.8456","388","Ukraine"
"Yapolot","50.9850","26.2533","823","Ukraine"
"Hurzuf","44.5528","34.2875","9117","Ukraine"
"Berezhnytsya","49.2089","23.9128","621","Ukraine"
"Berezhnytsya","49.4611","23.1200","368","Ukraine"
"Verkhivka","50.7078","25.5847","163","Ukraine"
"Nove","46.3644","33.6106","315","Ukraine"
"Ukrainka","47.8754","33.9829","177","Ukraine"
"Kostopil","50.8833","26.4431","31463","Ukraine"
"Avratyn","49.8761","27.8264","407","Ukraine"
"Zabuzhzhya","51.3589","23.6931","829","Ukraine"
"Zoriane","49.0405","35.0748","192","Ukraine"
"Bairachky","48.3883","38.5992","1065","Ukraine"
"Dzhulynka","48.4417","29.7475","3953","Ukraine"
"Kanora","48.7328","23.2094","792","Ukraine"
"Vidrozhennia","48.5278","38.2211","187","Ukraine"
"Bilousivka","49.9453","32.3714","2473","Ukraine"
"Luhova","48.3653","29.7456","627","Ukraine"
"Torets","48.8675","37.4922","209","Ukraine"
"Vakulove","47.8984","33.9327","1338","Ukraine"
"Shyshkove","48.6444","39.2217","267","Ukraine"
"Sholokhove","47.6981","34.0238","3230","Ukraine"
"Isakiv","48.8258","25.2200","875","Ukraine"
"Horishnye","50.4608","25.0467","512","Ukraine"
"Velyki Derevychi","49.9678","27.6050","865","Ukraine"
"Ovdiyivka","50.2720","33.1600","25","Ukraine"
"Nimetska Mokra","48.3769","23.8450","540","Ukraine"
"Lavky","48.4800","22.6944","1299","Ukraine"
"Velyka Burimka","49.6089","32.6381","1967","Ukraine"
"Hlybochok","50.2664","29.0214","224","Ukraine"
"Podove","46.5561","34.1403","1123","Ukraine"
"Korniyivka","50.4183","31.4533","1137","Ukraine"
"Rostan","51.5975","23.6981","410","Ukraine"
"Novoivanivka","46.4597","34.8306","324","Ukraine"
"Yasnohorod","50.1622","28.0078","304","Ukraine"
"Verbychne","50.9947","24.6133","273","Ukraine"
"Pylypenky","50.1901","34.4281","262","Ukraine"
"Kozatske","47.9956","29.6461","635","Ukraine"
"Omelianivka","47.5308","29.2708","34","Ukraine"
"Kopashnovo","48.2156","23.4822","3161","Ukraine"
"Krynychne","47.9528","39.7383","4027","Ukraine"
"Krynychne","51.0142","25.5458","515","Ukraine"
"Vorokhta","48.2833","24.5667","4246","Ukraine"
"Vyshnivchyk","49.0211","26.4672","1897","Ukraine"
"Kozelets","50.9164","31.1147","7968","Ukraine"
"Zaporizke","48.1338","33.9340","440","Ukraine"
"Zaporizke","48.2042","35.5018","184","Ukraine"
"Zaporizke","47.8550","36.5343","103","Ukraine"
"Zaporizke","48.2725","36.7317","98","Ukraine"
"Chernytsya","49.4467","23.9922","991","Ukraine"
"Baibuzy","49.4772","31.6728","1765","Ukraine"
"Tarnava","48.9594","29.6864","409","Ukraine"
"Potik","49.5112","25.0372","582","Ukraine"
"Verbivka","51.3483","23.7472","88","Ukraine"
"Verbivka","49.3781","28.9858","520","Ukraine"
"Verbivka","49.2908","29.4386","430","Ukraine"
"Verbivka","48.7014","28.3519","313","Ukraine"
"Halych","49.1128","24.7217","6196","Ukraine"
"Horzvyn","50.6747","24.9617","296","Ukraine"
"Bolotkovtsy","50.2517","26.3597","536","Ukraine"
"Velyki Budky","50.8093","33.6004","162","Ukraine"
"Boryslav","49.2881","23.4267","37093","Ukraine"
"Sukhonosivka","49.4643","34.8119","89","Ukraine"
"Liubivka","47.6939","38.1558","190","Ukraine"
"Natalivka","46.5117","33.6358","102","Ukraine"
"Maivka","48.6887","34.9589","428","Ukraine"
"Bochanivka","49.6160","34.6809","264","Ukraine"
"Hirne","49.1806","23.7342","1740","Ukraine"
"Lyman","49.5894","36.4700","4184","Ukraine"
"Naderzhynshchyna","49.6631","34.6957","194","Ukraine"
"Rachky","48.9933","28.9058","1452","Ukraine"
"Popivka","49.9714","34.5821","864","Ukraine"
"Popivka","49.8228","34.3684","55","Ukraine"
"Ternavka","48.8169","23.3922","766","Ukraine"
"Verchany","49.2619","23.8992","1594","Ukraine"
"Lozova","48.8892","36.3161","55827","Ukraine"
"Hayky","51.0264","24.3028","211","Ukraine"
"Borodoiarske","49.4346","36.9511","221","Ukraine"
"Zmahannia","46.8436","34.6683","207","Ukraine"
"Zelena Balka","47.2413","34.5289","1","Ukraine"
"Sukhovolya","50.4994","24.3658","364","Ukraine"
"Lypetska Poliana","48.3344","23.3594","2544","Ukraine"
"Sohats'ka Balka","49.7995","34.3625","69","Ukraine"
"Pashkivtsi","49.7686","27.1319","1323","Ukraine"
"Velykyi Bychkiv","47.9714","24.0047","9255","Ukraine"
"Yasenytsia","49.1942","23.1636","867","Ukraine"
"Khartsyzk","48.0333","38.1500","59763","Ukraine"
"Kostyantynivka","48.2061","34.4890","105","Ukraine"
"Mykhailivka","47.9868","34.5226","164","Ukraine"
"Mykhailivka","48.1617","34.3100","53","Ukraine"
"Mykhailivka","48.7647","33.8878","42","Ukraine"
"Potashnia","48.3131","29.6122","1510","Ukraine"
"Vilne","48.7427","35.2941","1994","Ukraine"
"Vilne","48.2985","33.6565","479","Ukraine"
"Vilne","48.3290","34.1151","448","Ukraine"
"Vilne","47.9962","34.5542","82","Ukraine"
"Solianuvatka","49.5922","22.7844","552","Ukraine"
"Kapustyntsi","49.5250","29.5969","469","Ukraine"
"Maliyivs'ke","48.4739","36.7977","228","Ukraine"
"Bohunivka","48.0462","35.7553","49","Ukraine"
"Stepove","49.1233","39.3817","340","Ukraine"
"Lukasheva","49.2475","28.9414","750","Ukraine"
"Khreshchatytske","47.2331","37.9269","1235","Ukraine"
"Kamianka","47.9590","33.7760","888","Ukraine"
"Kamianka","47.5731","38.1778","297","Ukraine"
"Malyn","50.7689","29.2700","26204","Ukraine"
"Andriyivka","48.7665","35.4561","385","Ukraine"
"Andriyivka","48.1372","35.3310","342","Ukraine"
"Andriyivka","48.2323","35.7079","174","Ukraine"
"Rudenka","50.3406","28.8494","115","Ukraine"
"Chervona Balka","50.4696","33.3952","21","Ukraine"
"Ivashkivtsi","48.8683","23.1131","52","Ukraine"
"Monaster","48.8225","25.2606","111","Ukraine"
"Dolynka","48.3078","28.6047","124","Ukraine"
"Brailiv","49.1053","28.1536","4574","Ukraine"
"Hrabiv","48.9047","23.9989","1723","Ukraine"
"Nova Rus'","48.6274","36.2391","466","Ukraine"
"Tsipky","50.4551","34.0669","720","Ukraine"
"Krasne","47.6092","34.0840","5","Ukraine"
"Yastzhembkuv","49.6386","23.7986","191","Ukraine"
"Tymchenky","50.1115","34.5053","26","Ukraine"
"Kurortne","44.9131","35.1914","331","Ukraine"
"Slobodka-Mushkatovka","48.8114","26.1010","1166","Ukraine"
"Tarasivka","48.7358","28.8467","866","Ukraine"
"Tarasivka","48.9072","28.1714","688","Ukraine"
"Almazna","48.5167","38.5833","4301","Ukraine"
"Vesnianka","50.8208","25.5086","327","Ukraine"
"Fontanka","46.5644","30.8586","6260","Ukraine"
"Malomykolayivka","48.4397","36.3700","330","Ukraine"
"Bukhariv","50.5089","26.5572","245","Ukraine"
"Hordynia","49.5369","23.3867","988","Ukraine"
"Dmytrivka","46.6339","31.7350","1193","Ukraine"
"Vasyle-Ustymivka","50.0245","34.3158","275","Ukraine"
"Gannovka","49.3758","29.3536","15","Ukraine"
"Chernivtsi","48.5425","28.1122","2725","Ukraine"
"Puchkivshchyna","50.4011","33.5145","7","Ukraine"
"Turbai","49.4886","33.6360","210","Ukraine"
"Tatariv","48.3436","24.5778","1508","Ukraine"
"Borok","50.3075","29.2122","47","Ukraine"
"Tomashhorod","51.3122","27.0250","2487","Ukraine"
"Slavne","48.3053","36.7290","334","Ukraine"
"Palanka","48.7294","30.0983","1608","Ukraine"
"Veselynove","47.3583","31.2397","5785","Ukraine"
"Suskovo","48.5422","22.9153","1468","Ukraine"
"Vistria","48.9247","25.1311","1050","Ukraine"
"Pochyno-Sofiyivka","48.8933","35.0636","931","Ukraine"
"Novoyavorovskoye","49.9311","23.5731","30723","Ukraine"
"Semianivka","49.6661","34.5932","989","Ukraine"
"Tsvitove","50.0723","34.2123","2","Ukraine"
"Buchyna","50.0225","25.2992","123","Ukraine"
"Luka","50.3689","30.1697","712","Ukraine"
"Orilka","48.9805","36.0075","3095","Ukraine"
"Pelenkivshchyna","50.1897","34.3379","24","Ukraine"
"Baidakivka","48.6260","33.8029","510","Ukraine"
"Osynove","49.5636","39.0675","2240","Ukraine"
"Menchykury","47.0711","34.8041","1527","Ukraine"
"Kulishi","48.6276","34.4991","166","Ukraine"
"Koropove","49.5903","36.3419","159","Ukraine"
"Vorozhba","51.1749","34.2299","6972","Ukraine"
"Novoozerne","45.3858","33.1200","4998","Ukraine"
"Tlumach","48.8669","25.0012","8886","Ukraine"
"Ilarionove","48.4059","35.2734","8854","Ukraine"
"Makukhy","50.0022","34.3980","18","Ukraine"
"Lavy","51.5939","32.4672","604","Ukraine"
"Chovno-Fedorivka","49.9998","34.4340","568","Ukraine"
"Zavitne","50.9364","25.4903","445","Ukraine"
"Motashivka","50.8003","25.2083","25","Ukraine"
"Rudnyky","49.4489","23.9136","3197","Ukraine"
"Odradivka","50.1453","34.4140","33","Ukraine"
"Chervonyy Orlyk","48.1911","33.9951","20","Ukraine"
"Tyvriv","49.0116","28.5011","4006","Ukraine"
"Pidhaytsi","50.8006","24.4744","160","Ukraine"
"Illiashivka","48.5428","28.9547","805","Ukraine"
"Tykhyi Stav","47.6189","33.0759","607","Ukraine"
"Chervone","49.9497","28.8686","2859","Ukraine"
"Poperechne","48.6325","36.1223","204","Ukraine"
"Opishnyany","49.6416","34.7791","86","Ukraine"
"Chervone","48.2232","33.5341","825","Ukraine"
"Chervone","47.7313","33.1432","199","Ukraine"
"Chervone","48.1729","34.2841","51","Ukraine"
"Holma","47.9211","29.8531","1635","Ukraine"
"Lychkove","49.0918","35.2078","2822","Ukraine"
"Velyki Huliaky","50.1658","29.6983","577","Ukraine"
"Velbivka","50.3430","34.0463","1379","Ukraine"
"Solone Ozero","45.8847","34.4500","838","Ukraine"
"Nemyrivske","47.9231","29.7458","622","Ukraine"
"Velykyi Dalnyk","46.4658","30.5583","7655","Ukraine"
"Bilokrynnytsia","50.1429","25.7497","2215","Ukraine"
"Kramarka","48.9430","35.1076","317","Ukraine"
"Krasnostavtsi","48.5328","25.4831","1093","Ukraine"
"Chervonokam'yane","48.2037","34.9671","57","Ukraine"
"Shyrokosmolena","48.4854","35.3808","128","Ukraine"
"Ozaryntsi","48.5406","27.8069","1987","Ukraine"
"Bilivtsi","48.5134","26.3628","579","Ukraine"
"Luhyny","51.0667","28.3833","4077","Ukraine"
"Ternuvatyy Kut","48.0557","33.5386","112","Ukraine"
"Stari Kryvotuly","48.7858","24.8556","2466","Ukraine"
"Birky","51.8081","25.1947","1599","Ukraine"
"Birky","51.2467","24.0753","723","Ukraine"
"Kam'yane","48.2713","33.6778","81","Ukraine"
"Shyroka Balka","46.7925","34.5336","158","Ukraine"
"Vyshneve","48.9447","26.2825","151","Ukraine"
"Luchyste","44.7436","34.3711","1180","Ukraine"
"Mezhova","48.2563","36.7313","7380","Ukraine"
"Sofiivka","48.2683","38.1847","9597","Ukraine"
"Sofiivka","48.0727","33.8937","6748","Ukraine"
"Liashkivka","49.0047","34.3975","990","Ukraine"
"Snitivka","49.3253","27.5278","423","Ukraine"
"V'yazivok","48.6430","35.7708","1973","Ukraine"
"Komariv","50.3994","24.3192","765","Ukraine"
"Komariv","49.2711","23.9497","428","Ukraine"
"Myrne","49.4806","34.1400","54","Ukraine"
"Myrne","50.2211","35.0649","265","Ukraine"
"Hrabovets'","48.8858","23.4222","96","Ukraine"
"Chudniv","50.0528","28.0969","5583","Ukraine"
"Semenivka","47.9347","31.0594","1937","Ukraine"
"Slynkivshchyna","50.2917","34.4067","4","Ukraine"
"Kyrnasivka","48.5914","28.9800","5087","Ukraine"
"Tomakivka","47.8163","34.7471","6957","Ukraine"
"Tomakivka","48.1144","34.3243","199","Ukraine"
"Novostroyivka","48.8578","35.7140","127","Ukraine"
"Kalynivka","48.1732","35.0742","506","Ukraine"
"Kalynivka","48.2681","34.2449","274","Ukraine"
"Kalynivka","48.2107","33.6003","248","Ukraine"
"Kalynivka","47.7833","33.4994","109","Ukraine"
"Kalynivka","48.4508","33.6099","84","Ukraine"
"Kalynivka","48.3436","36.8289","139","Ukraine"
"Berestove","48.0658","35.8909","152","Ukraine"
"Krasnyk","48.1444","24.7364","1086","Ukraine"
"Romanivka","48.2669","29.6739","374","Ukraine"
"Romanivka","50.5461","25.2281","95","Ukraine"
"Sharovechka","49.4150","26.8986","2359","Ukraine"
"Hlynne","49.4483","23.4775","37","Ukraine"
"Priadivka","48.9198","34.7067","1922","Ukraine"
"Artynsk","51.2531","27.7442","215","Ukraine"
"Babyn","49.1314","29.3228","1247","Ukraine"
"Romny","50.7428","33.4879","40316","Ukraine"
"Kupievate","49.4348","33.6133","422","Ukraine"
"Zahradivka","47.5214","33.2772","717","Ukraine"
"Borisov","50.1753","26.6481","1491","Ukraine"
"Zahorivka","51.1981","25.5267","111","Ukraine"
"Shcherbani","49.5334","34.5385","1864","Ukraine"
"Odrubok","47.9912","34.0005","77","Ukraine"
"Dzhemilne","49.3192","38.5917","133","Ukraine"
"Kizlivka","50.2539","32.9147","842","Ukraine"
"Polovynkyne","49.2250","38.9150","2913","Ukraine"
"Nyshche","49.8050","25.1188","202","Ukraine"
"Koviahy","49.9044","35.5586","3045","Ukraine"
"Dovhe","49.1744","23.8672","963","Ukraine"
"Dovhe","49.1653","23.3406","768","Ukraine"
"Martivka","46.5711","34.6350","13","Ukraine"
"Uklyn","48.6622","22.9833","380","Ukraine"
"Honcharove","48.0863","33.7540","111","Ukraine"
"Sobolivka","49.3353","28.6489","402","Ukraine"
"Novosilky","49.7786","24.6517","411","Ukraine"
"Pishchatyn'tse","48.7842","25.9913","744","Ukraine"
"Komisarivka","48.4622","33.7928","967","Ukraine"
"Hyryavi Iskivtsi","50.4247","33.3134","1040","Ukraine"
"Pivdenne","47.6674","34.3610","1327","Ukraine"
"Zelene","50.3972","25.0358","480","Ukraine"
"Rohivske","48.4208","34.4865","197","Ukraine"
"Holovy","48.0619","24.8789","1599","Ukraine"
"Zernove","46.9408","34.6853","220","Ukraine"
"Makariv","50.4667","29.8167","9836","Ukraine"
"Mykil's'ke-na-Dnipri","48.2037","35.1734","887","Ukraine"
"Abrykosivka","45.1097","35.0986","1079","Ukraine"
"Chaplynka","48.7348","34.7726","1978","Ukraine"
"Nikopol","47.5772","34.3575","112102","Ukraine"
"Morozovka","48.7511","27.6383","718","Ukraine"
"Hleiuvatka","48.0475","33.4220","1371","Ukraine"
"Kalashnyky","49.5100","34.3270","468","Ukraine"
"Berezniki","51.8708","24.6800","124","Ukraine"
"Anhelinivka","46.8925","29.9458","326","Ukraine"
"Velyke","49.7958","28.9333","303","Ukraine"
"Sorochyne","48.7545","34.4319","360","Ukraine"
"Uman","48.7500","30.2167","82762","Ukraine"
"Trushki","49.7544","29.9428","2531","Ukraine"
"Kozerohy","51.3081","31.0389","263","Ukraine"
"Novozhytomyr","47.9248","33.6510","343","Ukraine"
"Dachne","51.8842","32.7825","187","Ukraine"
"Chervona Dolyna","49.6213","34.3379","9","Ukraine"
"Hayivshchyna","50.3745","33.3893","441","Ukraine"
"Snopove","49.5082","34.3934","80","Ukraine"
"Lozuvatka","48.0610","33.2927","6730","Ukraine"
"Lozuvatka","48.4665","33.8825","1142","Ukraine"
"Lozuvatka","48.2279","34.3433","152","Ukraine"
"Velyka Homilsha","49.5556","36.2583","466","Ukraine"
"Lymarivka","49.3219","39.5925","351","Ukraine"
"Adamove","50.8311","27.4831","67","Ukraine"
"Susval","50.9111","24.4283","626","Ukraine"
"Lavryky","49.6122","34.3709","94","Ukraine"
"Nyzhniy Dubovets'","48.1592","23.9089","1121","Ukraine"
"Lypa","50.4447","25.1369","354","Ukraine"
"Lypa","50.9281","24.7467","246","Ukraine"
"Dolyna","49.6988","34.3580","76","Ukraine"
"Kopachivka","50.8819","25.2267","1327","Ukraine"
"Afanasiivka","47.0214","32.8147","630","Ukraine"
"Chornivka","48.4186","26.0106","2364","Ukraine"
"Yablunivka","47.7474","33.1474","117","Ukraine"
"Vynohrad","49.2364","30.5472","1294","Ukraine"
"Nehrovo","48.3719","22.9094","1116","Ukraine"
"Hrabky","48.9315","35.0625","47","Ukraine"
"Ostrivok","50.3611","23.8761","139","Ukraine"
"Ustia-Zelene","49.0269","24.9642","585","Ukraine"
"Slobodo-Petrivka","50.1203","32.3792","783","Ukraine"
"Peretoky","50.5764","24.3819","862","Ukraine"
"Solonka","49.7400","24.0300","3391","Ukraine"
"Holoskovychi","50.0233","25.0756","530","Ukraine"
"Krasnostavtsy","48.7972","26.3981","1149","Ukraine"
"Hanno-Mykolaivka","48.2050","33.8895","139","Ukraine"
"Chaus","48.1819","36.5223","63","Ukraine"
"Sharivka","50.0272","35.4411","1674","Ukraine"
"Sokilets","48.8719","28.7214","853","Ukraine"
"Sokilets","49.6833","28.8756","539","Ukraine"
"Novoselytsya","48.4047","22.8550","267","Ukraine"
"Bila Krynytsia","50.6364","29.4636","848","Ukraine"
"Batovo","48.3667","22.3833","3003","Ukraine"
"Berezniaky","49.8574","33.0178","884","Ukraine"
"Hvozdets'","49.3061","22.9281","103","Ukraine"
"Starytsia","50.2425","36.7914","643","Ukraine"
"Berezovo","48.3039","23.4892","3000","Ukraine"
"Dontsove","46.8786","34.5797","379","Ukraine"
"Potik","49.7622","31.0542","1106","Ukraine"
"Kashperivka","49.4311","29.6814","3689","Ukraine"
"Novi Kryvotuly","48.7936","24.9039","1008","Ukraine"
"Stavkove","49.9770","34.3154","549","Ukraine"
"Veselyi Khutir","49.6547","32.4633","729","Ukraine"
"Shevchenkove","48.1799","36.2174","601","Ukraine"
"Shevchenkove","47.8820","34.1488","453","Ukraine"
"Shevchenkove","47.9931","33.5828","153","Ukraine"
"Mosyr","51.0392","24.0833","365","Ukraine"
"Petrivka","48.4122","36.3147","452","Ukraine"
"Petrivka","48.0069","34.1544","125","Ukraine"
"Petrivka","48.4427","33.6463","33","Ukraine"
"Kaznacheyivka","48.7958","35.0811","1107","Ukraine"
"Pluhiv","49.7489","25.0250","809","Ukraine"
"Viliia","50.1950","26.2639","662","Ukraine"
"Ustia","48.3778","29.6606","2610","Ukraine"
"Pervomaiske","49.4117","36.7501","78","Ukraine"
"Katerynivka","48.0141","36.1312","1317","Ukraine"
"Katerynivka","48.4103","36.2517","295","Ukraine"
"Katerynivka","48.8201","34.3723","92","Ukraine"
"Katerynivka","48.7330","33.8444","59","Ukraine"
"Katerynivka","48.0618","34.0653","24","Ukraine"
"Myropil","50.1075","27.7058","4576","Ukraine"
"Kulisheve","48.7768","34.6755","73","Ukraine"
"Volokytyne","51.4594","33.8139","515","Ukraine"
"Rovzhi","50.8547","30.6017","37","Ukraine"
"Rava-Rus'ka","50.2500","23.6167","8647","Ukraine"
"Tetleha","49.9325","36.7175","245","Ukraine"
"Nova Kakhovka","46.7667","33.3667","69280","Ukraine"
"Vyshcha Kropyvna","48.9058","29.1503","642","Ukraine"
"Hannivka","46.8440","36.0390","700","Ukraine"
"Bohdanivka","48.5015","36.1100","5016","Ukraine"
"Bohdanivka","48.2218","36.5704","510","Ukraine"
"Pidplesha","48.1314","23.8003","1244","Ukraine"
"Saksahan","48.3468","33.8406","2603","Ukraine"
"Sozan","49.4408","23.0358","450","Ukraine"
"Novoselivka","47.7742","33.2729","400","Ukraine"
"Novoselivka","48.5659","35.2483","968","Ukraine"
"Novoselivka","48.4526","34.4609","509","Ukraine"
"Novoselivka","48.4959","36.5731","267","Ukraine"
"Novoselivka","47.8085","34.3710","117","Ukraine"
"Novoselivka","48.2018","34.9241","66","Ukraine"
"Novoselivka","47.9468","33.6109","71","Ukraine"
"Novoselivka","48.8583","34.3983","62","Ukraine"
"Sokolivka","48.4419","28.9922","2134","Ukraine"
"Savyntsi","48.4775","29.0544","1022","Ukraine"
"Ploskanovytsya","48.4850","22.8944","254","Ukraine"
"Yosypivka","49.1402","35.1464","297","Ukraine"
"Andrushky","49.5912","34.6411","63","Ukraine"
"Sudova Vyshnya","49.7892","23.3722","6538","Ukraine"
"Luzhky","50.2242","23.6644","125","Ukraine"
"Richytsya","51.7589","24.6575","1285","Ukraine"
"Novoandriivka","47.9727","34.5815","109","Ukraine"
"Vysokyi Kamin","50.3661","29.1467","67","Ukraine"
"Vilytsya","51.4914","24.0542","158","Ukraine"
"Novotaromske","48.4015","34.6784","1751","Ukraine"
"Sopit","49.1408","23.3811","722","Ukraine"
"Brazhenets","50.3044","29.3142","54","Ukraine"
"Bilky","48.9531","29.2939","728","Ukraine"
"Hrushuvato-Krynychne","48.2509","35.2447","173","Ukraine"
"Marhanets","47.6480","34.6167","47141","Ukraine"
"Velyki Sorochyntsi","50.0253","33.9477","4050","Ukraine"
"Verkhnodniprovsk","48.6561","34.3283","10314","Ukraine"
"Prymorske","47.6244","35.2943","3840","Ukraine"
"Yur'yivka","48.7397","36.0216","2195","Ukraine"
"Yur'yivka","48.4271","36.6731","49","Ukraine"
"Hvozdykivka","51.8367","31.9058","466","Ukraine"
"Khotyn","48.5078","26.4860","9262","Ukraine"
"Makorty","48.2305","33.7625","472","Ukraine"
"Dankivtsi","48.4239","26.5106","1000","Ukraine"
"Aeroflotskyi","45.0194","34.0000","2325","Ukraine"
"Cheremoshna","48.0428","24.9300","650","Ukraine"
"Shulikivka","49.3150","39.4897","401","Ukraine"
"Khodorkiv","50.0972","29.3081","1371","Ukraine"
"Avdiivka","48.1333","37.7500","34938","Ukraine"
"Rovenky","48.0833","39.3667","46734","Ukraine"
"Lypne","51.0189","26.0344","1976","Ukraine"
"Kokhanivka","48.5224","36.4423","476","Ukraine"
"Mikolayuvka","48.8650","25.4083","518","Ukraine"
"Tykha","49.4014","22.7792","223","Ukraine"
"Serdyuky","49.5075","34.3403","273","Ukraine"
"Kotsurov","49.7133","24.2936","171","Ukraine"
"Oradivka","48.7628","29.9817","907","Ukraine"
"Holovky","49.7528","34.7103","22","Ukraine"
"Zaporizhzhia","47.8378","35.1383","741717","Ukraine"
"Burdiuh","48.4806","26.8886","934","Ukraine"
"Skelyuvate","47.9981","35.3475","158","Ukraine"
"Dykanka","49.8222","34.5341","7662","Ukraine"
"Znamianka","48.7456","38.9058","63","Ukraine"
"Ksaverivka","50.4347","28.5081","413","Ukraine"
"Bystryk","49.7364","29.1436","1557","Ukraine"
"Sievierodonetsk","48.9500","38.4833","150000","Ukraine"
"Myrnohrad","48.3022","37.2614","50360","Ukraine"
"Hubnyk","48.6192","29.3306","2055","Ukraine"
"Yablunets","50.8000","28.0667","1121","Ukraine"
"Kurenivka","48.2522","29.2047","439","Ukraine"
"Novyi Kryvyn","50.3839","26.6992","13","Ukraine"
"Turbiv","49.3463","28.7244","6326","Ukraine"
"Prydniprovske","47.6182","34.4506","2443","Ukraine"
"Lebedyn","50.5831","34.4823","14301","Ukraine"
"Palmyrivka","48.5089","33.6638","514","Ukraine"
"Dobromyl","49.5667","22.7833","4890","Ukraine"
"Zamoriyivka","50.3224","33.5680","59","Ukraine"
"Frontivka","49.0939","29.5625","733","Ukraine"
"Pokrovske","50.0494","34.3771","556","Ukraine"
"Pokrovske","50.0414","33.3229","262","Ukraine"
"Dnistrivka","48.5361","26.9258","1208","Ukraine"
"Hrushka","48.4447","27.9928","458","Ukraine"
"Novoselytsia","49.3828","28.1794","413","Ukraine"
"Novoselytsia","49.1686","28.0475","331","Ukraine"
"Berezan","50.3197","31.4700","16506","Ukraine"
"Novhorod","47.5441","36.9187","260","Ukraine"
"Solone","48.2054","34.8686","7628","Ukraine"
"Solone","48.1912","36.5203","105","Ukraine"
"Derzhanivka","49.6922","27.8042","171","Ukraine"
"Derzhanivka","49.8139","28.8161","110","Ukraine"
"Lysianka","49.2542","30.8207","8161","Ukraine"
"Tsybuleve","48.8144","32.4878","1797","Ukraine"
"Kyslychuvata","47.8508","34.7262","1657","Ukraine"
"Kovel","51.2167","24.7167","69089","Ukraine"
"Novooleksandrivka","49.1336","39.2789","1128","Ukraine"
"Simferopol","44.9484","34.1000","341799","Ukraine"
"Rozivka","47.3929","37.0694","3140","Ukraine"
"Rozivka","46.5023","34.9572","630","Ukraine"
"Slovianka","47.7699","33.9918","213","Ukraine"
"Oleksandriya","50.8106","25.5464","112","Ukraine"
"Staishche","48.1865","24.7333","246","Ukraine"
"Uhryniv","50.5661","25.0633","731","Ukraine"
"Novohryhorivka","48.6397","38.8908","43","Ukraine"
"Novosadove","49.1267","37.9706","32","Ukraine"
"Vil'khivshchyna","49.6589","34.8490","67","Ukraine"
"Bratske","46.7936","34.1461","377","Ukraine"
"Krynychky","48.4131","28.7428","111","Ukraine"
"Putylivka","50.7958","25.7947","100","Ukraine"
"Borynia","49.0778","22.9953","1402","Ukraine"
"Pervomaiskyi","47.9736","38.7875","2837","Ukraine"
"Solochyn","48.6003","22.9564","1111","Ukraine"
"Novomar'yanivs'ke","47.8598","33.6053","113","Ukraine"
"Bila Tserkva","49.7956","30.1167","208944","Ukraine"
"Chernihiv","51.4939","31.2947","294522","Ukraine"
"Surs'ko-Klevtseve","48.3098","34.8857","201","Ukraine"
"Hranitne","48.8506","28.9944","25","Ukraine"
"Starodobrovilske","47.7677","33.2288","314","Ukraine"
"Zavydiv","50.4122","26.3283","94","Ukraine"
"Pidhorodna","48.1070","30.8895","2225","Ukraine"
"Mykilske","48.2015","34.6895","308","Ukraine"
"Bazhany","48.4086","36.1217","240","Ukraine"
"Velykyi Brataliv","49.9919","27.9489","287","Ukraine"
"Rozhdestvenske","49.8681","32.1619","347","Ukraine"
"Oreanda","44.4586","34.1367","835","Ukraine"
"Bakovtsy","49.5414","24.3669","383","Ukraine"
"Myshutyne","51.5102","34.1759","86","Ukraine"
"Berezhnytsia","48.2036","24.8353","309","Ukraine"
"Mokhnatyn","51.5919","31.0636","536","Ukraine"
"Vysunsk","47.2564","32.8189","2191","Ukraine"
"Blazhenyk","50.9822","24.3853","148","Ukraine"
"Kramatorsk","48.7208","37.5556","159445","Ukraine"
"Makiivka","48.0556","37.9611","347376","Ukraine"
"Smila","49.7800","28.1642","369","Ukraine"
"Lytvynivka","49.3111","39.4414","1168","Ukraine"
"Rozsoshentsi","49.5406","34.5042","6731","Ukraine"
"Skomoroshky","49.3292","29.4408","1435","Ukraine"
"Arkhanhelska Sloboda","46.6350","33.7047","1136","Ukraine"
"Nove","50.4892","33.0562","59","Ukraine"
"Khomutets","50.0619","33.7235","2477","Ukraine"
"Bilousivka","48.6622","29.1331","888","Ukraine"
"Kurazh","50.4547","26.7131","107","Ukraine"
"Khyzhyne","48.0653","34.4212","90","Ukraine"
"Kardashi","48.3308","36.2642","205","Ukraine"
"Vyshhorod","50.5833","30.5000","27825","Ukraine"
"Koriukivka","51.7833","32.2500","12539","Ukraine"
"Mali Kopani","46.4356","32.7289","2147","Ukraine"
"Velyka Dymerka","50.5928","30.9103","9554","Ukraine"
"Sim'yanivka","51.1589","33.3558","865","Ukraine"
"Ternivka","48.5231","36.0826","27929","Ukraine"
"Ivankov","48.8242","26.1724","1718","Ukraine"
"Nyzhnia Krynka","48.1144","38.1606","13927","Ukraine"
"Zavidovichi","49.7000","23.6328","918","Ukraine"
"Andriyashivka","48.4081","28.7183","105","Ukraine"
"Ivashky","49.5899","34.4114","672","Ukraine"
"Biliaky","49.5818","33.4320","885","Ukraine"
"Propashne","48.0433","34.4890","244","Ukraine"
"Maidan-Verbetskyi","49.3653","27.7831","301","Ukraine"
"Chornoparivka","48.1637","34.5713","222","Ukraine"
"Olen'ovo","48.6689","22.8753","440","Ukraine"
"Medynia","49.0917","24.5769","1511","Ukraine"
"Bilohrudove","46.5503","32.5231","293","Ukraine"
"Damaska","49.9949","34.3439","257","Ukraine"
"Pily","50.1233","23.8686","307","Ukraine"
"Burkut","47.9428","24.6950","10","Ukraine"
"Sichkarivka","48.8917","35.1575","265","Ukraine"
"Krynychne","45.5358","28.6678","4348","Ukraine"
"Dolynivka","45.9944","29.5272","751","Ukraine"
"Vyhnanka","48.8628","28.8133","33","Ukraine"
"Vyhnanka","51.2928","24.2828","250","Ukraine"
"Troyits'ke","48.4140","35.8668","1392","Ukraine"
"Troyits'ke","48.9296","35.3206","143","Ukraine"
"Sitnyy","48.1225","24.2939","142","Ukraine"
"Borivtsi","48.5867","25.6361","1601","Ukraine"
"Olenivka","47.8333","37.6500","4549","Ukraine"
"Shyroke","47.4224","35.4018","715","Ukraine"
"Ivanivtsi","49.4633","27.8217","322","Ukraine"
"Pryvovchanske","48.4609","35.8675","918","Ukraine"
"Trofanivka","48.5375","25.2994","704","Ukraine"
"Vasiukivka","48.7428","37.9889","601","Ukraine"
"Hubivka","48.3372","32.3964","721","Ukraine"
"Novi Kovna","47.9794","33.9761","92","Ukraine"
"Horikhove","50.2158","29.1514","135","Ukraine"
"Nekrasove","49.2044","28.2183","890","Ukraine"
"Vershyna-Zgharska","49.8381","32.2022","306","Ukraine"
"Viduty","51.1844","24.3669","134","Ukraine"
"Osnyahy","50.3733","33.8303","304","Ukraine"
"Novomoskovsk","48.6328","35.2239","70749","Ukraine"
"Kryvorudka","49.8839","26.6969","309","Ukraine"
"Yuzhne","46.6222","31.1008","32679","Ukraine"
"Metropol","46.4667","34.3453","550","Ukraine"
"Zelenohirske","47.8728","30.0978","1516","Ukraine"
"Karaykove","48.1481","34.4192","36","Ukraine"
"Zaruddia","49.1539","29.4767","684","Ukraine"
"Kuninova","48.2747","36.4081","72","Ukraine"
"Poverhiv","49.5219","23.7672","246","Ukraine"
"Karpylivka","50.8483","25.8406","1699","Ukraine"
"Volytsya","51.1011","24.5917","95","Ukraine"
"Hirky","51.9183","25.3153","778","Ukraine"
"Vilne","45.5656","34.3064","2055","Ukraine"
"Ostapivka","50.0303","32.2319","273","Ukraine"
"Rudneve","49.2864","37.0013","16","Ukraine"
"Padalky","49.6152","34.4127","600","Ukraine"
"Krasnokutsk","50.0567","35.1492","7455","Ukraine"
"Horodne","51.2714","24.1281","713","Ukraine"
"Vesela Fedorivka","47.7310","34.6815","150","Ukraine"
"Marchenka","46.5325","33.3617","162","Ukraine"
"Nova Tarasivka","49.6675","37.9858","268","Ukraine"
"Poputne","48.2858","36.6584","14","Ukraine"
"Hanno-Opanlynka","46.8870","35.8994","265","Ukraine"
"Strilchyntsi","48.9522","28.6856","629","Ukraine"
"Nova Kaluha","47.4053","33.0514","427","Ukraine"
"Rosishka","47.9850","24.0697","1144","Ukraine"
"Kozlovka","48.2236","29.0575","427","Ukraine"
"Mlinovtsy","49.8725","25.6489","430","Ukraine"
"Kharytynivka","47.8556","29.5931","44","Ukraine"
"Adamivka","50.3769","27.9153","15","Ukraine"
"Adamivka","48.3235","34.2162","1406","Ukraine"
"Topilche","48.0864","24.7375","204","Ukraine"
"Tarasivka","48.5672","33.4789","214","Ukraine"
"Vodolazke","48.4166","36.6287","373","Ukraine"
"Khust","48.1814","23.2978","28424","Ukraine"
"Berizky-Bershadski","48.4150","29.7206","919","Ukraine"
"Rozhny","49.5011","27.6622","300","Ukraine"
"Kyinka","51.4544","31.1983","2552","Ukraine"
"Vidrodzhennia","48.2033","38.5150","43","Ukraine"
"Ostapovo","49.3786","26.0358","1785","Ukraine"
"Hryakuvate","48.2213","35.2996","22","Ukraine"
"Bokhonyky","49.1644","28.3800","1690","Ukraine"
"Bibrka","49.6358","24.2936","3817","Ukraine"
"Piannie","50.6306","25.5731","544","Ukraine"
"Rokyni","50.8333","25.2833","1548","Ukraine"
"Velyka Linyna","49.3853","22.9067","1299","Ukraine"
"Kozachky","49.3011","27.6244","648","Ukraine"
"Horbok","48.3128","22.8761","778","Ukraine"
"Nosivka","50.9300","31.5800","13310","Ukraine"
"Rodionivka","47.9956","33.2323","650","Ukraine"
"Irshansk","50.7167","28.7167","6718","Ukraine"
"Zavadka","49.0128","23.1753","648","Ukraine"
"Zavadka","49.4189","22.9989","187","Ukraine"
"Karpylivka","50.1598","32.6849","333","Ukraine"
"Haloch","48.5550","22.1981","498","Ukraine"
"Vasylivka","48.9889","28.4417","620","Ukraine"
"Vasylivka","48.7033","29.1078","495","Ukraine"
"Vasylivka","49.0228","29.2711","365","Ukraine"
"Zhashkovychi","50.6667","24.4914","580","Ukraine"
"Troyanivka","50.1532","34.2461","102","Ukraine"
"Babyntsi","50.6411","30.0269","2810","Ukraine"
"Petrashivka","49.6941","34.8066","169","Ukraine"
"Urzuf","46.9119","37.0936","2904","Ukraine"
"Ozero","50.8969","25.5322","690","Ukraine"
"Koshary","51.4969","23.6733","60","Ukraine"
"Romaniv","49.7094","24.3414","900","Ukraine"
"Kamianka-Dniprovska","47.4792","34.4232","12638","Ukraine"
"Bakhchysarai","44.7528","33.8608","27351","Ukraine"
"Gorchichnaya","48.9097","26.9378","733","Ukraine"
"Latach","48.8301","25.4855","830","Ukraine"
"Luka","49.5047","23.5031","333","Ukraine"
"Luka","49.7842","25.0056","280","Ukraine"
"Kustyne","52.2425","33.5807","66","Ukraine"
"Kosiv","48.3150","25.0953","8522","Ukraine"
"Zarichchia","50.8383","24.2975","1590","Ukraine"
"Lepetykha","47.3283","33.0503","1190","Ukraine"
"Syahayly","49.6896","34.7832","40","Ukraine"
"Voloshyne","46.1128","33.6464","152","Ukraine"
"Stare Selo","49.7036","24.1917","2119","Ukraine"
"Zelena Dolyna","48.3860","34.1916","276","Ukraine"
"Zelena Dolyna","47.9501","36.1019","108","Ukraine"
"Trostianets","48.5120","29.2137","7655","Ukraine"
"Trostianets","48.3578","28.2317","1545","Ukraine"
"Lozny","49.3114","27.8206","85","Ukraine"
"Rudka","50.4144","24.2061","57","Ukraine"
"Mali Budyshcha","49.9785","34.6045","548","Ukraine"
"Rohoshchi","51.6369","31.1233","86","Ukraine"
"Preobrazhenka","48.9716","34.6129","1066","Ukraine"
"Preobrazhenka","48.2473","34.2971","548","Ukraine"
"Preobrazhenka","48.2786","36.5527","517","Ukraine"
"Simeiz","44.4069","34.0111","3901","Ukraine"
"Spaske","48.6579","35.0499","3145","Ukraine"
"Novotroyits'ke","48.6351","35.5340","617","Ukraine"
"Novotroyits'ke","48.2985","36.5538","201","Ukraine"
"Novotroyits'ke","48.7314","33.7075","18","Ukraine"
"Vitachov","50.1139","30.8722","816","Ukraine"
"Yasne","48.2920","35.6191","147","Ukraine"
"Chemer","51.0989","31.2186","1971","Ukraine"
"Hryhorivske","47.5789","31.5403","478","Ukraine"
"Berehove","47.0023","35.5214","121","Ukraine"
"Berehove","48.2025","22.6375","23732","Ukraine"
"Brianka","48.5133","38.6431","47512","Ukraine"
"Irpin","50.5167","30.2500","56806","Ukraine"
"Krasna Volya","48.3871","33.6267","101","Ukraine"
"Peremozhne","49.0836","38.9275","334","Ukraine"
"Tomakivske","47.8873","34.3841","50","Ukraine"
"Kovalivka","48.2829","34.0697","140","Ukraine"
"Balkove","48.2832","33.6626","27","Ukraine"
"Chervone","49.8028","24.7656","1738","Ukraine"
"Plodorodne","47.1651","35.3162","1577","Ukraine"
"Bazavluchok","47.9441","34.0243","194","Ukraine"
"Tulchyn","48.6744","28.8497","15051","Ukraine"
"Mala Pokrovka","48.5203","36.7295","24","Ukraine"
"Horodnytsya","48.8906","28.9811","89","Ukraine"
"Nova Borova","50.6922","28.6367","5517","Ukraine"
"Pysarivka","48.3264","28.3956","1840","Ukraine"
"Pysarivka","49.1939","28.6011","1448","Ukraine"
"Pysarivka","49.5300","28.4853","851","Ukraine"
"Pysarivka","48.6739","28.1267","712","Ukraine"
"Pershe Travnia","48.1759","33.8855","457","Ukraine"
"Osa","50.9633","24.5469","249","Ukraine"
"Cherkaske","48.7008","35.3844","4252","Ukraine"
"Dubyno","48.5403","22.7914","649","Ukraine"
"Uniatychi","49.3736","23.4158","1138","Ukraine"
"Mshanets","49.3369","22.7722","402","Ukraine"
"Barvynkove","48.9067","37.0131","8660","Ukraine"
"Velyka Kindrativka","47.5972","29.8292","249","Ukraine"
"Narbutivka","51.8638","34.0030","70","Ukraine"
"Moshny","49.5117","31.7442","4799","Ukraine"
"Birky","50.1251","34.1706","1188","Ukraine"
"Vasylivka","49.6392","34.9029","723","Ukraine"
"Volova","48.2431","24.6969","230","Ukraine"
"Kam'yane","47.8742","35.3985","1188","Ukraine"
"Kumachove","47.6239","38.2642","1903","Ukraine"
"Ruchky","50.4913","33.2603","21","Ukraine"
"Korolevo","48.1500","23.1333","10165","Ukraine"
"Hlodosy","48.4614","31.3294","2722","Ukraine"
"Vyshneve","50.4377","33.3846","29","Ukraine"
"Panasivka","50.6185","33.8124","791","Ukraine"
"Kutianka","50.2408","26.3217","480","Ukraine"
"Melniki","49.8914","23.1706","140","Ukraine"
"Trebukhivtsi","49.4297","27.4106","1375","Ukraine"
"Runivshchyna","49.6986","34.7585","791","Ukraine"
"Nonoprychepylivka","48.4272","36.3633","34","Ukraine"
"Velyki Kosharyshcha","50.2864","28.8989","510","Ukraine"
"Lohvyn","49.5519","29.9353","996","Ukraine"
"Moshnyahy","47.9450","29.5047","251","Ukraine"
"Kolona-Mezhova","48.2438","36.8356","262","Ukraine"
"Myrne","46.9502","35.4431","2944","Ukraine"
"Nahoriany","48.4961","27.5736","351","Ukraine"
"Velyka Kyriivka","48.3772","29.6247","1993","Ukraine"
"Chervona Polyana","48.3400","33.5991","135","Ukraine"
"Bokhny","49.3736","27.7067","488","Ukraine"
"Zaitsi","51.4686","31.1231","309","Ukraine"
"Buzivka","49.1302","35.0942","852","Ukraine"
"Skovorodynivka","50.1575","35.7742","547","Ukraine"
"Babychi","48.4431","22.9044","962","Ukraine"
"Napadovka","49.8852","26.0357","1128","Ukraine"
"Razdory","48.3285","35.7045","1739","Ukraine"
"Zhukove","48.3590","36.6002","2","Ukraine"
"Pidiarkiv","49.7339","24.3614","470","Ukraine"
"Troitske","48.7896","33.6878","400","Ukraine"
"Bochechky","51.2994","33.4176","1679","Ukraine"
"Popivka","49.1483","29.0444","485","Ukraine"
"Kostiantynivka","48.5333","37.7167","72888","Ukraine"
"Lyubov","48.1012","34.9164","25","Ukraine"
"Sudanka","49.2864","36.3375","457","Ukraine"
"Myroliubivka","47.8075","33.4181","607","Ukraine"
"Myroliubivka","48.4161","33.5191","464","Ukraine"
"Myroliubivka","48.2994","37.3822","597","Ukraine"
"Hlukhivtsi","49.7728","28.7189","3320","Ukraine"
"Nadtochiyeve","50.9034","34.6671","55","Ukraine"
"Shpakove","50.0584","33.5110","11","Ukraine"
"Vintentsi","49.9395","34.5162","23","Ukraine"
"Rosishky","48.3703","36.5062","419","Ukraine"
"Antopil","50.0689","28.8783","490","Ukraine"
"Lykhivka","48.6874","33.9228","1992","Ukraine"
"Lypcha","48.2628","23.3819","3769","Ukraine"
"Pnikut","49.7110","23.1383","1101","Ukraine"
"Polyanka","49.7369","23.8350","471","Ukraine"
"Livadiia","44.4708","34.1439","1074","Ukraine"
"Pysarenky","49.5074","34.2972","72","Ukraine"
"Teplyk","48.6594","29.7539","6280","Ukraine"
"Zhuravne","49.5081","28.1781","1340","Ukraine"
"Prybuzhzhia","47.6719","31.2422","1989","Ukraine"
"Korsun-Shevchenkivskyi","49.4261","31.2806","18401","Ukraine"
"Pidhirtsi","49.2569","23.9281","846","Ukraine"
"Pidhirtsi","49.4450","24.1553","217","Ukraine"
"Olenivka","45.3833","32.5333","1441","Ukraine"
"Yuvileine","48.5531","39.1742","15830","Ukraine"
"Zaporizhzhya","48.2976","36.4347","123","Ukraine"
"Zaporizhzhya","48.8064","34.9583","54","Ukraine"
"Zaporizhzhya","48.5622","33.7422","25","Ukraine"
"Zelene","47.9082","36.0593","196","Ukraine"
"Sudivka","48.7200","34.4365","6","Ukraine"
"Oleksandrivka","46.5371","35.4897","1049","Ukraine"
"Dovhivka","48.1054","33.8509","167","Ukraine"
"Dovhivka","47.9214","34.2946","142","Ukraine"
"Solomyr","51.8603","26.2519","278","Ukraine"
"Chynadiyovo","48.4833","22.8333","6860","Ukraine"
"Chaplyne","48.1273","36.2374","3783","Ukraine"
"Vovcha Dolyna","50.0539","33.2251","114","Ukraine"
"Kherson","46.6333","32.6000","291428","Ukraine"
"Holovne","51.3333","24.0833","3013","Ukraine"
"Matviivka","49.7780","32.8531","218","Ukraine"
"Horianivske","48.5792","34.8750","1443","Ukraine"
"Vatazhkove","49.4951","34.6696","486","Ukraine"
"Rakshivka","48.3326","35.1008","177","Ukraine"
"Brody","51.7639","24.5275","1255","Ukraine"
"Malaya Ol'shanka","50.0756","30.4644","634","Ukraine"
"Novomykolaivka","50.1072","31.9819","297","Ukraine"
"Prohres","51.5458","33.5473","15","Ukraine"
"Mlyny","50.3875","33.3122","644","Ukraine"
"Abazivka","49.6053","34.3499","1679","Ukraine"
"Pidhaichyky","49.7525","24.4872","638","Ukraine"
"Selyshche","49.8339","28.9181","243","Ukraine"
"Sapozhyne","49.4542","34.5087","85","Ukraine"
"Lazy","48.0581","23.6450","3801","Ukraine"
"Kantakuzivka","50.0836","32.1294","896","Ukraine"
"Chorna Richka","48.0858","24.8686","357","Ukraine"
"Nianchyne","49.7619","38.7081","198","Ukraine"
"Shmakove","48.2048","34.4278","129","Ukraine"
"Izium","49.2238","37.2915","13108","Ukraine"
"Holenyshcheve","49.2839","27.8222","727","Ukraine"
"Kryte","48.6097","22.7008","346","Ukraine"
"Fedorivka","50.2579","34.2413","43","Ukraine"
"Doslidnytske","49.9219","30.1478","1881","Ukraine"
"Kozova","49.4318","25.1544","8989","Ukraine"
"Komarivka","48.7267","29.8383","535","Ukraine"
"Kurhantsi","50.6650","28.3747","127","Ukraine"
"Krasnoillia","48.1081","24.9050","1282","Ukraine"
"Oleksandriya","48.9883","35.2981","12","Ukraine"
"Novosiltsi","49.3478","24.3811","444","Ukraine"
"Hramotne","47.9558","24.8456","371","Ukraine"
"Prymorsk","46.7333","36.3596","11679","Ukraine"
"Sadky","48.4758","28.0028","340","Ukraine"
"Medvyn","49.3903","30.7847","3749","Ukraine"
"Medvyn","51.0878","30.3369","29","Ukraine"
"Supranuvka","49.5500","26.0881","387","Ukraine"
"Budo-Ryzhany","50.6767","28.4736","269","Ukraine"
"Lozove","48.3571","36.5404","401","Ukraine"
"Krasnovolya","51.1069","25.8514","801","Ukraine"
"Hvardiys'ke","48.7328","35.3110","6207","Ukraine"
"Hremiache","50.8369","25.9300","715","Ukraine"
"Olesyne","49.4932","25.1634","532","Ukraine"
"Vaskivtsi","50.0939","26.7911","561","Ukraine"
"Kosmach","48.7497","24.3686","1517","Ukraine"
"Peremyl","50.3961","25.1642","1041","Ukraine"
"Ustechko","48.7701","25.6080","881","Ukraine"
"Vyshniy Dubovets'","48.1775","23.9158","714","Ukraine"
"Brusyliv","50.2833","29.5333","4914","Ukraine"
"Semykozivka","49.2433","39.5678","1949","Ukraine"
"Lisohirka","49.3742","27.4206","1087","Ukraine"
"Studenytsia","50.3386","28.8972","1437","Ukraine"
"Pidlissya","49.5550","23.7953","154","Ukraine"
"Illiashivka","50.2756","26.2978","143","Ukraine"
"Sevastopol","44.6000","33.5333","428753","Ukraine"
"Beryslav","46.8333","33.4167","12417","Ukraine"
"Brylivka","46.4250","33.1511","4339","Ukraine"
"Dem'yanka-Naddnistryans'ka","49.4314","24.0806","224","Ukraine"
"Uspenivka","48.5542","36.6333","46","Ukraine"
"Kashperivka","49.8614","28.8922","716","Ukraine"
"Lukashivka","49.2764","28.2594","672","Ukraine"
"Novoukrayinka","51.0433","25.6544","211","Ukraine"
"Puhachivka","50.5669","25.6192","1065","Ukraine"
"Perlovtse","49.1717","24.6064","106","Ukraine"
"Bila Bereza","51.7257","34.3657","14","Ukraine"
"Onufriivka","48.9023","33.4464","3855","Ukraine"
"Davydivka","49.5725","34.7144","91","Ukraine"
"Nahiryanka","48.9308","25.7342","2460","Ukraine"
"Peredily","50.5528","25.9294","171","Ukraine"
"Zaliznyi Port","46.1222","32.2983","1528","Ukraine"
"Smerkluv","48.9394","25.1392","108","Ukraine"
"Lyubymivka","48.3721","35.1772","2610","Ukraine"
"Lyubymivka","48.1192","34.9865","239","Ukraine"
"Lyubymivka","48.4206","34.3472","21","Ukraine"
"Tikhomel'","49.9633","26.2572","272","Ukraine"
"Zavorsklo","49.4563","34.6357","665","Ukraine"
"Pervozvanivka","48.3064","34.3530","101","Ukraine"
"Palchykivka","49.6279","34.2619","681","Ukraine"
"Korytne","48.3336","25.3753","2452","Ukraine"
"Kheylivshchyna","50.3149","33.0532","463","Ukraine"
"Mizhrichchia","44.8783","34.8481","519","Ukraine"
"Reia","50.0219","28.6219","1080","Ukraine"
"Zayichentsi","49.9884","34.5589","382","Ukraine"
"Solov'yi","51.4281","24.7808","423","Ukraine"
"Volodymyrivka","46.7263","35.8589","611","Ukraine"
"Bohdanivka","46.7411","35.9153","958","Ukraine"
"Rubizhne","49.0167","38.3667","59951","Ukraine"
"Chumaky","48.6579","34.8739","1977","Ukraine"
"Chumaky","48.2996","36.2746","309","Ukraine"
"Khruli","50.3311","33.4032","121","Ukraine"
"Makhnivka","49.7219","28.6769","3467","Ukraine"
"Makhnivka","49.1906","28.1542","619","Ukraine"
"Rakhiv","48.0500","24.2167","15621","Ukraine"
"Sroki","49.6347","23.7847","98","Ukraine"
"Luzhky","47.5828","38.2583","77","Ukraine"
"Kul'ovtse","48.6339","25.8278","649","Ukraine"
"Semenivka","50.2311","29.3367","59","Ukraine"
"Semenivka","48.3336","33.6794","233","Ukraine"
"Vsesvyats'ke","48.7404","35.5264","602","Ukraine"
"Vsesvyats'ke","48.2714","36.5083","233","Ukraine"
"Kudriave","46.5083","33.5239","111","Ukraine"
"Kalynivka","47.6353","31.9081","944","Ukraine"
"Berezhany","49.5442","28.5072","1287","Ukraine"
"Okop","49.9603","26.5261","466","Ukraine"
"Petropavlivs'ka Borshchahivka","50.4378","30.3439","6125","Ukraine"
"Novomalynivka","47.7147","33.1025","409","Ukraine"
"Novyi Kropyvnyk","49.2167","23.3103","1175","Ukraine"
"Bilokurakyne","49.5167","38.7167","6560","Ukraine"
"Shevchenko","47.3856","37.9322","205","Ukraine"
"Shevchenko","48.6219","36.8642","33","Ukraine"
"Marianivka","48.7781","29.3636","977","Ukraine"
"Marianivka","49.7347","27.8908","392","Ukraine"
"Marie-Dmytrivka","48.1407","33.7692","366","Ukraine"
"Marianivka","51.0242","25.6775","77","Ukraine"
"Babyn","48.5242","26.8553","2143","Ukraine"
"Novopodilske","47.9243","33.9020","167","Ukraine"
"Yavdokhivka","47.8893","33.8781","93","Ukraine"
"Harasymiv","48.7522","25.2061","1436","Ukraine"
"Pobieda","47.6042","38.2725","727","Ukraine"
"Rivne","48.1683","23.5375","365","Ukraine"
"Rivne","46.9300","35.3960","308","Ukraine"
"Berezivka","48.9331","28.8772","103","Ukraine"
"Zolota Dolyna","46.7444","35.1063","139","Ukraine"
"Lysychansk","48.9169","38.4306","96161","Ukraine"
"Hroza","48.1582","35.0792","47","Ukraine"
"Veryn","49.4844","23.9903","1680","Ukraine"
"Kam'yanchany","48.3685","34.2901","169","Ukraine"
"Polianka","50.2584","27.6881","1672","Ukraine"
"Belobozhnitsa","49.0494","25.6814","2035","Ukraine"
"Svitlohirske","48.3447","34.5089","1801","Ukraine"
"Liubymivka","48.1317","34.0249","421","Ukraine"
"Burty","48.9658","33.3303","277","Ukraine"
"Burty","49.6574","34.8917","29","Ukraine"
"Zolotonosha","49.6833","32.0333","27847","Ukraine"
"Koktebel","44.9600","35.2406","2807","Ukraine"
"Kolotiyi","49.5744","34.0070","465","Ukraine"
"Zintsi","49.5402","34.6214","856","Ukraine"
"Sloboda-Dolynska","49.0308","24.0264","674","Ukraine"
"Zhelibory","49.2453","24.7419","631","Ukraine"
"Ozeryany","51.0253","24.8131","417","Ukraine"
"Druzhba","48.6622","27.5883","713","Ukraine"
"Piatkivka","48.3189","29.3833","1841","Ukraine"
"Rzhyshchiv","49.9611","31.0436","7359","Ukraine"
"Chervonyy Oskil","49.1744","37.4280","3217","Ukraine"
"Kondriuche","48.0325","39.6222","278","Ukraine"
"Orlivka","48.5817","29.5994","805","Ukraine"
"Kruhlyakivka","49.5278","37.7125","1173","Ukraine"
"Verhuny","49.8592","33.3487","578","Ukraine"
"Parkhomivka","49.0322","29.3142","473","Ukraine"
"Stepanivka","50.0967","35.0742","245","Ukraine"
"Khvorostiv","51.1975","24.2300","594","Ukraine"
"Khyzhyntsi","49.3297","30.8264","711","Ukraine"
"Verbka","48.2139","29.2847","2295","Ukraine"
"Verbka","48.2883","28.5689","1148","Ukraine"
"Ludyn","50.8011","24.0422","565","Ukraine"
"Dovzhyk","51.6164","31.0231","704","Ukraine"
"Kapitanivka","46.9694","30.8636","102","Ukraine"
"Oleksiivka","48.0186","36.9497","1163","Ukraine"
"Luh","49.3094","23.9544","313","Ukraine"
"Mel'nytsya","51.1514","25.1022","573","Ukraine"
"Kurylivka","48.5732","34.6104","2583","Ukraine"
"Dovbnivka","50.1390","34.4342","32","Ukraine"
"Tarashcha","49.5500","30.5000","10195","Ukraine"
"Balta","47.9361","29.6225","19353","Ukraine"
"Novi Zhadky","50.5992","28.8406","102","Ukraine"
"Shevchenko","48.8768","27.8321","491","Ukraine"
"Travneve","50.4261","29.0800","229","Ukraine"
"Nykytivka","48.3356","38.8964","285","Ukraine"
"Karpivka","47.6660","33.1194","836","Ukraine"
"Shpykiv","48.7870","28.5642","3183","Ukraine"
"Hlybokoiar","47.2314","29.7917","174","Ukraine"
"Dobrovlyany","48.6641","25.7540","1980","Ukraine"
"Trudovoy","49.0711","39.0119","54","Ukraine"
"Mel'nyky","50.5862","33.3614","127","Ukraine"
"Berestianky","49.2297","36.8687","15","Ukraine"
"Nemyriv","50.1039","23.4344","1900","Ukraine"
"Kolomak","49.6533","34.8639","18","Ukraine"
"Mezhyrich","50.3011","26.4750","1490","Ukraine"
"Synkiv","48.6172","25.9572","1221","Ukraine"
"Liubomyrka","48.1300","29.5094","971","Ukraine"
"Novovolodymyrivka","52.1127","34.0751","55","Ukraine"
"Vynohradne","47.0906","37.6603","1738","Ukraine"
"Vynohradne","48.6835","34.9364","12","Ukraine"
"Yasynuvata","48.1167","37.8333","35303","Ukraine"
"Zarichchya","49.0356","23.0439","435","Ukraine"
"Zarichchya","49.5178","22.7864","177","Ukraine"
"Popeli","49.3092","23.3850","2636","Ukraine"
"Teviasheve","49.6044","39.0350","22","Ukraine"
"Obroshino","49.7853","23.8686","4186","Ukraine"
"Okhtyrka","50.3074","34.9016","47971","Ukraine"
"Dniproenerhiia","47.9222","36.8014","96","Ukraine"
"Kopaihorod","48.8550","27.8019","1258","Ukraine"
"Zastavne","50.3761","23.7375","95","Ukraine"
"Yehoryne","48.8584","34.4461","183","Ukraine"
"Rashkiv","48.5111","26.2689","1120","Ukraine"
"Voloske","48.3049","35.1394","1362","Ukraine"
"Dobryachyn","50.4169","24.2417","924","Ukraine"
"Romanykha","50.4975","33.1064","179","Ukraine"
"Dertsen","48.3350","22.6825","2793","Ukraine"
"Perehonivka","49.0608","34.1608","376","Ukraine"
"Moshoryne","48.6158","32.7219","2045","Ukraine"
"Plai","47.9853","24.9244","232","Ukraine"
"Dobrivliany","49.2969","23.8586","828","Ukraine"
"Lyubytove","51.3822","33.2474","288","Ukraine"
"Demki","50.0808","31.9308","951","Ukraine"
"Pochapyntsi","49.2153","28.0444","837","Ukraine"
"Korostyshiv","50.3186","29.0592","25445","Ukraine"
"Velyki Solontsi","49.2794","34.4277","493","Ukraine"
"Brech","51.7386","32.3508","226","Ukraine"
"Hovtva","49.4222","33.8826","417","Ukraine"
"Sarazhynka","48.0878","29.4475","1119","Ukraine"
"Pyliai","50.0689","27.0225","259","Ukraine"
"Novolozuvativka","48.2739","36.7630","234","Ukraine"
"Zhuky","49.6749","34.5007","1027","Ukraine"
"Zatyshne","48.1597","28.8944","138","Ukraine"
"Nova Balta","47.9412","34.2603","2","Ukraine"
"Nelypivtsi","48.4200","26.9200","2171","Ukraine"
"Moisiivka","50.7583","28.6025","65","Ukraine"
"Manevychi","51.2925","25.5503","10825","Ukraine"
"Troiandove","46.8944","30.8611","1623","Ukraine"
"Slobidka","49.4881","28.2997","782","Ukraine"
"Bolotnia","49.5528","24.6842","679","Ukraine"
"Vyshenka","49.7164","28.3667","630","Ukraine"
"Novospasivka","49.2658","39.7856","145","Ukraine"
"Velykomykhaylivka","47.9720","36.4723","1963","Ukraine"
"Keleberda","49.7442","31.5611","1194","Ukraine"
"Horokhiv","50.4994","24.7650","9134","Ukraine"
"Novokalynivka","48.2801","34.3922","71","Ukraine"
"Tokmak","47.2514","35.7058","31016","Ukraine"
"Vesele","49.2508","36.2964","386","Ukraine"
"Lenkivtsi","48.5056","26.7586","2325","Ukraine"
"Berdychi","48.1953","37.6453","267","Ukraine"
"Ternivka","44.5819","33.7444","1843","Ukraine"
"Sadove","46.0233","29.2742","1020","Ukraine"
"Sadove","50.6890","33.4248","17","Ukraine"
"Zamostya","51.4606","25.5206","303","Ukraine"
"Zamozhne","49.4052","33.7202","533","Ukraine"
"Mykolaiv","49.7586","24.3383","334","Ukraine"
"Mykolaiv","46.9667","32.0000","498748","Ukraine"
"Shchebetovka","44.9389","35.1583","3442","Ukraine"
"Seliatyn","47.8736","25.1861","1173","Ukraine"
"Krasnyi Luh","48.4699","33.6509","189","Ukraine"
"Shmyhli","49.5394","34.5547","117","Ukraine"
"Shmyhli","50.4415","33.1284","47","Ukraine"
"Mykolayivka","48.3823","36.3086","5318","Ukraine"
"Mykolayivka","48.7867","35.1796","3324","Ukraine"
"Mykolayivka","48.2088","36.5252","70","Ukraine"
"Hlyboke","45.7292","29.6094","1232","Ukraine"
"Vil'bivne","50.3597","26.5667","1771","Ukraine"
"Horodyshche","50.6211","26.8747","397","Ukraine"
"Dolyna","48.9703","24.0108","20691","Ukraine"
"Dolyna","48.8644","25.2000","623","Ukraine"
"Vyskryva","48.5944","38.2911","12","Ukraine"
"Nova Maiachka","46.6033","33.2283","6811","Ukraine"
"Chornozemne","46.7864","34.8317","678","Ukraine"
"Horodok","51.3700","25.4792","1086","Ukraine"
"Horodok","50.6986","25.1217","214","Ukraine"
"Bubnivka","48.7211","29.3092","941","Ukraine"
